t,px,py,pz,qw,qx,qy,qz,roll,pitch,yaw,vx,vy,vz,wx,wy,wz,cur_x,cur_y,cur_z,wav_x,wav_y,wav_z,kick_x,kick_y,kick_z,u0,u1,u2,u3,u4,u5,dist_on
6.651999999999489,-0.017058332779951346,0.0026384457173334597,0.04117867715832124,0.9960907895077965,0.02221332551247131,0.08545574836492958,-0.002649962037819548,0.04446450039892364,0.17119611110987915,-0.00150468940520758,0.003379383457964277,0.005426255283724315,-0.04942275128895511,0.03411105336124262,0.28692380585155514,-0.015006666827294892,0.2,0.0,0.0,0.03501070056993599,0.0002408574227165603,-0.002579388039389845,0.0,0.0,0.0,-0.9832737224193263,-0.6702760010650239,0.7083897227312165,0.9451630561147747,-0.9235674048616042,-0.6685072870898234,1.0
6.673999999999487,-0.016989357794756528,0.0027533267063970563,0.040104882289821495,0.9958074608150628,0.022568757862275555,0.08860271927507687,-0.0027767410166277813,0.045181380622749255,0.1775187198615429,-0.0015553350928769459,0.002842593588820582,0.004976064848037404,-0.04806905386723375,0.031355133274329997,0.2870842912042389,-0.015346677199391057,0.2,0.0,0.0,0.03501494803565025,1.3173907855445176e-05,-0.0015349547620712263,0.0,0.0,0.0,-0.9832737224193263,-0.6702760010650239,0.7083897227312165,0.9451630561147747,-0.9235674048616042,-0.6685072870898234,1.0
6.695999999999485,-0.016932241901853506,0.002858324506793881,0.03906101803530169,0.9955146299530676,0.022893371025243837,0.09175008759273409,-0.0029045721258066934,0.04583658736982592,0.18384396269388917,-0.0016092702099675528,0.0022986024921602963,0.004529447614796459,-0.04670117228001535,0.028584539486646535,0.2871052933283997,-0.01569970993459674,0.2,0.0,0.0,0.03497870034416699,-0.00020946995248196916,-0.0004889123658200652,0.0,0.0,0.0,-0.9832737224193263,-0.6702760010650239,0.7083897227312165,0.9451630561147747,-0.9235674048616042,-0.6685072870898234,1.0
6.717999999999482,-0.016880117172687767,0.0029537827067397547,0.038045897028993726,0.9952129233660645,0.023187269796950502,0.09489153578690034,-0.003030531395498753,0.04643072971557537,0.19015907505552573,-0.001661446420245203,0.0025638967815351035,0.004113389896242967,-0.04549211166301176,0.02580221195663504,0.2857059861664832,-0.015228455690359206,0.2,0.0,0.0,0.03490161409371037,-0.00042725885239125434,0.000557594931680413,0.0,0.0,0.0,-0.6812501955490521,-0.4782180857383876,0.42699100071771023,0.7324794229878618,-0.9234088445890238,-0.6874865185104223,1.0
6.73999999999948,-0.016820549187471855,0.003040151391970848,0.0370570620411925,0.9949036933305339,0.02345098848262002,0.09801420640851032,-0.0031476147416781156,0.04696611148705574,0.19643793941268753,-0.001698758280253374,0.0028744515522698,0.003701434752777356,-0.04429215189153052,0.023011089001626253,0.2839943604660224,-0.014640494354239902,0.2,0.0,0.0,0.0347833763630567,-0.0006404016065244458,0.0016033881744892265,0.0,0.0,0.0,-0.6812501955490521,-0.4782180857383876,0.42699100071771023,0.7324794229878618,-0.9234088445890238,-0.6874865185104223,1.0
6.761999999999477,-0.016751416861218154,0.0031176060534849836,0.036093761203833584,0.9945874755323976,0.02368445325032875,0.10111478461690017,-0.0032558440079290367,0.047442586130931746,0.2026739051397882,-0.0017219934166701274,0.0037128393776025875,0.0033122307141193598,-0.043250429938621604,0.020213463460915432,0.28131277892220957,-0.014099420141005306,0.2,0.0,0.0,0.03462373315155247,-0.0008491322510016906,0.002647254825939302,0.0,0.0,0.0,-0.43090411076140206,-0.24212757843540242,0.19630660977049852,0.4767263230267717,-0.9536649738056804,-0.7359867026410787,1.0
6.783999999999475,-0.01665855295945304,0.003186689012174537,0.0351518243278162,0.9942658970737387,0.023887526489832632,0.10417988691205425,-0.003356062774033249,0.04785960027674933,0.2088401119570894,-0.0017341175885189238,0.0048204213595218655,0.0029342135842408165,-0.04229340307160164,0.017411773294735082,0.2779399090171573,-0.013590623949384779,0.2,0.0,0.0,0.03442244711437876,-0.0010537032401841593,0.003687948040816656,0.0,0.0,0.0,-0.43090411076140206,-0.24212757843540242,0.19630660977049852,0.4767263230267717,-0.9536649738056804,-0.7359867026410787,1.0
6.8059999999994725,-0.016541041087030695,0.0032475171166591447,0.03423063567602641,0.9939396410566279,0.024060183269893398,0.107206373434583,-0.003448334706251548,0.048217036520246004,0.21493022964439737,-0.001736007297962666,0.006247260454606031,0.0025713184368019925,-0.04146208877121219,0.014608280095739574,0.2739450790101062,-0.012990640719912728,0.2,0.0,0.0,0.03417936131363586,-0.0012543897873894022,0.00472419120746704,0.0,0.0,0.0,-0.11401901410725881,0.02646573282870992,-0.10154864578682657,0.1891020888427526,-1.0005745846658765,-0.8005542011183462,1.0
6.82799999999947,-0.01638279368911957,0.0033006398813189733,0.033324646096035034,0.9936106399867225,0.024202642958593142,0.11018013812830664,-0.0035306289839362047,0.048515630333251056,0.22091575684914838,-0.0017247572333300046,0.008302075484617113,0.0022270020756408114,-0.04084310127298987,0.011805567338013651,0.26864538721454195,-0.012177340611838883,0.2,0.0,0.0,0.033894326944745166,-0.0014514804620855898,0.005754672636629518,0.0,0.0,0.0,-0.11401901410725881,0.02646573282870992,-0.10154864578682657,0.1891020888427526,-1.0005745846658765,-0.8005542011183462,1.0
6.849999999999468,-0.016180336707617114,0.003346209679827599,0.032432239654269564,0.993280105239688,0.02431504220882378,0.11309481131739343,-0.0036020703076319657,0.04875577593531056,0.22678377657608448,-0.0016994348596115353,0.010270824569010286,0.0018850203033655946,-0.0402309838584385,0.009005796985854981,0.26331002102794726,-0.011372250998720076,0.2,0.0,0.0,0.03356728424424033,-0.0016452822688987,0.006778055229416685,0.0,0.0,0.0,0.22509782683061244,0.32232043180882763,-0.42317788806612955,-0.12424138207040991,-1.0410205708885822,-0.8572271023990753,1.0
6.871999999999465,-0.015922034818114855,0.0033846066372503446,0.03154899346985175,0.9929497206104254,0.024397575350061936,0.11594051835785667,-0.0036615378774731942,0.0489380121323745,0.23251428576116948,-0.001658748424947814,0.013404390599694865,0.0015743013132117991,-0.040017997706543844,0.006211308300587821,0.2559222116906065,-0.01028286625467514,0.2,0.0,0.0,0.03319820537279367,-0.0018361130333272942,0.007792970723472602,0.0,0.0,0.0,0.22509782683061244,0.32232043180882763,-0.42317788806612955,-0.12424138207040991,-1.0410205708885822,-0.8572271023990753,1.0
6.893999999999463,-0.015597651801593023,0.0034161084153169602,0.030670983543942473,0.9926215463416,0.024450501206520744,0.11870506437969713,-0.0037076164544432647,0.04906306178084403,0.23808256717372672,-0.0016008817039814911,0.016336848312553085,0.0012613548175322744,-0.039782625905989355,0.003424239912594452,0.24858909223350967,-0.009209839564072949,0.2,0.0,0.0,0.03278712621539657,-0.0020243016017696706,0.008798025184303402,0.0,0.0,0.0,0.22509782683061244,0.32232043180882763,-0.42317788806612955,-0.12424138207040991,-1.0410205708885822,-0.8572271023990753,1.0
6.91599999999946,-0.015206232502164322,0.0034409474314670272,0.029797368661811128,0.992296545294411,0.024473663778726017,0.12138615422191211,-0.0037426649914526584,0.04912996914232339,0.2434839979105456,-0.001531307367147649,0.019629878346631508,0.0009755235924979405,-0.03964750340695084,0.0006464566805612737,0.24051832078668678,-0.008867904934086047,0.2,0.0,0.0,0.03233417156332811,-0.00221018629086121,0.009791808591637698,0.0,0.0,0.0,0.3425604174220347,0.502640047522798,-0.5170004726039178,-0.32820155406781215,-1.0128324318024446,-0.8509741732227174,1.0
6.937999999999458,-0.01474128571561658,0.0034596030997916106,0.028926106519536546,0.9919763192583414,0.024466267742904516,0.12397636077360702,-0.0037743532875983907,0.04913498709378904,0.24870387145595602,-0.001466790816794756,0.02292110166259607,0.0006954159327875187,-0.03955291396508827,-0.0021199082567041495,0.23220553806149213,-0.008732830899940907,0.2,0.0,0.0,0.031839519215334594,-0.0023941096167687777,0.010772889633140754,0.0,0.0,0.0,0.3425604174220347,0.502640047522798,-0.5170004726039178,-0.32820155406781215,-1.0128324318024446,-0.8509741732227174,1.0
6.9599999999994555,-0.014203933482851901,0.0034722036992596824,0.028056660681967927,0.9916617406064844,0.02442841924084221,0.12647442857692162,-0.0038030864905080593,0.049077994150739566,0.253739543151865,-0.0014087169111421164,0.0263351953067336,0.0004349901679276573,-0.03949668407557118,-0.004870835735798237,0.22353298846750447,-0.008639514923669881,0.2,0.0,0.0,0.03130342571311941,-0.002576416908029194,0.011739825133764599,0.0,0.0,0.0,0.45648571766593904,0.600316856475926,-0.6067274001552599,-0.450077126703237,-0.9673408119916513,-0.827935852597483,1.0
6.981999999999453,-0.013589423829509019,0.003479295680883211,0.027187881294393503,0.991354243125192,0.02436021660471404,0.12887466033619197,-0.0038296746443454125,0.048958688817910254,0.25857942769638576,-0.0013594971032610116,0.029829235138770005,0.00018756625687481912,-0.03948570213077798,-0.007601472276804187,0.21449122991366554,-0.00858811144325854,0.2,0.0,0.0,0.030726209367548052,-0.0027574526677180606,0.012691157779579923,0.0,0.0,0.0,0.45648571766593904,0.600316856475926,-0.6067274001552599,-0.450077126703237,-0.9673408119916513,-0.827935852597483,1.0
7.003999999999451,-0.012898968793641295,0.003480973116899693,0.026319133240374996,0.9910547418563349,0.024261901964610196,0.13117546932640423,-0.003854219004077015,0.04877729184822249,0.26322017985577695,-0.00131980969887963,0.033310249700720905,-5.013552714519967e-05,-0.03949324822928664,-0.010307266808504672,0.20529417166616676,-0.008498956519863023,0.2,0.0,0.0,0.03010826165753529,-0.00293755836238546,0.013625422401920328,0.0,0.0,0.0,0.5637349053535793,0.6708227427526972,-0.6920330620766508,-0.542526867194823,-0.91247384586547,-0.793429954503587,1.0
7.025999999999448,-0.012129451343041246,0.003477680879283526,0.02544984653903721,0.9907644778919474,0.024133917143802638,0.13337272016988772,-0.0038756812662823635,0.04853472773556344,0.26765325283259095,-0.0012880237657135164,0.03695343701977456,-0.0002692963944028496,-0.03954031571359059,-0.012983466141132237,0.19560815494174344,-0.008280508906679307,0.2,0.0,0.0,0.029450044609870284,-0.0031170696354931864,0.014541148004168399,0.0,0.0,0.0,0.5637349053535793,0.6708227427526972,-0.6920330620766508,-0.542526867194823,-0.91247384586547,-0.793429954503587,1.0
7.047999999999446,-0.011280961825504027,0.0034695688207508775,0.024579305653663307,0.9904845008285896,0.023976706978626458,0.1354636942510447,-0.0038934150382269727,0.04823186643400613,0.27187296994200794,-0.0012631854936245883,0.04048690077780503,-0.0004878762101891861,-0.039610044110882495,-0.01562572113856944,0.18588230557734342,-0.00806035739644204,0.2,0.0,0.0,0.028752090211558307,-0.0032963137697207654,0.015436860130787078,0.0,0.0,0.0,0.5637349053535793,0.6708227427526972,-0.6920330620766508,-0.542526867194823,-0.91247384586547,-0.793429954503587,1.0
7.069999999999443,-0.010352772683934173,0.0034569099695530114,0.023707227435472426,0.9902157937107402,0.023790733392427856,0.1374460551127092,-0.00390702244860945,0.04786957309051193,0.2758744346480425,-0.0012447742493408563,0.04422506401670543,-0.0006807727068581099,-0.03968579085665124,-0.018229672334776795,0.17564948050849444,-0.007741119830223742,0.2,0.0,0.0,0.028015006236021607,-0.003475607260583056,0.01631108667660506,0.0,0.0,0.0,0.6561087404961738,0.7319804953940657,-0.7628033276705782,-0.6252884730742556,-0.8491309784370177,-0.7501326921832646,1.0
7.091999999999441,-0.009343303681838559,0.0034399913097960455,0.022833111560300184,0.9899595317066107,0.023576542118391896,0.13931596600000443,-0.003915847603555907,0.047448964494426635,0.2796497076137789,-0.0012317343264370484,0.04785882812527631,-0.0008748923617263541,-0.039793165090031814,-0.020791149707448105,0.16533757203337773,-0.007412848803630349,0.2,0.0,0.0,0.027239471576216152,-0.0036552533892681835,0.01716235869666173,0.0,0.0,0.0,0.6561087404961738,0.7319804953940657,-0.7628033276705782,-0.6252884730742556,-0.8491309784370177,-0.7501326921832646,1.0
7.1139999999994386,-0.008253588431532389,0.0034189309291530546,0.021956661779661726,0.9897165162795977,0.02333465835888133,0.14107213363715185,-0.003919723678295554,0.04697103118007114,0.2831960073001637,-0.001223839574410889,0.05158984332562438,-0.0010506520048605829,-0.03989047735331673,-0.02330621677752166,0.1546882626066099,-0.007026511393032644,0.2,0.0,0.0,0.026426240330351958,-0.003835539955874153,0.017989215817063864,0.0,0.0,0.0,0.7360774558356834,0.7823889469026202,-0.820945592446486,-0.6975236160520157,-0.7757633168192295,-0.6970174204842178,1.0
7.135999999999436,-0.007081430702798823,0.0033941042089073886,0.021077906704608493,0.9894879056425182,0.02306571187389106,0.14271056870479693,-0.003918048351757792,0.04643709637895508,0.2865050891408664,-0.0012200123651385732,0.05528993331075466,-0.0012219574072298,-0.04001156791963903,-0.025770945029239618,0.1438426799428542,-0.006610675396223982,0.2,0.0,0.0,0.025576142982320617,-0.004016737040440821,0.018790210807645428,0.0,0.0,0.0,0.7360774558356834,0.7823889469026202,-0.820945592446486,-0.6975236160520157,-0.7757633168192295,-0.6970174204842178,1.0
7.157999999999434,-0.005828496361869441,0.0033655463998635018,0.020196394199505054,0.9892744259038195,0.02277030491929018,0.14423012777454558,-0.003910717158011862,0.04584834083133193,0.28957448297771565,-0.0012200118826773516,0.05899735869863039,-0.001382047012935263,-0.0401172268638073,-0.028181812522709623,0.1327962391739379,-0.006166468459902572,0.2,0.0,0.0,0.02469008029610165,-0.004199095116205357,0.019563908938693784,0.0,0.0,0.0,0.8023079825823816,0.8205143089324535,-0.8650964115088885,-0.7577288785906935,-0.6902427606133922,-0.631984222000032,1.0
7.179999999999431,-0.004493052077184818,0.0033336438071581644,0.01931281345903511,0.9890770873890341,0.022449125006569242,0.1456274803499004,-0.0038973010410540826,0.04520621440773152,0.2923972905550333,-0.001222951001817904,0.0627288812580535,-0.0015320195141138736,-0.04022204330927699,-0.030535216330879193,0.12147608576954441,-0.005682217990015713,0.2,0.0,0.0,0.023769035516390064,-0.00438284275902271,0.020308901075221406,0.0,0.0,0.0,0.8023079825823816,0.8205143089324535,-0.8650964115088885,-0.7577288785906935,-0.6902427606133922,-0.631984222000032,1.0
7.201999999999429,-0.003076491369402787,0.0032984312350182953,0.018426666728391883,0.9888966129955792,0.02210285529831123,0.14690104251551225,-0.0038776670034108593,0.04451211537055592,0.29497016291100714,-0.001228413010460057,0.06638967654982274,-0.0016788240736480087,-0.04032742072648631,-0.0328280223336619,0.11005737582595951,-0.005193119563997877,0.2,0.0,0.0,0.022814056587757054,-0.00456818549832637,0.021023793927919355,0.0,0.0,0.0,0.8472296842303063,0.8412960676487025,-0.8876698629584586,-0.8008590089094675,-0.5915688791694949,-0.5540468360597731,1.0
7.223999999999426,-0.0015785527375379944,0.003260223615515027,0.017539141508741033,0.9887337544422026,0.02173219966668848,0.14804876963144767,-0.003851770357590418,0.04376747428100527,0.29728883257058697,-0.0012361237713107204,0.07010250576877748,-0.0018075609704237654,-0.04037012335673541,-0.03505703915824211,0.09835868456984559,-0.004687932267132473,0.2,0.0,0.0,0.021826276440100545,-0.00475530334074027,0.02170723165464983,0.0,0.0,0.0,0.8472296842303063,0.8412960676487025,-0.8876698629584586,-0.8008590089094675,-0.5915688791694949,-0.5540468360597731,1.0
7.245999999999424,-3.094167240404611e-10,0.003219146013524188,0.01665029169063847,0.9885892118526173,0.021337893260487295,0.1490686933068694,-0.003819580553821282,0.04297380469748517,0.29934919636315577,-0.0012457699523760494,0.07371603606856937,-0.001938943696279177,-0.040445722091738565,-0.03721946020410287,0.08657893440397957,-0.004179986262536926,0.2,0.0,0.0,0.020806891899105184,-0.004944350269685209,0.022357882092574496,0.0,0.0,0.0,0.8472296842303063,0.8412960676487025,-0.8876698629584586,-0.8008590089094675,-0.5915688791694949,-0.5540468360597731,1.0
7.267999999999422,0.0016578162140881481,0.003175357864347137,0.015760906214939,0.988463505493044,0.02092066915872661,0.1499597474677802,-0.003781276207018842,0.04213258257046927,0.3011489958261131,-0.0012573774886167754,0.07731353461863019,-0.002050438404988139,-0.04039765564011658,-0.03931259560821908,0.07465829854896952,-0.0037097291507946226,0.2,0.0,0.0,0.01975717579165929,-0.005135452353784296,0.022974452707997937,0.0,0.0,0.0,0.8636123617655329,0.8390401964596446,-0.8816550286408937,-0.821000675676137,-0.4836862864174716,-0.4669463986180376,1.0
7.289999999999419,0.0033940122309486665,0.0031291258207584733,0.01487241954112914,0.9883571582305166,0.020481255943615884,0.15072053235414665,-0.0037372525139351973,0.041245221293719964,0.30268531902522106,-0.0012713872010391425,0.0808280653666148,-0.0021629731290741,-0.040376497887345576,-0.04133391049242251,0.06263399405025294,-0.0032431474664612256,0.2,0.0,0.0,0.01867847422880128,-0.005328706646567049,0.02355569470305878,0.0,0.0,0.0,0.8636123617655329,0.8390401964596446,-0.8816550286408937,-0.821000675676137,-0.4836862864174716,-0.4669463986180376,1.0
7.311999999999417,0.005206731870512786,0.0030804904196325106,0.013984898803574099,0.988270570961393,0.02002044481478863,0.15135012905172487,-0.00368765468657984,0.04031336673024621,0.3039562288493083,-0.0012876329955031811,0.08426274619882594,-0.0022619887279741436,-0.04025239141497029,-0.043281183684991564,0.05055730853193756,-0.0028187877691817527,0.2,0.0,0.0,0.017572192869629688,-0.005524181247013411,0.024100391775343795,0.0,0.0,0.0,0.8562993121231985,0.8159287769345608,-0.852230096377214,-0.8200010825553071,-0.3712892845256382,-0.37506648272924104,1.0
7.333999999999414,0.007094157887544112,0.00302978703964966,0.01310088757981181,0.988204013064271,0.01953897201857401,0.15184813926433513,-0.003633144380278914,0.03933841131257361,0.3049608763524806,-0.0013069681907211777,0.08761321570449625,-0.002356273577310473,-0.04010347317069511,-0.045152201421643154,0.03841019589722709,-0.0024232183721190218,0.2,0.0,0.0,0.016439817712997847,-0.0057219128547515916,0.02460739325366864,0.0,0.0,0.0,0.8562993121231985,0.8159287769345608,-0.852230096377214,-0.8200010825553071,-0.3712892845256382,-0.37506648272924104,1.0
7.355999999999412,0.009054501634163317,0.002977013003451958,0.012220079149521163,0.9881577875510329,0.01903767003286127,0.15221360430550987,-0.0035738895191556918,0.038322114305810805,0.30569727311365674,-0.0013291731577718465,0.09087313227737655,-0.0024434421058315845,-0.03989692132788221,-0.0469451518301143,0.0262100703681789,-0.00204887410917927,0.2,0.0,0.0,0.015282882750649252,-0.0059219087859680285,0.02507557636707627,0.0,0.0,0.0,0.8343510202711791,0.7786261354900933,-0.8088790015778563,-0.8041011345767234,-0.2580871458648386,-0.2817234665400164,1.0
7.3779999999994095,0.0110853027164108,0.0029224961169003897,0.011345359093536567,0.9881319789845269,0.01851732710596782,0.15244663750439388,-0.0035104726999978185,0.03726604026786379,0.3061656308163651,-0.001354816581408581,0.0940204146662557,-0.0025200320193807836,-0.03960221968660635,-0.04865818743879918,0.014018897914688768,-0.0017239684219438095,0.2,0.0,0.0,0.014103000482766562,-0.006124143827094001,0.02550389819076375,0.0,0.0,0.0,0.8343510202711791,0.7786261354900933,-0.8088790015778563,-0.8041011345767234,-0.2580871458648386,-0.2817234665400164,1.0
7.399999999999407,0.013184662025394644,0.002866273208632332,0.010476805569477155,0.9881267313334142,0.017978792451872058,0.15254661670828293,-0.0034431928745987167,0.03617197874877144,0.30636467721974675,-0.0013838516466636876,0.09709890560068958,-0.0025985811951698464,-0.039337906327599155,-0.05028985014585484,0.0017180820494813748,-0.0013985877134084445,0.2,0.0,0.0,0.012901828469288147,-0.006328562973398546,0.025891350145239363,0.0,0.0,0.0,0.8055368632743598,0.734162407563821,-0.759733781034898,-0.7799683347967074,-0.14698676819275805,-0.1894877576527357,1.0
7.421999999999405,0.015350240120371294,0.002808566778791106,0.009616460945383714,0.9881420648992659,0.017422923001414195,0.15251337083556396,-0.0033723948577072684,0.03504174120473862,0.3062940701716193,-0.0014162701313372521,0.10002890309897523,-0.002655469527682829,-0.03886354423074362,-0.05183872009757644,-0.01047298555166715,-0.001132949760305195,0.2,0.0,0.0,0.01168109032625322,-0.006535079249956832,0.02623700117355541,0.0,0.0,0.0,0.8055368632743598,0.734162407563821,-0.759733781034898,-0.7799683347967074,-0.14698676819275805,-0.1894877576527357,1.0
7.443999999999402,0.017579690769015086,0.0027495314537845585,0.008765635327875618,0.9881778929026788,0.016850579242043046,0.15234707052284643,-0.003298493707496716,0.033877141650557045,0.3059541771512409,-0.0014521633276369697,0.10289903397803608,-0.0027172857725394437,-0.03845169391666137,-0.053303634836011596,-0.02276108960657737,-0.0008659814149198797,0.2,0.0,0.0,0.010442559884093107,-0.006743575230572805,0.026539978398989052,0.0,0.0,0.0,0.8055368632743598,0.734162407563821,-0.759733781034898,-0.7799683347967074,-0.14698676819275805,-0.1894877576527357,1.0
7.4659999999994,0.019871230023949988,0.002689255189921715,0.007925010876621251,0.9882341570396856,0.016262671201211835,0.15204735233785482,-0.0032216505882632336,0.03268018589361675,0.30534429215105985,-0.0014910703206990072,0.10564653125386912,-0.0027638514346991264,-0.037891249829679015,-0.05468361914145338,-0.03494975829029351,-0.0006248384224112062,0.2,0.0,0.0,0.009188059897892266,-0.006953903325527311,0.026799470607925216,0.0,0.0,0.0,0.7772370453131805,0.6891920176958507,-0.71242081114241,-0.7540109614743484,-0.039567803500628745,-0.09971060327450416,1.0
7.487999999999397,0.02222227928376772,0.002627993515065138,0.007096990174419479,0.9883105215336162,0.01566009589003867,0.1516153063059296,-0.003142183385258681,0.03145282681089762,0.30446667141642747,-0.0015327832457581977,0.10831895593331914,-0.002809839032764086,-0.03733813033896184,-0.0559778078529221,-0.047126452715410855,-0.0003931156796504484,0.2,0.0,0.0,0.00791946652778281,-0.007165885462968366,0.02701475302497305,0.0,0.0,0.0,0.7772370453131805,0.6891920176958507,-0.71242081114241,-0.7540109614743484,-0.039567803500628745,-0.09971060327450416,1.0
7.509999999999395,0.024631405525028266,0.0025657561790211805,0.006281396661326216,0.9884067715559332,0.015043784866104767,0.15105089699730406,-0.00306022802924612,0.03019714534494667,0.30332130392277545,-0.0015767243657974197,0.11089540635629298,-0.0028464265615447174,-0.03669741576045388,-0.05718562490836271,-0.05920898322344803,-0.00017824560979129932,0.2,0.0,0.0,0.006638692614763281,-0.0073793153587147,0.027185150401024535,0.0,0.0,0.0,0.7484032630829142,0.6449112706064745,-0.6660758525666346,-0.7272412556324401,0.06219521492209237,-0.014195746245279507,1.0
7.5319999999993925,0.027096029015931312,0.0025028271367054534,0.005480964740954408,0.9885223768961302,0.014414651332041799,0.15035581499715817,-0.0029760878923103364,0.02891515147743827,0.30191169106501964,-0.0016225967091797828,0.11337924916816867,-0.002877464149740131,-0.0360121775927527,-0.05830653157837237,-0.07117015542718583,1.9371443609218893e-05,0.2,0.0,0.0,0.005347699819029259,-0.0075939575476247,0.027310091296639468,0.0,0.0,0.0,0.7484032630829142,0.6449112706064745,-0.6660758525666346,-0.7272412556324401,0.06219521492209237,-0.014195746245279507,1.0
7.55399999999939,0.029614798489699678,0.0024392074651783825,0.004695365005820843,0.9886569212815688,0.013773635219301928,0.14953069039653563,-0.0028899142604094626,0.027608953476207683,0.3002391984985811,-0.0016698031989619679,0.11579607109497976,-0.002904594663774124,-0.035299472246232984,-0.05934028929909954,-0.08304524983465733,0.0002068905921286206,0.2,0.0,0.0,0.004048480139425241,-0.007809550126137913,0.027389054015839878,0.0,0.0,0.0,0.7173308485832824,0.6001408190574745,-0.6191293323933269,-0.6983447696177663,0.15686884249821975,0.06574872334995649,1.0
7.575999999999388,0.03218533124630949,0.002375145308375726,0.003926970538742764,0.9888097383647363,0.013121660697847273,0.14857749566793726,-0.0028019844107349894,0.026280597905213227,0.2983079241898663,-0.0017179664894305493,0.11809245380085888,-0.002921227308219598,-0.03448893563228701,-0.06028669491556325,-0.09467977268209221,0.0003674398670141122,0.2,0.0,0.0,0.0027430644979600446,-0.008025804419284922,0.02742162445941227,0.0,0.0,0.0,0.7173308485832824,0.6001408190574745,-0.6191293323933269,-0.6983447696177663,0.15686884249821975,0.06574872334995649,1.0
7.597999999999385,0.03480601163215693,0.0023106995568149785,0.003176026167107357,0.9889801689660527,0.012459663262914332,0.14749787958871208,-0.0027125080806998185,0.024932171501096927,0.296121321186842,-0.0017665757312155157,0.12034958587053637,-0.0029392845380272876,-0.033713346478890974,-0.06114579115196618,-0.1062295131381713,0.0005235067166440794,0.2,0.0,0.0,0.0014335101041660317,-0.00824240721834586,0.02740745165593189,0.0,0.0,0.0,0.7173308485832824,0.6001408190574745,-0.6191293323933269,-0.6983447696177663,0.15686884249821975,0.06574872334995649,1.0
7.619999999999383,0.03747504397266026,0.0022460103267892047,0.002443690865571035,0.9891674803979352,0.011788581342500633,0.14629371795871887,-0.002621671021985544,0.02356577143687026,0.29368331177151114,-0.0018150672959647166,0.12247075698540015,-0.0029421777308537398,-0.03278595559100757,-0.06191771628769002,-0.11745466184135919,0.0006530354282277424,0.2,0.0,0.0,0.00012190140062537601,-0.008459021552225153,0.02734627954164025,0.0,0.0,0.0,0.6847344180596995,0.5551926345897282,-0.5724835925176459,-0.6674457512183457,0.2431136737533675,0.13895758504986716,1.0
7.64199999999938,0.04019028947782502,0.002181237501107047,0.0017313041738944025,0.9893707705202248,0.011109344000792902,0.14496779453603448,-0.0025297160806609857,0.02218345567935616,0.2909996641701266,-0.0018629856288351872,0.12455322658297062,-0.002946782664272061,-0.03190123095900883,-0.062602753005214,-0.12853756271766778,0.0007761300915436828,0.2,0.0,0.0,-0.0011896559812903907,-0.008675288372897253,0.027237941870789352,0.0,0.0,0.0,0.6847344180596995,0.5551926345897282,-0.5724835925176459,-0.6674457512183457,0.2431136737533675,0.13895758504986716,1.0
7.663999999999378,0.04295052907982013,0.002116431096453523,0.001038939620171485,0.9895892409622042,0.01042289127053395,0.14352198298593918,-0.00243678254984601,0.020787322059343874,0.2880743117177161,-0.001909693880356087,0.1265261479081649,-0.002941371070096959,-0.030922435377600307,-0.06320134110228634,-0.13931101928111725,0.0008802894701117116,0.2,0.0,0.0,-0.0024990388911064706,-0.008890827875915617,0.027082349501675287,0.0,0.0,0.0,0.6504437038975782,0.5102725412309418,-0.5260967884308552,-0.6346216014217337,0.32017433582867816,0.2047946270827713,1.0
7.6859999999993756,0.04575326688943526,0.0020517998188942133,0.0003685096026971382,0.9898218188503555,0.009730144617632957,0.14195985707144312,-0.0023431162474088145,0.01937939373109836,0.2849146316929584,-0.001954761421853414,0.12843716668123606,-0.002933519034991145,-0.02994187281745081,-0.06371400301400681,-0.1498398485232724,0.0009725703737331267,0.2,0.0,0.0,-0.0038041121064426625,-0.009105241521390035,0.026879522965548908,0.0,0.0,0.0,0.6504437038975782,0.5102725412309418,-0.5260967884308552,-0.6346216014217337,0.32017433582867816,0.2047946270827713,1.0
7.707999999999373,0.04859760626281498,0.001987360967087176,-0.0002803970802356263,0.99006761465332,0.00903203540324278,0.14028358224517368,-0.0022488449526630616,0.01796172959055867,0.2815251565652679,-0.001997564271629628,0.13027036928345306,-0.0029199052882202064,-0.028918654237227854,-0.06414142631898537,-0.16008441078329796,0.0010514243673744044,0.2,0.0,0.0,-0.005102730066486522,-0.009318112908884445,0.02662955224757347,0.0,0.0,0.0,0.6143744299469888,0.46558673855236427,-0.47998887857811096,-0.5999742854293788,0.3876154627365833,0.26292120044763556,1.0
7.729999999999371,0.0514810056547755,0.001923315250673126,-0.0009059169770700563,0.9903254690511882,0.008329474571629714,0.1384970924523407,-0.002154201511590212,0.01653630598303712,0.27791399554517165,-0.0020376932247065075,0.132012073599801,-0.0029006630769463798,-0.027855790961283457,-0.06448436629065177,-0.16998175516614764,0.0011134613078958443,0.2,0.0,0.0,-0.006392746137638651,-0.009529010714546897,0.026332643810660503,0.0,0.0,0.0,0.6143744299469888,0.46558673855236427,-0.47998887857811096,-0.5999742854293788,0.3876154627365833,0.26292120044763556,1.0
7.751999999999368,0.05440251093561011,0.0018596957622343082,-0.001508376830287288,0.9905943723396956,0.007623376695885339,0.1366031946321626,-0.002059328280084242,0.015105112105506963,0.2740869792938153,-0.002074603518896429,0.1337172979364951,-0.0028793269035849523,-0.026800436749876495,-0.06474371549538838,-0.17963419167822295,0.001167542411046228,0.2,0.0,0.0,-0.007672010913696188,-0.00973748896693686,0.025989077023511786,0.0,0.0,0.0,0.5764615931180596,0.42125186232429424,-0.43417383367463785,-0.5635414653018879,0.44516580702164976,0.3131393357465031,1.0
7.773999999999366,0.057359982237105075,0.0017966528765833581,-0.0020865007356422193,0.9908731698482255,0.0069146404089421845,0.13460568363083786,-0.0019644228720930084,0.013670072525744661,0.2700519325333028,-0.002107885547347716,0.13528790471358154,-0.002849421488699218,-0.0256635945715748,-0.064920442636802,-0.18883088965744874,0.0011990100235797618,0.2,0.0,0.0,-0.008938383669434226,-0.009943090435479657,0.025599242482022486,0.0,0.0,0.0,0.5764615931180596,0.42125186232429424,-0.43417383367463785,-0.5635414653018879,0.44516580702164976,0.3131393357465031,1.0
7.795999999999363,0.06035194316484405,0.0017342666127490524,-0.0026400553968952095,0.9911607127135417,0.006204156397773225,0.13250831808715496,-0.0018696668929730155,0.012233080247402989,0.2658166022076897,-0.002137137547683413,0.13684759553840128,-0.0028191323522169455,-0.02456469248671153,-0.0650156149296876,-0.19778941462387742,0.0012252099985080745,0.2,0.0,0.0,-0.010189731566833319,-0.010145347235874182,0.025163616250718432,0.0,0.0,0.0,0.5764615931180596,0.42125186232429424,-0.43417383367463785,-0.5635414653018879,0.44516580702164976,0.3131393357465031,1.0
7.817999999999361,0.06337705438072615,0.0016726181421072616,-0.0031687414094369974,0.9914559027822432,0.005492808249690138,0.130314506190076,-0.0017752104712073693,0.010796001848636438,0.2613880221829009,-0.0021619385031659884,0.13827385709873524,-0.0027810492738800626,-0.02338580485639378,-0.06503038355420421,-0.20627810401029925,0.0012293164667439016,0.2,0.0,0.0,-0.011423936605211472,-0.010343783205791468,0.024682771058096995,0.0,0.0,0.0,0.5366418803386535,0.3773244119464056,-0.3886404061705365,-0.525327574904107,0.49266927925407455,0.3553412540380486,1.0
7.839999999999359,0.06643311360783107,0.0016118293322623751,-0.0036716501033036623,0.9917574892386853,0.004781459022073718,0.1280288775789632,-0.0016812776304610689,0.009360622280826493,0.25677568398377104,-0.0021820524463350313,0.13967523270995888,-0.0027413320215323726,-0.022233383971549447,-0.06496597182932001,-0.21446901276883037,0.0012255487339712383,0.2,0.0,0.0,-0.012638903117990314,-0.010537916406517977,0.02415738122056547,0.0,0.0,0.0,0.5366418803386535,0.3773244119464056,-0.3886404061705365,-0.525327574904107,0.49266927925407455,0.3553412540380486,1.0
7.861999999999356,0.06951942399497985,0.0015519487771209408,-0.0041491109436534125,0.99206442049364,0.004070971866970113,0.12565465007005083,-0.001587984398463043,0.007928734367232487,0.25198622132293924,-0.0021970800029794285,0.14097846536468983,-0.0026968591051347236,-0.021042762562491765,-0.06482367736942446,-0.22223780455194578,0.0012046824015776282,0.2,0.0,0.0,-0.013832555087684802,-0.010727259354556028,0.02358820485538395,0.0,0.0,0.0,0.4948586477719985,0.33379984455995393,-0.34335477426627087,-0.4853052492269977,0.5300532357821083,0.38947548780203106,1.0
7.883999999999354,0.07263340303655436,0.0014930919517895966,-0.004600079006954243,0.9923754265955975,0.0033621820545565047,0.12319688177677549,-0.0014955739756112264,0.006502020212115696,0.24702996964888668,-0.002206918312769644,0.1422228175573791,-0.0026490590061287586,-0.019850944266762375,-0.06460486366188534,-0.22962445342650475,0.0011708645886236903,0.2,0.0,0.0,-0.015002852208813859,-0.010911323455547593,0.022976107655864428,0.0,0.0,0.0,0.4948586477719985,0.33379984455995393,-0.34335477426627087,-0.4853052492269977,0.5300532357821083,0.38947548780203106,1.0
7.905999999999351,0.0757745928112417,0.001435310943127818,-0.005025041964053547,0.9926894747171906,0.0026559260450092813,0.12065894576318408,-0.0014041545029618173,0.005082179933275042,0.24191385463064702,-0.002211246770502446,0.1434105738132124,-0.0025982342336787027,-0.018654960966278892,-0.0643109467090659,-0.23664808735287587,0.0011259619909604565,0.2,0.0,0.0,-0.016147781157599038,-0.011089617857652619,0.02232203523439749,0.0,0.0,0.0,0.4510726727527834,0.29062338908196433,-0.2982708187493545,-0.44342661356108226,0.5573086881558538,0.4155266495110322,1.0
7.927999999999349,0.07894047701188112,0.0013786897113819557,-0.005423214311743374,0.9930053566929773,0.0019530124988428519,0.11804584213492514,-0.0013139542946179127,0.0036708060885491606,0.2366480691852493,-0.002210034292931533,0.1444972405418305,-0.0025437559318891175,-0.01743720085623501,-0.0639434077363944,-0.24320320596998843,0.0010622927363602382,0.2,0.0,0.0,-0.01726537444347072,-0.01126165452800254,0.021627037325482903,0.0,0.0,0.0,0.4510726727527834,0.29062338908196433,-0.2982708187493545,-0.44342661356108226,0.5573086881558538,0.4155266495110322,1.0
7.9499999999993465,0.08213029446951549,0.0013232950608251684,-0.0057948948950422964,0.9933220277489805,0.0012542447596882735,0.11536149776815624,-0.0012251087396749029,0.002269486383996952,0.2312406294135625,-0.0022031143342117277,0.1455849341326549,-0.002486408978688911,-0.016248412380816486,-0.06350376243142214,-0.24947246288200617,0.0009950833344527237,0.2,0.0,0.0,-0.018353702483981046,-0.01142694724015813,0.020892245388244975,0.0,0.0,0.0,0.405275716837797,0.24771322324642808,-0.25334363621909656,-0.3996465104314211,0.5744853604951303,0.4335104427427864,1.0
7.971999999999344,0.0853422444667994,0.0012691815109686314,-0.006139866282019917,0.9936384184432049,0.0005604069228607196,0.11261032269630823,-0.0011377873265193375,0.0008797430241523726,0.225700510801693,-0.0021904397517319286,0.14650449100820356,-0.002426911292077532,-0.015011512870602747,-0.06299358283493922,-0.2551734941388145,0.0009019349999280285,0.2,0.0,0.0,-0.01941088727468706,-0.01158501546880415,0.020118884877159068,0.0,0.0,0.0,0.405275716837797,0.24771322324642808,-0.25334363621909656,-0.3996465104314211,0.5744853604951303,0.4335104427427864,1.0
7.993999999999342,0.0885747069676731,0.001216414150513988,-0.006458061462077465,0.9939534593860337,-0.00012773542496939883,0.1097970727145521,-0.0010521794107312393,-0.0004969606663262073,0.220037369480318,-0.0021720561570453194,0.14744148764197504,-0.0023637883503672256,-0.013810519444992677,-0.0624144715646876,-0.26059802232233364,0.0008070419820681847,0.2,0.0,0.0,-0.020435103240313803,-0.011735385340981341,0.019308267360771635,0.0,0.0,0.0,0.405275716837797,0.24771322324642808,-0.25334363621909656,-0.3996465104314211,0.5744853604951303,0.4335104427427864,1.0
8.013999999999346,0.09153046152605238,0.0011696588975522407,-0.006724358057622213,0.9942379228183511,-0.0007477389656203424,0.10718881138578185,-0.000975925198311928,-0.0017359682438682104,0.21478861244926337,-0.0021503148769047215,0.14817877707076985,-0.002305981093166094,-0.012703096337782384,-0.06182956920307321,-0.26509261499523296,0.000703525742469179,0.2,0.0,0.0,-0.021336108267107308,-0.011865012581203553,0.01854018315026092,0.0,0.0,0.0,0.35749057804212914,0.20501430153043132,-0.2085299772835285,-0.3539759416625733,0.5817036031833266,0.4434859339978713,1.0
8.033999999999352,0.09450045101708131,0.0011240803919079984,-0.006968541077836112,0.9945197100121757,-0.0013618628436345677,0.10453649737276664,-0.0009013567146705301,-0.0029619872200218234,0.209452870450043,-0.0021239843973807565,0.1488926762673739,-0.002245231793062295,-0.011609346014426982,-0.06119031044257062,-0.2692893082117892,0.0005935407490501826,0.2,0.0,0.0,-0.022207119997196077,-0.011987550493480182,0.017743569043699788,0.0,0.0,0.0,0.35749057804212914,0.20501430153043132,-0.2085299772835285,-0.3539759416625733,0.5817036031833266,0.4434859339978713,1.0
8.053999999999359,0.09748473135112475,0.001079745702230764,-0.0071910273694720745,0.994798231250333,-0.0019695592325660134,0.10184259177005282,-0.0008285162623503105,-0.004173977481660749,0.204035127929592,-0.0020929997640847576,0.14957083694384593,-0.0021829723811055083,-0.010527576994604373,-0.06049796474834025,-0.2731927556579178,0.0004775788468817509,0.2,0.0,0.0,-0.023046896237730385,-0.0121026641156728,0.01691958488781335,0.0,0.0,0.0,0.3078273567921471,0.1625031518244015,-0.16384599904510982,-0.3064853786289423,0.5791637598910554,0.4455662989458349,1.0
8.073999999999366,0.10048123294258997,0.0010366395482420282,-0.007391771458094413,0.9950727755176119,-0.0025703031737246518,0.09911100375571062,-0.0007575617515809149,-0.005370981376067484,0.1985432707513198,-0.002057571329196935,0.15014111524398172,-0.00212068441558264,-0.009442338029199833,-0.0597538248254003,-0.27666516472200964,0.00034500651895870416,0.2,0.0,0.0,-0.023854246112497403,-0.012210028441529084,0.01606944653941889,0.0,0.0,0.0,0.3078273567921471,0.1625031518244015,-0.16384599904510982,-0.3064853786289423,0.5791637598910554,0.4455662989458349,1.0
8.093999999999372,0.10348929830440012,0.0009948161967547595,-0.0075710060392811,0.9953427406291911,-0.0031635767779732513,0.09634493397479833,-0.0006885899601099018,-0.006552046530235196,0.19298374934692275,-0.002017814560574094,0.15072540138455912,-0.002054356430631663,-0.008377827566410803,-0.05895919270768239,-0.2799152004208747,0.00021243928351882385,0.2,0.0,0.0,-0.024628026733864817,-0.012309328013651814,0.015194418493284378,0.0,0.0,0.0,0.3078273567921471,0.1625031518244015,-0.16384599904510982,-0.3064853786289423,0.5791637598910554,0.4455662989458349,1.0
8.113999999999379,0.10650830313752294,0.0009543073451451673,-0.007729046513170447,0.995607599952883,-0.003748871370436034,0.09354713475220484,-0.0006216583967501842,-0.007716235382878807,0.18736210373642084,-0.0019737925865611025,0.15119167152678314,-0.001990869462061593,-0.007319742194944408,-0.058115385610369025,-0.2827464037180397,6.517379045615693e-05,0.2,0.0,0.0,-0.025367147023168498,-0.012400258193650376,0.014295813184857082,0.0,0.0,0.0,0.2565205119299221,0.12020772104517372,-0.1194082111668355,-0.25732071791130195,0.5671715604180564,0.4399478247007851,1.0
8.133999999999386,0.10953614078872816,0.000915084306243227,-0.007866017072974879,0.9958667292955127,-0.004325700122750026,0.09072174837626915,-0.00055693110875862,-0.00886268414319796,0.18168665556766092,-0.0019258281417431186,0.15163893951116908,-0.0019240247727215138,-0.006275963436135739,-0.057223729100949444,-0.2852942253336438,-8.643127531598659e-05,0.2,0.0,0.0,-0.026070572513558314,-0.012482526670398876,0.01337499018853305,0.0,0.0,0.0,0.2565205119299221,0.12020772104517372,-0.1194082111668355,-0.25732071791130195,0.5671715604180564,0.4399478247007851,1.0
8.153999999999392,0.1125729869185438,0.0008772338114017232,-0.00798227647063273,0.9961197121908215,-0.00489357739386372,0.08787108413667266,-0.0004944267505979159,-0.009990500529509791,0.17596203578745537,-0.0018739620727859488,0.1520533745593711,-0.0018563229252810374,-0.005251650343120351,-0.0562855641604422,-0.28756623499481704,-0.00024149847774016767,0.2,0.0,0.0,-0.026737323714543265,-0.012555853397011891,0.012433351183109535,0.0,0.0,0.0,0.20392663238141193,0.07825893002998924,-0.07543389457182952,-0.20675218925052818,0.546149928507957,0.42692417375848596,1.0
8.173999999999399,0.11561674647558476,0.0008406883274364471,-0.00807817412262213,0.9963660316773053,-0.0054520389463424725,0.08499892705740046,-0.0004342695452540527,-0.011098862904620307,0.17019582908926875,-0.0018184930397634885,0.1523589988667729,-0.001790698472064216,-0.00424000893227339,-0.0553022281332409,-0.2894222908692371,-0.0004093513527869821,0.2,0.0,0.0,-0.027366480326851843,-0.012619971928977609,0.011472338808966646,0.0,0.0,0.0,0.20392663238141193,0.07825893002998924,-0.07543389457182952,-0.20675218925052818,0.546149928507957,0.42692417375848596,1.0
8.193999999999406,0.11866682991912886,0.0008055023972628018,-0.008153995930297931,0.9966052764346796,-0.006000629590939276,0.08210830442208146,-0.00037652622657805544,-0.012186955926408958,0.1643940899319128,-0.0017596237682516464,0.15268430034470384,-0.0017200163278919228,-0.00324533081050923,-0.05427507729829134,-0.29108013380064,-0.0005752675175031736,0.2,0.0,0.0,-0.027957183774353443,-0.012674630350232217,0.01049343405396505,0.0,0.0,0.0,0.20392663238141193,0.07825893002998924,-0.07543389457182952,-0.20675218925052818,0.546149928507957,0.42692417375848596,1.0
8.213999999999412,0.1217226829657426,0.0007716992712241986,-0.00821016638488623,0.9968371089098063,-0.0065389047214393465,0.07920175402589254,-0.0003212236053525526,-0.013253977989515057,0.15856188309240643,-0.0016974959119442877,0.15289133463872853,-0.0016551209451602677,-0.0022788290390940245,-0.053205468706046324,-0.29234088468308506,-0.0007510535033033642,0.2,0.0,0.0,-0.028508637030072666,-0.012719591521193062,0.009498152404973405,0.0,0.0,0.0,0.1505265045293638,0.036909357937038964,-0.03224485250766541,-0.15519135629506836,0.5166494334368111,0.406898397839226,1.0
8.23399999999942,0.12478220876796481,0.0007392053595299664,-0.008247149778663986,0.9970611137103782,-0.007066439507373136,0.07628321492137105,-0.0002684782440752752,-0.01429918732418177,0.15270707598460262,-0.0016324778818415195,0.15308336500872344,-0.001586549947989563,-0.0013267618082690108,-0.05209475415954522,-0.2933445092214705,-0.0009282871486011643,0.2,0.0,0.0,-0.029020107200491956,-0.012754633991999394,0.008488041391072197,0.0,0.0,0.0,0.1505265045293638,0.036909357937038964,-0.03224485250766541,-0.15519135629506836,0.5166494334368111,0.406898397839226,1.0
8.253999999999426,0.12784567975059963,0.0007081241711825024,-0.008265237146095443,0.9972770606860185,-0.007582814581108097,0.073354737443831,-0.00021828199480215915,-0.015321824999863617,0.14683374120167225,-0.0015646837520437258,0.15324631981914133,-0.0015177593857233615,-0.0004004832905672922,-0.050944312917165335,-0.29410099227797837,-0.0011059157033193943,0.2,0.0,0.0,-0.029490929288519315,-0.01277955320759896,0.007464678126208528,0.0,0.0,0.0,0.09692179607309567,-0.003469145954273445,0.009732667533921907,-0.10318549033073404,0.4793468927501519,0.38038454515060555,1.0
8.273999999999432,0.13091105300834582,0.0006783402846316102,-0.00826513734338536,0.9974846403829112,-0.008087629422566236,0.07041983605118785,-0.0001707074103778477,-0.01632118695669855,0.14094888061090854,-0.0014944357757393576,0.15330330907782755,-0.0014529900386640393,0.0004983183716654806,-0.04975549055548528,-0.2944713150523347,-0.0012905748332754348,0.2,0.0,0.0,-0.029920501376607567,-0.01279416056489289,0.006429664152411433,0.0,0.0,0.0,0.09692179607309567,-0.003469145954273445,0.009732667533921907,-0.10318549033073404,0.4793468927501519,0.38038454515060555,1.0
8.29399999999944,0.13397781640556355,0.000649907131472784,-0.008247176428301813,0.9976836372436688,-0.008580494638025668,0.06748125122692061,-0.00012578099204619273,-0.017296579243465244,0.13505793819240605,-0.0014219739394789655,0.15338421756369502,-0.0013823303063414149,0.001384351214015394,-0.04852966880568814,-0.2946745398193735,-0.001471578396333018,0.2,0.0,0.0,-0.030308294229618383,-0.012798286060006315,0.005384624662146438,0.0,0.0,0.0,0.09692179607309567,-0.003469145954273445,0.009732667533921907,-0.10318549033073404,0.4793468927501519,0.38038454515060555,1.0
8.313999999999446,0.13704550695831952,0.0006228396965790812,-0.008211863471314394,0.9978739012419597,-0.009061032953175114,0.06454121110244249,-8.349492075087203e-05,-0.018247323254157958,0.12916532650417323,-0.001347480136004837,0.15335239344604196,-0.0013200448720950555,0.002223048914885625,-0.04726821691805992,-0.2945167318170199,-0.001656389630602273,0.2,0.0,0.0,-0.030653846401742187,-0.01279177731257977,0.004331203265615068,0.0,0.0,0.0,0.04380224115862694,-0.04240849292354336,0.049997173031176616,-0.05139092384157129,0.43503183131330203,0.34799747437646544,1.0
8.333999999999453,0.14011213662359348,0.0005970245993071218,-0.008159961827529198,0.9980552244480249,-0.009528884324799076,0.06160330663207514,-4.390353169002834e-05,-0.019172785363652484,0.12327818374725891,-0.0012713063214497902,0.15330982152116407,-0.0012538791319910306,0.003047765313364215,-0.045972486805880494,-0.2941357966357462,-0.0018395506041081837,0.2,0.0,0.0,-0.030956764223352615,-0.012774499791070997,0.0032710587619195455,0.0,0.0,0.0,0.04380224115862694,-0.04240849292354336,0.049997173031176616,-0.05139092384157129,0.43503183131330203,0.34799747437646544,1.0
8.35399999999946,0.14317805305119108,0.0005725783175229535,-0.008091686914755715,0.998227550494977,-0.009983698429780877,0.058669269211844316,-6.972041376516918e-06,-0.020072329347857378,0.11739991890064483,-0.001193608385177068,0.15324360210148186,-0.001188066684851705,0.0038420404767253967,-0.04464387395073685,-0.29354363243040693,-0.0020200921915722223,0.2,0.0,0.0,-0.031216731288196735,-0.012746339445879903,0.002205862780218704,0.0,0.0,0.0,-0.008053937913242389,-0.07933361456170748,0.08796778298343214,-0.0005800690373321121,0.3846028725634255,0.3104526992444372,1.0
8.373999999999466,0.14624138559764302,0.0005493451109629882,-0.0080080477433505,0.9983907657971466,-0.01042514136987244,0.05574221428980847,2.7285059262831374e-05,-0.020945359535270536,0.11153671003364164,-0.0011146852566062872,0.15308026358708485,-0.0011279288650671022,0.004596282115230268,-0.04328371138613753,-0.29260860802164634,-0.0022014280939081144,0.2,0.0,0.0,-0.031433494237328004,-0.012707199337567079,0.0011372943993533762,0.0,0.0,0.0,-0.008053937913242389,-0.07933361456170748,0.08796778298343214,-0.0005800690373321121,0.3846028725634255,0.3104526992444372,1.0
8.393999999999473,0.1493017246868673,0.0005273760358028638,-0.007909397934008484,0.9985448323190284,-0.010852892029237471,0.05282451245649107,5.888376966271624e-05,-0.02179129514158552,0.105693240373215,-0.0010347758699030595,0.15294353010218573,-0.001061306349637391,0.005341762354190311,-0.0418933872416898,-0.2915396188571612,-0.002377806185749212,0.2,0.0,0.0,-0.031606879046724295,-0.012657003995018352,6.703815627291464e-05,0.0,0.0,0.0,-0.008053937913242389,-0.07933361456170748,0.08796778298343214,-0.0005800690373321121,0.3846028725634255,0.3104526992444372,1.0
8.41399999999948,0.15235872993343488,0.0005066785347158661,-0.007796308804399448,0.9986897644976789,-0.011266642716716855,0.04991802609548327,8.786463502324708e-05,-0.022609573728736374,0.09987317388329435,-0.0009540725675049385,0.15270708040039607,-0.0010051174820381867,0.006024266447820686,-0.04047426589747559,-0.29015820896306244,-0.0025521817364470545,0.2,0.0,0.0,-0.031736781549840686,-0.012595697237686436,-0.0010032206876753925,0.0,0.0,0.0,-0.05788785445007741,-0.11369274176613683,0.12309420907712415,0.048486704178707686,0.3292770990943314,0.26877374749196575,1.0
8.433999999999486,0.15541065181110392,0.00048710703581434923,-0.007669793145237551,0.998825538636481,-0.011666100915003119,0.04702586955215532,0.00011423592913619246,-0.023399666159291618,0.09408267919588587,-0.0008728739583164395,0.15246474016631123,-0.0009449867797078196,0.006692783685230773,-0.039027684267002385,-0.288591873599522,-0.002722231931865979,0.2,0.0,0.0,-0.0318231648693983,-0.012523241732527793,-0.0020717992015692427,0.0,0.0,0.0,-0.05788785445007741,-0.11369274176613683,0.12309420907712415,0.048486704178707686,0.3292770990943314,0.26877374749196575,1.0
8.453999999999493,0.15845789008781058,0.00046878593367065527,-0.007530011487813285,0.9989522420305008,-0.012050986885728985,0.044149437120444605,0.00013805529100490539,-0.0241610535955161,0.08832448070488674,-0.0007913521202248679,0.15220597256203267,-0.0008856741022805562,0.007327749624812836,-0.037555038044275055,-0.28685361548614363,-0.0028872380046002523,0.2,0.0,0.0,-0.03186607357935765,-0.012439622850045913,-0.003137021270193308,0.0,0.0,0.0,-0.10499793335351032,-0.14498518077756606,0.15489676789174872,0.09508680814791551,0.2712412640687651,0.22494148298257485,1.0
8.4739999999995,0.16149887708937502,0.0004515301798565309,-0.007378180153350686,0.9990699260469943,-0.012421035646969236,0.04129134710604942,0.00015936146873362245,-0.02489324769711722,0.08260375248859717,-0.0007097562381170425,0.15186553510617393,-0.0008332629326977997,0.007913664899626253,-0.036057639037668315,-0.284826648776616,-0.003047650255652639,0.2,0.0,0.0,-0.03186561207310133,-0.01234484333746409,-0.0041972198168648426,0.0,0.0,0.0,-0.10499793335351032,-0.14498518077756606,0.15489676789174872,0.09508680814791551,0.2712412640687651,0.22494148298257485,1.0
8.493999999999506,0.16453333518984922,0.0004353872373377501,-0.007214675176569572,0.9991786960361326,-0.012775995961693603,0.038453550639024454,0.0001782076670426602,-0.02559577929469039,0.07692433302798267,-0.0006283002685695097,0.15155283027100486,-0.0007740642611133909,0.00849379265566426,-0.034536868713413424,-0.2826970007276016,-0.003202363318939442,0.2,0.0,0.0,-0.031821965002652594,-0.012238928796322586,-0.005250742362979464,0.0,0.0,0.0,-0.10499793335351032,-0.14498518077756606,0.15489676789174872,0.09508680814791551,0.2712412640687651,0.22494148298257485,1.0
8.513999999999513,0.16756107525575423,0.00042035886590845373,-0.007040082775283354,0.9992786943372164,-0.013115630808232446,0.03563752768435297,0.00019466061909251988,-0.02626820061058446,0.07128911864760616,-0.0005471667204795849,0.1511604267443264,-0.0007265855680261113,0.009003572461295774,-0.032994078562726306,-0.2803120373265433,-0.003350523070054993,0.2,0.0,0.0,-0.03173538476968737,-0.01212192469588837,-0.006295953757728053,0.0,0.0,0.0,-0.14875141511332382,-0.17275083526818813,0.18294103922142496,0.13856180521881367,0.211503993879489,0.17978049662413953,1.0
8.53399999999952,0.17058070869610098,0.0004062789644509195,-0.006855529846720433,0.9993700425847987,-0.013439717098271402,0.03284582772235081,0.00020878124679469956,-0.026910090061935826,0.0657031465754667,-0.0004665845728230833,0.15076768751568984,-0.0006752121754352385,0.009500554189375,-0.03143058709774654,-0.27778107674851404,-0.0034925259394320758,0.2,0.0,0.0,-0.03160618701169388,-0.01199389542715164,-0.007331238364915464,0.0,0.0,0.0,-0.14875141511332382,-0.17275083526818813,0.18294103922142496,0.13856180521881367,0.211503993879489,0.17978049662413953,1.0
8.553999999999526,0.1735926687348564,0.00039327488283836203,-0.006661117660375113,0.9994529327583139,-0.013748046090451004,0.03007952369987535,0.00022064334953401455,-0.027521045451958912,0.060168500768524605,-0.0003867238875834402,0.15036713543506341,-0.0006249583274761108,0.009964120656930819,-0.029847780677338884,-0.27511724413272853,-0.003627960195033399,0.2,0.0,0.0,-0.03143476640816348,-0.011854928623840893,-0.00835500782742217,0.0,0.0,0.0,-0.18860390056704773,-0.19661753816776398,0.20688032182913824,0.17834182870211382,0.15069531729239927,0.1337373769696191,1.0
8.573999999999533,0.17659579408628104,0.0003811453153017152,-0.006458137938027701,0.9995275385897088,-0.014040422935270747,0.02734068532442268,0.00023032712965617914,-0.028100689673878257,0.05468926134018159,-0.00030777310442927535,0.14990566583361076,-0.0005823088386150298,0.010375399583852158,-0.028246950008111907,-0.2722249581954903,-0.003754981584261735,0.2,0.0,0.0,-0.03122157135659722,-0.011705128835047561,-0.009365698230776244,0.0,0.0,0.0,-0.18860390056704773,-0.19661753816776398,0.20688032182913824,0.17834182870211382,0.15069531729239927,0.1337373769696191,1.0
8.59399999999954,0.17958996326392468,0.0003699340135372837,-0.006246942867459361,0.9995940668873996,-0.014316666835069537,0.024630832135157557,0.0002379129476194857,-0.02864866794281028,0.049268409311752366,-0.00022990907683585705,0.14947179584580497,-0.0005328271653713455,0.01078452915035066,-0.026629463581956683,-0.26925694916206133,-0.0038761990349260316,0.2,0.0,0.0,-0.03096712530740714,-0.011544623283659078,-0.010361780019945695,0.0,0.0,0.0,-0.18860390056704773,-0.19661753816776398,0.20688032182913824,0.17834182870211382,0.15069531729239927,0.1337373769696191,1.0
8.613999999999546,0.18257515270441696,0.00035963895929453185,-0.0060280889233052665,0.9996527463294154,-0.014576611459069695,0.021951079008045934,0.00024348472539691452,-0.029164649231834323,0.0439081184126573,-0.0001532920952791557,0.1489826406977262,-0.0004956357093006639,0.011120910336131096,-0.024996656471193035,-0.26609393834753214,-0.003987871779577124,0.2,0.0,0.0,-0.03067201266237023,-0.011373558441123347,-0.011341757919370761,0.0,0.0,0.0,-0.22416204362957673,-0.2163644248478879,0.22651800580330272,0.21400927666097733,0.08934250712799273,0.08715684927267256,1.0
8.633999999999553,0.1855504118158902,0.0003500843135003698,-0.005802733088640198,0.9997037976976715,-0.014820103824538829,0.019303375670488267,0.00024714207692470375,-0.029648325632933657,0.03861223508673961,-7.807651262459547e-05,0.14849895260035306,-0.00045469528656249164,0.011447041617418616,-0.02334982792933637,-0.26282159729888455,-0.004092524896723916,0.2,0.0,0.0,-0.030336873032049665,-0.011192098761777887,-0.012304171771946969,0.0,0.0,0.0,-0.22416204362957673,-0.2163644248478879,0.22651800580330272,0.21400927666097733,0.08934250712799273,0.08715684927267256,1.0
8.65399999999956,0.18851618909178522,0.00034139579408077534,-0.005570903090597578,0.99974747770425,-0.015047005643980762,0.016688512838038863,0.00024896665284081525,-0.030099413752980034,0.033382289370006306,-4.41918940049437e-06,0.1480163449455517,-0.00041502352998763726,0.011741981853669757,-0.021690349805850925,-0.2594521319164008,-0.004190022585700786,0.2,0.0,0.0,-0.029962416719019103,-0.011000430928225204,-0.013247607583481608,0.0,0.0,0.0,-0.2551837043034011,-0.2319196865161052,0.24180587590873462,0.24529841496052177,0.027893802902308844,0.04030721438441248,1.0
8.673999999999566,0.19147177573412316,0.00033336804705381143,-0.0053338894446970705,0.999784036683623,-0.015257192208955678,0.014108013476879169,0.00024906672721947153,-0.030517653579510633,0.028221279391185992,6.755542948923842e-05,0.14749599843118832,-0.0003831703601794951,0.011984851536243079,-0.02001949349577639,-0.2559147935561539,-0.004276862337088176,0.2,0.0,0.0,-0.029549398381703323,-0.010798757233648525,-0.014170689064272886,0.0,0.0,0.0,-0.2551837043034011,-0.2319196865161052,0.24180587590873462,0.24529841496052177,0.027893802902308844,0.04030721438441248,1.0
8.693999999999573,0.19441721090594405,0.0003260408812141502,-0.005091990372388146,0.9998137408661564,-0.01545055268436789,0.011562989302674138,0.0002475385942918307,-0.030902809319202997,0.023131383124659302,0.0001377126662388402,0.1470019953216947,-0.000344690427832048,0.01222970437724442,-0.018338611275288137,-0.2523232106609279,-0.0043584275968323385,0.2,0.0,0.0,-0.029098637141144107,-0.010587301014657574,-0.015072091561692065,0.0,0.0,0.0,-0.2551837043034011,-0.2319196865161052,0.24180587590873462,0.24529841496052177,0.027893802902308844,0.04030721438441248,1.0
8.71399999999958,0.19735262880872345,0.000319410444787332,-0.004845699204756125,0.9998368658155481,-0.015626990554985305,0.009054234092227175,0.000244473594745678,-0.031254670471930104,0.01811414544019737,0.00020592034826347294,0.14647802925853068,-0.0003183628520112645,0.012403210373394492,-0.016649021344197587,-0.24859425395634815,-0.004428907963733526,0.2,0.0,0.0,-0.028611002107735702,-0.01036630309751346,-0.015950538912486174,0.0,0.0,0.0,-0.28157995879947434,-0.24336455483036384,0.2528430980303601,0.27210238557050925,-0.03327027646002072,-0.00660553293080687,1.0
8.733999999999586,0.20027753152446173,0.00031330186046226295,-0.004596138064188739,0.999853686177716,-0.015786422508065362,0.006583122611298132,0.00023999565566516708,-0.03157304961537609,0.01317227707911694,0.0002720967806584279,0.14596482065053837,-0.00028852428487379677,0.0125700311611668,-0.01495200580867393,-0.2447880063883996,-0.004492399216288476,0.2,0.0,0.0,-0.028087406074523227,-0.010136020367917529,-0.016804802712018705,0.0,0.0,0.0,-0.28157995879947434,-0.24336455483036384,0.2528430980303601,0.27210238557050925,-0.03327027646002072,-0.00660553293080687,1.0
8.753999999999593,0.203192364090557,0.0003078347951060413,-0.004343251959847774,0.9998644882467482,-0.01592877946110884,0.004150215054567782,0.00023418571328218482,-0.03185778553983442,0.008306861422499211,0.0003361038385972347,0.14546069738962308,-0.00025995619928696355,0.012709435678844362,-0.013248919530408264,-0.2409149369043675,-0.0045489801918624,0.2,0.0,0.0,-0.02752881914035206,-0.009896729464477054,-0.017633715906337465,0.0,0.0,0.0,-0.3033885658200704,-0.2508985318846946,0.25984641711258544,0.2944417047812391,-0.09382101342755485,-0.0534187522232102,1.0
8.7739999999996,0.20609685445985312,0.0003028116116149701,-0.004088269634246626,0.9998695574224908,-0.0160540059471893,0.0017565386050451255,0.0002271671817984491,-0.03210874137729346,0.003519920110354418,0.00039787861194866974,0.1449412540675016,-0.00023894917451719916,0.01279975772508974,-0.011541019133207594,-0.2369293559456337,-0.004593982002667625,0.2,0.0,0.0,-0.026936243714618807,-0.009648720504627962,-0.01843615913446045,0.0,0.0,0.0,-0.3033885658200704,-0.2508985318846946,0.25984641711258544,0.2944417047812391,-0.09382101342755485,-0.0534187522232102,1.0
8.793999999999606,0.20899118539851885,0.0002982679988933304,-0.003831413507647727,0.9998691830694182,-0.016162059904689805,-0.0005971503230624423,0.000219041602298367,-0.03232580519590055,-0.0011870643631705954,0.0004573285926409153,0.14444598999177807,-0.00021175831676406267,0.012896374648917488,-0.009829639794142885,-0.2329054891090977,-0.00463478315127324,0.2,0.0,0.0,-0.02631073178361486,-0.009392301671514022,-0.019211077594912352,0.0,0.0,0.0,-0.3033885658200704,-0.2508985318846946,0.25984641711258544,0.2944417047812391,-0.09382101342755485,-0.0534187522232102,1.0
8.813999999999613,0.21187562211161848,0.00029419999238873383,-0.00357309124030403,0.9998636551012527,-0.016252913197343583,-0.002910320041950741,0.00020989858613250915,-0.032508891049487544,-0.005813056281030008,0.0005143510061307633,0.14394384494563914,-0.00019592884569660882,0.012925898260060286,-0.008116084444236196,-0.22879457300937361,-0.004664112313999776,0.2,0.0,0.0,-0.02565337117134265,-0.009127795803606986,-0.019957474994139458,0.0,0.0,0.0,-0.32077124437988563,-0.25483769320861505,0.2631446306658722,0.312465370509313,-0.15348432533151465,-0.10001338877390238,1.0
8.83399999999962,0.21475007755141912,0.000290443537862278,-0.003314341802623258,0.9998532640502525,-0.01632655103280204,-0.005182098998149085,0.00019987346583646566,-0.03265793808675968,-0.010356335832064245,0.0005689304222897189,0.1434565834517402,-0.00017691379653618053,0.012952893004143462,-0.006401622049255741,-0.22463244944500738,-0.0046871857465185535,0.2,0.0,0.0,-0.024965279309176903,-0.008855538933166285,-0.020674411261154622,0.0,0.0,0.0,-0.32077124437988563,-0.25483769320861505,0.2631446306658722,0.312465370509313,-0.15348432533151465,-0.10001338877390238,1.0
8.853999999999626,0.2176149754523504,0.0002871081220874776,-0.0030550252772348283,0.9998382985374185,-0.016382971915675695,-0.007412103165227153,0.00018903882475288888,-0.03277291068529471,-0.01481615726328824,0.0006209492633642343,0.1429846806745695,-0.00015904746042068497,0.012957180044086084,-0.0046875895941347456,-0.2204274215700588,-0.004704247515894796,0.2,0.0,0.0,-0.0242476140197195,-0.008575883064991196,-0.021361017513161062,0.0,0.0,0.0,-0.333963668833716,-0.25555305546101137,0.26312529174530835,0.32639252183434375,-0.21201630316427073,-0.1462864578637461,1.0
