t,px,py,pz,qw,qx,qy,qz,roll,pitch,yaw,vx,vy,vz,wx,wy,wz,cur_x,cur_y,cur_z,wav_x,wav_y,wav_z,kick_x,kick_y,kick_z,u0,u1,u2,u3,u4,u5,dist_on
7.817999999999361,-0.0014036644249458175,-0.0006604791624778238,-0.0028993574014680823,0.9972827410495391,0.003425483867238185,0.07358914299697446,-0.00019620897960748678,0.006878022268005498,0.14731192878298893,0.00011404033394297223,-0.00045266960656538575,0.0018033761860979758,-0.0008726417903093793,0.013998280954527872,0.17105724707183426,-0.0012052419103090292,0.2,0.0,0.0,-0.01142500784520412,-0.010344022532307593,0.024685321396435266,0.0,0.0,0.0,-0.3012705817152478,-0.3531694084717262,0.39892849193593216,0.2555127074985255,-0.5913312914873358,-0.6819452649906973,1.0
7.851999999999357,-0.0014174204374265932,-0.0006002183920581956,-0.0029289489625084716,0.9970653700244264,0.0036571034934213572,0.07646713742689087,-0.00022446787871393772,0.007344367926188183,0.153084327999315,0.00011299965301059885,-0.0003518834562275152,0.001737483883523696,-0.0008646975874790653,0.013362856939322591,0.16808914650948134,-0.0012775677372599192,0.2,0.0,0.0,-0.013297452060787739,-0.0106428756956472,0.023861570192720494,0.0,0.0,0.0,-0.292824143403923,-0.34192029474237745,0.38768476480763303,0.24706084619351454,-0.5481476845421057,-0.6361661336806328,1.0
7.8859999999993535,-0.0014272655339736115,-0.0005422303821816578,-0.0029575224025473338,0.9968439009617595,0.003877577701660338,0.07929147101045052,-0.00025324199509550456,0.007788533367183265,0.15875035862658016,0.0001114334114565895,-0.00022980353529344024,0.0016707922201212892,-0.0008284570305846402,0.012695214371990303,0.1647652440579002,-0.0013422620644505515,0.2,0.0,0.0,-0.015116987740813914,-0.010929816690923523,0.02293336180039214,0.0,0.0,0.0,-0.292824143403923,-0.34192029474237745,0.38768476480763303,0.24706084619351454,-0.5481476845421057,-0.6361661336806328,1.0
7.91999999999935,-0.001433329960729708,-0.00048646601349088946,-0.0029852776475490328,0.9966192394031641,0.004086380608091431,0.08205676946608685,-0.0002823646106192648,0.008209436865232265,0.164299209442255,0.00010928205371169482,-0.0001115881840800306,0.0016047284227743647,-0.0007879372073918787,0.01199729983432972,0.16113828920623338,-0.0013988590882135924,0.2,0.0,0.0,-0.016876005177259953,-0.011203005279396236,0.0219040955582413,0.0,0.0,0.0,-0.2866868255056145,-0.3322193488508678,0.37788827313098,0.24101904481505237,-0.5060887144364857,-0.5907119123607412,1.0
7.953999999999346,-0.0014354076092504128,-0.0004329123973042418,-0.003011754764082433,0.9963923358553225,0.004283021269029209,0.08475772323462907,-0.0003116563240277721,0.008606064630735072,0.16972018529071312,0.00010650456787625498,-1.9454489909703077e-06,0.0015411630301433125,-0.0007586052512341945,0.01127104692367285,0.15722215917033186,-0.0014479886748874774,0.2,0.0,0.0,-0.018567119665806823,-0.01146060624079489,0.02077772652463823,0.0,0.0,0.0,-0.2829677122636577,-0.324075898833687,0.36956664024060615,0.23747809252712884,-0.46589522288497115,-0.5462478568872183,1.0
7.987999999999342,-0.0014334744277482564,-0.0003815560613204899,-0.0030365990105920993,0.9961641520699773,0.004467043856387133,0.08738942392480811,-0.00034093397752146327,0.008977470951422057,0.1750033827760384,0.00010306660999527622,0.00011652615559962532,0.0014776317683255677,-0.0007115619157045466,0.010518422607231168,0.15300604962692385,-0.0014878397779108277,0.2,0.0,0.0,-0.020183213393249015,-0.011700806307231654,0.019558744563371498,0.0,0.0,0.0,-0.2829677122636577,-0.324075898833687,0.36956664024060615,0.23747809252712884,-0.46589522288497115,-0.5462478568872183,1.0
8.021999999999348,-0.001427704886399069,-0.00033231359143042437,-0.00306001578808624,0.9959356638861266,0.004638026641914597,0.08994723559133165,-0.0003700243849118811,0.00932277421987709,0.18013943298980628,9.89149579259357e-05,0.00023393828915991264,0.0014143180380606784,-0.000651817698533001,0.009741486782752634,0.14852403191311028,-0.0015189155951178786,0.2,0.0,0.0,-0.02171747580157774,-0.011921830499917999,0.018252153041437152,0.0,0.0,0.0,-0.28172892832701496,-0.3174764265553781,0.3627237682411374,0.23648269382843629,-0.4282756655373819,-0.5034283994666925,1.0
8.05599999999936,-0.0014180215654727277,-0.0002851633731849388,-0.0030815677266797037,0.9957078663744319,0.004795584785569862,0.0924266639712102,-0.0003987402567141069,0.009641167331717873,0.18511923959770774,9.402873245830436e-05,0.0003444817886993763,0.0013543374421682434,-0.0006012098365784242,0.008942274712383118,0.14379253613240103,-0.001542592987149224,0.2,0.0,0.0,-0.023163454857499825,-0.012121960767183484,0.01686345578900376,0.0,0.0,0.0,-0.2829846269733692,-0.3123858642061164,0.35733958102300756,0.23803201025775408,-0.3938862298864346,-0.46287796692003746,1.0
8.089999999999371,-0.0014044728316305304,-0.00024009494819305903,-0.003100869571840412,0.9954817469005931,0.0049393695341829955,0.09482358342890779,-0.0004268981703820466,0.009931914177115322,0.18993443572408106,8.838828607580283e-05,0.0004559102329951262,0.0012952978393012441,-0.0005402183256614647,0.0081228438819109,0.13881675555909653,-0.0015570296957574605,0.2,0.0,0.0,-0.024515093593737287,-0.012299550894071263,0.015398624312191727,0.0,0.0,0.0,-0.2829846269733692,-0.3123858642061164,0.35733958102300756,0.23803201025775408,-0.3938862298864346,-0.46287796692003746,1.0
8.123999999999382,-0.0013872338941824632,-0.00019700014082452656,-0.003118098834927841,0.9952582870179176,0.005069066433527225,0.0971341354266722,-0.0004543375012562432,0.010194342877168446,0.19457718155608372,8.193866732449554e-05,0.0005653199579496351,0.0012353996128727403,-0.00046217559435441215,0.007285341865145678,0.1336210028729569,-0.001562617396231471,0.2,0.0,0.0,-0.025766763781395308,-0.01245304033490196,0.013864063973704566,0.0,0.0,0.0,-0.2867038208405281,-0.30875190222570087,0.35337311521089754,0.24208370811409552,-0.36332036510383003,-0.4251807519629063,1.0
8.157999999999394,-0.001366351400953537,-0.00015585318195078323,-0.0031328883494211647,0.9950384593638145,0.005184399383863293,0.09935469360873102,-0.0004808823456485826,0.010427862024154086,0.19904009508960366,7.467019437217187e-05,0.0006693327203111197,0.00117947927394607,-0.00039192708712580796,0.006431891673610345,0.1282186707022023,-0.0015617178865976532,0.2,0.0,0.0,-0.026913311322790318,-0.012580970531929327,0.012266586101958365,0.0,0.0,0.0,-0.2928124419485681,-0.3065075147268572,0.35076446363038966,0.2485566004439727,-0.33709336450598376,-0.3908651875188179,1.0
8.191999999999405,-0.0013419724311695177,-0.00011665489421034257,-0.003144883835327094,0.99482321027046,0.005285129238112381,0.10148197530322373,-0.0005063641658758562,0.010631954717605202,0.20331647781077059,6.657637939731435e-05,0.0007701583589936956,0.0011255871439782928,-0.0003170318303664738,0.005564631080070744,0.1226243851269204,-0.0015528717596003262,0.2,0.0,0.0,-0.027950084617428737,-0.012681996820338617,0.010613365087464511,0.0,0.0,0.0,-0.2928124419485681,-0.3065075147268572,0.35076446363038966,0.2485566004439727,-0.33709336450598376,-0.3908651875188179,1.0
8.225999999999416,-0.0013142497454782937,-7.928407214268154e-05,-0.0031542236367138525,0.9946134676144177,0.005371050993335656,0.10351289901613803,-0.0005306491547594489,0.010806167561088825,0.2074000300593171,5.7598893849124755e-05,0.0008649740145104126,0.0010691664817518965,-0.00022436655418723529,0.0046857800931890264,0.11686128800099702,-0.0015355999666977387,0.2,0.0,0.0,-0.028872958830355674,-0.012754898957198476,0.008911894331270789,0.0,0.0,0.0,-0.30119588343887915,-0.30557406940755494,0.3494368287445025,0.2573342452666673,-0.3156290527430189,-0.36039018081931656,1.0
8.259999999999428,-0.0012833300743306196,-4.371157140046952e-05,-0.0031606445898060683,0.994410123807326,0.005441999149784138,0.1054446957187236,-0.0005535878773870097,0.010950132889334807,0.21128507566246785,4.7734621526263426e-05,0.0009559539384451317,0.0010171804683683434,-0.00013855108991946735,0.0037975415148250573,0.11093475738367892,-0.0015133686099098528,0.2,0.0,0.0,-0.029678370201445835,-0.012798593839475018,0.007169945029064368,0.0,0.0,0.0,-0.3117025054155171,-0.3058627003471024,0.3492990338621828,0.26826731301219986,-0.2992579792222665,-0.33414238392490353,1.0
8.29399999999944,-0.001249465453181142,-9.953885662585223e-06,-0.0031638774295181357,0.9942140280253723,0.005497846183282788,0.10727492482724817,-0.0005750375788126457,0.011063562130275886,0.2149665959091733,3.6992657816815004e-05,0.0010431517201605102,0.0009685218943808504,-5.223043916047342e-05,0.002902126878275124,0.10486298745002981,-0.001485298846908299,0.2,0.0,0.0,-0.03036333378695253,-0.012812143901104392,0.005395515680892987,0.0,0.0,0.0,-0.3117025054155171,-0.3058627003471024,0.3492990338621828,0.26826731301219986,-0.2992579792222665,-0.33414238392490353,1.0
8.32799999999945,-0.0012127825065173052,2.2109800816463602e-05,-0.003164029505408611,0.9940260046897407,0.005538498461827281,0.10900125287886957,-0.0005949001397406282,0.011146229261641733,0.21843978630397,2.531570822345431e-05,0.001117985468739823,0.0009152242497934644,4.8856498051072214e-05,0.0020018157975958614,0.09867548018058056,-0.001449429258011399,0.2,0.0,0.0,-0.030925456281355096,-0.012794764032026168,0.003596780927097968,0.0,0.0,0.0,-0.3241490971898747,-0.3072794481624692,0.3502500406090313,0.2811796714711884,-0.2882022036640109,-0.3124201026377761,1.0
8.361999999999462,-0.001173488945179273,5.251431808566396e-05,-0.003160958576419385,0.9938468214873523,0.005563902709510137,0.1106217092633824,-0.0006130626186976757,0.011197998139845693,0.22170057170800847,1.2707195455736921e-05,0.0011907515911449278,0.0008666407785100921,0.00014371984525762382,0.0010988795866864747,0.09236577028277398,-0.0014104976359705906,0.2,0.0,0.0,-0.03136295520550787,-0.012745829933510658,0.0017820409055887502,0.0,0.0,0.0,-0.3383258403684431,-0.30972728488193496,0.35218185025898346,0.29587247243749004,-0.28256893656705195,-0.2954250239036524,1.0
8.395999999999473,-0.0011319307284835655,8.122703654287193e-05,-0.003154521600218398,0.9936771882650375,0.005574044851117548,0.11213464845166232,-0.0006294142598684468,0.011218817284168821,0.22474553212681633,-8.022399869081583e-07,0.001262184329323394,0.0008228464038240747,0.0002368979292297959,0.0001955913544957611,0.08595083046889465,-0.0013683678225602817,0.2,0.0,0.0,-0.031674664070559334,-0.012664882835321268,-4.033345187271819e-05,0.0,0.0,0.0,-0.3383258403684431,-0.30972728488193496,0.35218185025898346,0.29587247243749004,-0.28256893656705195,-0.2954250239036524,1.0
8.429999999999485,-0.0010882213085965534,0.00010835443790147176,-0.003144819886957922,0.9935177879208879,0.005568944444988805,0.1135384399206263,-0.0006438966894697732,0.011208696733003115,0.227571280582515,-1.526056029268789e-05,0.001313277935843855,0.0007720837738537907,0.00033829817089761323,-0.000705694712792295,0.07947245859427204,-0.0013188772479606065,0.2,0.0,0.0,-0.03186003251007231,-0.012551632833198007,-0.0018619548589816797,0.0,0.0,0.0,-0.35400137026914297,-0.31310978655078797,0.35498267732047173,0.3121297121602071,-0.28235414599613146,-0.2832640709170754,1.0
8.463999999999496,-0.001042580695917689,0.00013394128422589328,-0.0031318278356986104,0.9933692332937633,0.005548664041726456,0.11483182381114614,-0.000656439577598563,0.011167743103728757,0.23017517934683657,-3.0655840099469744e-05,0.0013642847111481299,0.0007261547108427992,0.0004338906869829319,-0.0016023714049804882,0.07290998230655851,-0.00126841827646606,0.2,0.0,0.0,-0.03191912839098818,-0.012405962687858303,-0.0036744742510995956,0.0,0.0,0.0,-0.3709317003886461,-0.31733058197752806,0.3585444600389597,0.32971909407014827,-0.28744209673225196,-0.27594763027158586,1.0
8.497999999999507,-0.000995424066312115,0.0001579417208830083,-0.003115549841649068,0.9932320672054611,0.005513312684552573,0.11601387508204178,-0.0006669681081231062,0.011096165684508146,0.2325552692533787,-4.6930011786872754e-05,0.0014188568371552618,0.0006865195051511774,0.0005278232120077727,-0.0024917372107756868,0.0662756662216199,-0.0012178553897573001,0.2,0.0,0.0,-0.03185262912899524,-0.012227928851353433,-0.005469635507170646,0.0,0.0,0.0,-0.3709317003886461,-0.31733058197752806,0.3585444600389597,0.32971909407014827,-0.28744209673225196,-0.27594763027158586,1.0
8.531999999999519,-0.0009468765811341507,0.00018043515110563365,-0.0030961181510294217,0.9931068047231175,0.005463039028585921,0.11708361697531935,-0.0006754651648031149,0.010994246962166644,0.2347094932029281,-6.411116847998468e-05,0.0014443231374847852,0.0006376408208802532,0.0006205140051484442,-0.0033710846068519974,0.05962757373772312,-0.0011597764542196167,0.2,0.0,0.0,-0.03166180880317015,-0.012017761402673886,-0.007239328790642414,0.0,0.0,0.0,-0.38885420224439665,-0.32230785008015467,0.36275399733222874,0.3484093690485159,-0.29761209222351187,-0.2733936560542348,1.0
8.56599999999953,-0.0008971187094731528,0.00020148113702517963,-0.003073598773336865,0.9929938868372972,0.005398038182477924,0.11804040363289414,-0.0006819074141772004,0.010862372847790718,0.23663646668098517,-8.21766752801464e-05,0.0014718337040468758,0.0005935798437393184,0.0007077411032706243,-0.004237735789862784,0.052930023173755544,-0.0011026407509876412,0.2,0.0,0.0,-0.03134852373195356,-0.01177586359162148,-0.008975643108833574,0.0,0.0,0.0,-0.40750442902491907,-0.3279652764457515,0.367507100708365,0.3679639637331875,-0.3125479905574077,-0.27543470675113063,1.0
8.599999999999541,-0.0008466013369959502,0.00022102612633563993,-0.0030481425600912457,0.9928936747063375,0.005318553184341325,0.11888394668636384,-0.0006862510067390496,0.010701039652618696,0.2383355321828058,-0.00010102307364962634,0.0015095024429430807,0.0005571963844460519,0.0007955108480712268,-0.005089060002658949,0.04618843941767005,-0.0010487075085094644,0.2,0.0,0.0,-0.030915189664035465,-0.01150280921021757,-0.010670916188115361,0.0,0.0,0.0,-0.40750442902491907,-0.3279652764457515,0.367507100708365,0.3679639637331875,-0.3125479905574077,-0.27543470675113063,1.0
8.633999999999553,-0.0007954922716475172,0.00023911295220482813,-0.0030199551014909102,0.9928065000801,0.00522486463284076,0.11961387937701666,-0.0006885119109461237,0.010510812341292418,0.239805882915064,-0.00012063770209343229,0.0015093528151413377,0.0005096452037299497,0.0008706775525164849,-0.005922462719148957,0.03947904957718898,-0.000985817518243017,0.2,0.0,0.0,-0.030364756637657232,-0.011199339329845267,-0.012317782091122966,0.0,0.0,0.0,-0.4266256164704789,-0.3342294802823878,0.37271547394759796,0.3881410286822398,-0.33184895619348387,-0.28182626481473905,1.0
8.667999999999564,-0.0007438842822938713,0.000255819996873562,-0.0029891526081974166,0.9927326259487301,0.005117295986284026,0.12023008082037726,-0.0006887123153610542,0.010292349031704704,0.24104721581562938,-0.00014098462583847518,0.0015134209847292187,0.0004667868841622266,0.0009407992970978619,-0.0067354092519858605,0.03275179042946928,-0.0009257242051377396,0.2,0.0,0.0,-0.029700680843754657,-0.010866358198096773,-0.013909216529486158,0.0,0.0,0.0,-0.44596442802894454,-0.34104027591424957,0.3782988698418501,0.4087072882964913,-0.3550426082269728,-0.29225655532727995,1.0
8.701999999999575,-0.0006922272764663757,0.00027109295241934994,-0.0029560109412214795,0.9926722278213728,0.004996217922856751,0.12073282144187616,-0.0006868371738050076,0.010046420980532062,0.24206002467668208,-0.00016191379878663484,0.0015268116682513803,0.0004293645384695315,0.0010100183930005114,-0.007525441447726142,0.026013395228323133,-0.0008706422616257634,0.2,0.0,0.0,-0.028926888779259134,-0.010504927018942945,-0.015438576754075969,0.0,0.0,0.0,-0.4652776636666516,-0.34834887124925623,0.3841888539498262,0.42943918435196077,-0.38159926162744295,-0.306358054579523,1.0
8.735999999999587,-0.0006407624832698272,0.00028493383327437123,-0.0029208487559316903,0.9926254478840659,0.00486203587398945,0.12112231186736609,-0.0006829260726920862,0.009773863061729452,0.24284469268418413,-0.00018335765462137012,0.0015110518245056057,0.0003861234224092248,0.0010655932485527406,-0.008290176384178578,0.01933108096320864,-0.0008081612945717599,0.2,0.0,0.0,-0.028047741858444452,-0.010116257677774168,-0.016899639028229073,0.0,0.0,0.0,-0.4652776636666516,-0.34834887124925623,0.3841888539498262,0.42943918435196077,-0.38159926162744295,-0.306358054579523,1.0
8.769999999999598,-0.0005894563386242802,0.00029744158293940927,-0.0028837818509381153,0.9925923730359383,0.004715191416249208,0.121398886180642,-0.0006770486620756198,0.009475582669002112,0.24340186147404352,-0.00020527958311872458,0.0014933246371550408,0.0003440516479977185,0.001111280879745083,-0.009027326237003332,0.012669294578373819,-0.0007480878971118303,0.2,0.0,0.0,-0.027067998936538433,-0.009701705668334873,-0.018286633040380015,0.0,0.0,0.0,-0.4843375244238724,-0.3561167453726526,0.39033075480566143,0.45012506794793555,-0.41094710892002984,-0.32371959643812165,1.0
8.80399999999961,-0.0005387406067172727,0.00030856215340677585,-0.0028451884546864966,0.9925729966517524,0.00455617199103612,0.12156331588526399,-0.0006692126179054416,0.009152602876098646,0.24373306297909234,-0.00022748147570469097,0.0014849048446301683,0.0003063182550082778,0.0011553434245147498,-0.00973470678818951,0.006026932363202059,-0.0006946324981848277,0.2,0.0,0.0,-0.025992770028302293,-0.009262760416023762,-0.01959426696813328,0.0,0.0,0.0,-0.5029353922290571,-0.3643146621016341,0.39668395259012934,0.47056770420979,-0.442488532710193,-0.34389944551395085,1.0
8.83799999999962,-0.0004889020980497086,0.0003182774177182501,-0.0028054847058171482,0.9925672746009906,0.004385496100998715,0.12161635545958539,-0.0006594693604432733,0.008806004220690906,0.24383980484633883,-0.0002498297512593279,0.001455851518519771,0.0002657281591717234,0.0011864597591729799,-0.010410242035035502,-0.0005388581992438249,-0.0006355143598010134,0.2,0.0,0.0,-0.02482747451796637,-0.008801036347089527,-0.020817751745376544,0.0,0.0,0.0,-0.5029353922290571,-0.3643146621016341,0.39668395259012934,0.47056770420979,-0.442488532710193,-0.34389944551395085,1.0
8.871999999999632,-0.0004398085546222045,0.00032668707176527806,-0.0027647786581201732,0.9925751227462871,0.004203708893136292,0.12155877063649521,-0.0006479336995934664,0.008436910200084462,0.2437236273718433,-0.0002722978313002885,0.0014192432054359549,0.00022436486938553108,0.0012026496712368203,-0.011051984150585979,-0.00704469822173869,-0.0005775347354526556,0.2,0.0,0.0,-0.023577798155963555,-0.008318263101415663,-0.021952821744805295,0.0,0.0,0.0,-0.5208861566412055,-0.3729196613076739,0.40322276827163633,0.4905847012151266,-0.47561619677775085,-0.3664381985788328,1.0
8.905999999999644,-0.00039184159191536913,0.00033374760589663827,-0.002723504053434886,0.992596348232754,0.004011398924133499,0.12139190828735032,-0.0006346306235869225,0.00804656037016812,0.24338725020523871,-0.0002946453524743854,0.001392403115646835,0.0001866453394032247,0.0012172513493293416,-0.011658111788314423,-0.013489090114439186,-0.0005275378237978431,0.2,0.0,0.0,-0.022249641795741768,-0.007816273068359351,-0.022995742498066452,0.0,0.0,0.0,-0.5380143750758639,-0.38192481154892477,0.40991915326406725,0.510021733186776,-0.5097394150686527,-0.39088193332205035,1.0
8.939999999999655,-0.00034530477723491624,0.00033943580677666546,-0.002682141612040942,0.992630695371594,0.0038091815197803204,0.12111733494186824,-0.000619611841576322,0.007636245473677423,0.24283384467798813,-0.00031666649168614276,0.0013530195532499675,0.00014798628769420395,0.0012210604430727752,-0.012226937609492877,-0.019813693769318214,-0.0004738966787109207,0.2,0.0,0.0,-0.020849077134677697,-0.007296990010216136,-0.023943319805359176,0.0,0.0,0.0,-0.5380143750758639,-0.38192481154892477,0.40991915326406725,0.510021733186776,-0.5097394150686527,-0.39088193332205035,1.0
8.973999999999666,-0.00029999969981451435,0.00034384136875033344,-0.0026407900023933673,0.9926778614691648,0.0035976875505109042,0.12073672328524065,-0.0006030287194145864,0.007207265312425214,0.24206680507723327,-0.00033834509423554963,0.0013013642285195377,0.00010762984432550846,0.0012055399073034702,-0.01275692553882371,-0.026010195055442026,-0.00041953062274598725,0.2,0.0,0.0,-0.019382302588069313,-0.006762416868384361,-0.024792905336154338,0.0,0.0,0.0,-0.5542205493432559,-0.39129576950534395,0.4168063019680088,0.5287117639670261,-0.5442890074880543,-0.41678459216938846,1.0
9.007999999999678,-0.0002562316904752601,0.00034693823821209266,-0.002599883824765509,0.9927374312027097,0.003377586387461759,0.12025241145980854,-0.0005849250716097776,0.006761027388513451,0.24109087321923617,-0.0003594234283540102,0.0012600921495650524,7.036267361693408e-05,0.0011891024299346005,-0.01324668366887962,-0.03208446802692649,-0.0003747306854704963,0.2,0.0,0.0,-0.017855593069344502,-0.006214621313288603,-0.025542387037169927,0.0,0.0,0.0,-0.5693858764873299,-0.4010392070352062,0.4238797007135672,0.5465471759208018,-0.5787544284737322,-0.4437416761169547,1.0
9.041999999999689,-0.00021429701070362447,0.0003487104119999991,-0.002559924764440164,0.9928089310564848,0.00314956789535713,0.11966698375966385,-0.0005653622004314543,0.006298976996317488,0.2399112937591046,-0.00037966878434426895,0.0012136906740960972,3.34192129250567e-05,0.001165428713916688,-0.013694969947555917,-0.037989886269985555,-0.0003299138871077996,0.2,0.0,0.0,-0.016275257572593883,-0.005655722289034412,-0.02619018268735254,0.0,0.0,0.0,-0.5693858764873299,-0.4010392070352062,0.4238797007135672,0.5465471759208018,-0.5787544284737322,-0.4437416761169547,1.0
9.0759999999997,-0.0001739648530933994,0.00034923286670772744,-0.0025210006373579496,0.9928918595714031,0.0029143268349626043,0.11898304663186916,-0.0005445274458974793,0.005822537608870065,0.23853336263468286,-0.0003991031606267105,0.001151193806319561,-5.265329564673532e-06,0.001119078033567307,-0.014100704066799148,-0.0437050052457302,-0.00028183505479185413,0.2,0.0,0.0,-0.01464759844082716,-0.00508787589274332,-0.026735230793742164,0.0,0.0,0.0,-0.5834209470675674,-0.4111570323440311,0.4311427601838693,0.5634370569682967,-0.6126739700005426,-0.4713776029139509,1.0
9.109999999999712,-0.0001354499055492714,0.0003485004185722926,-0.002483497462140082,0.9929856205606805,0.002672590530527697,0.11820381393806834,-0.0005224845188330863,0.005333228902323024,0.23696360338400482,-0.00041748496315545825,0.0010995925017528772,-4.135836638875174e-05,0.0010729155162981252,-0.014462960508442781,-0.049244360644110675,-0.00024447869777895713,0.2,0.0,0.0,-0.012978867679906725,-0.004513259809081631,-0.027176966066073248,0.0,0.0,0.0,-0.5962679642410073,-0.42164229585061214,0.4386077639636954,0.5793043769809268,-0.6456416507944147,-0.4993514173746552,1.0
9.143999999999723,-9.902342049996099e-05,0.0003465138346160002,-0.00244789677638351,0.9930895706052482,0.002425101493886025,0.11733275052079309,-0.0004992925540741608,0.004832600085796749,0.23520904875506235,-0.00043456220257754674,0.0010493677478655421,-7.646109455582426e-05,0.0010239011244796503,-0.01478097010857328,-0.0545729119112111,-0.0002104732667643636,0.2,0.0,0.0,-0.011275230671095614,-0.003934058453003796,-0.027515298850614756,0.0,0.0,0.0,-0.5962679642410073,-0.42164229585061214,0.4386077639636954,0.5793043769809268,-0.6456416507944147,-0.4993514173746552,1.0
9.177999999999734,-6.445252319391961e-05,0.0003433336785889076,-0.002414276590679269,0.9932030576000394,0.002172596992795101,0.11637328053351252,-0.0004751569315448149,0.004322150965409394,0.2332766528358481,-0.0004503893414669333,0.0009801495059870114,-0.00011251460141223903,0.000950175079863632,-0.015054125520823806,-0.0596586419254115,-0.0001699324826812079,0.2,0.0,0.0,-0.00954273294662606,-0.0033524476907193647,-0.027750593509409695,0.0,0.0,0.0,-0.6078927177467116,-0.4324845240180812,0.4462862693079368,0.5940928948234298,-0.6773138344232019,-0.5273619497327076,1.0
9.211999999999746,-3.185562890871954e-05,0.00033897495436215123,-0.002382936581776277,0.9933253593090857,0.001915838679956305,0.11532934350280931,-0.0004501586830348788,0.0038034578490174858,0.2311744083612788,-0.00046476699152389736,0.0009221324134780223,-0.00014644377822953217,0.0008780322751078803,-0.015281976614565151,-0.0645240864822399,-0.00014083745958377338,0.2,0.0,0.0,-0.007787267219159489,-0.0027705791077408093,-0.027883633161583574,0.0,0.0,0.0,-0.6182835749528124,-0.4436686040872797,0.454187339385906,0.6077668018860478,-0.7074119198467451,-0.5551498021175968,1.0
9.245999999999757,-1.4670546711086005e-06,0.0003334613476686956,-0.002354302328485769,0.9934557206879532,0.0016555979279197198,0.11420512227313351,-0.0004243518114553607,0.0032781184509019946,0.22891079809434264,-0.0004774486216519717,0.0008709387537376089,-0.000179324808927591,0.0008076790081172802,-0.01546422761715718,-0.06914520674808036,-0.0001185500230312724,0.2,0.0,0.0,-0.006014546867896852,-0.002190564788141154,-0.02791558822053681,0.0,0.0,0.0,-0.6182835749528124,-0.4436686040872797,0.454187339385906,0.6077668018860478,-0.7074119198467451,-0.5551498021175968,1.0
9.279999999999768,2.6923794718133084e-05,0.00032684401360349546,-0.0023284420110035323,0.9935933959543527,0.001392632413032758,0.11300471552699057,-0.0003979441210175833,0.0027476611597687843,0.22649413494979098,-0.0004885181771882149,0.0007987389398918361,-0.0002116028459431498,0.0007120145915316651,-0.015600736445544855,-0.07348201279078159,-8.606077135229698e-05,0.2,0.0,0.0,-0.0042300833454049615,-0.0016144619702126973,-0.02784798598678976,0.0,0.0,0.0,-0.6274498709463787,-0.4551717205083323,0.46231495791369953,0.6203086339649692,-0.7357249549185844,-0.5824990569549359,1.0
9.31399999999978,5.329270271135878e-05,0.0003191536545462486,-0.0023055441995467004,0.9937375970615838,0.0011277144483863271,0.11173262183161578,-0.00037103237745995043,0.0022136653442379525,0.22393353443093697,-0.0004978430835146774,0.0007378018824942851,-0.0002421966654815709,0.0006194983186559061,-0.015691512417191703,-0.07756409216947346,-6.525491450827444e-05,0.2,0.0,0.0,-0.002439166338305303,-0.001044258202692487,-0.027682669915593833,0.0,0.0,0.0,-0.6354205065150008,-0.46696268056931045,0.4706666842416094,0.6317185397813285,-0.7621107724712898,-0.6092384660413598,1.0
9.347999999999791,7.744861260893483e-05,0.0003104391916531725,-0.002285951836981629,0.9938875188603944,0.0008616208796511572,0.11039356574982279,-0.0003436626675323699,0.0016777251351477649,0.22123856369519992,-0.0005052028989647767,0.0006880160940190013,-0.0002722707384381225,0.0005331980583758145,-0.0157367105261456,-0.08137748154460228,-5.445522829223098e-05,0.2,0.0,0.0,-0.0006468494306237183,-0.00048185711356278865,-0.027421761864387776,0.0,0.0,0.0,-0.6354205065150008,-0.46696268056931045,0.4706666842416094,0.6317185397813285,-0.7621107724712898,-0.6092384660413598,1.0
9.381999999999802,9.956206851321669e-05,0.0003007512261706794,-0.00226972176686698,0.9940423807530617,0.0005951085067990514,0.10899216136385563,-0.00031602829832468493,0.0011413542222580406,0.21841856379246388,-0.0005107002929991654,0.0006159925160730122,-0.0002995688941189781,0.00042229823990920984,-0.01573662616154234,-0.08487659662727731,-2.9701231102372386e-05,0.2,0.0,0.0,0.0011420601699935664,7.093563168827257e-05,-0.027067627671705095,0.0,0.0,0.0,-0.6422406180720935,-0.4790003797334318,0.47923094221984974,0.6420121273689948,-0.786492357571851,-0.6352383921059597,1.0
9.415999999999814,0.00011969516703719024,0.0002901290477293433,-0.002256920266437549,0.994201387717968,0.0003289379156828126,0.10753329427555033,-0.00028823907145989554,0.0006060874028802645,0.21548341706514595,-0.0005142856464049087,0.0005550530654943241,-0.0003255671672010199,0.0003161579677758346,-0.01569169360479293,-0.0880969422863846,-1.634461876257585e-05,0.2,0.0,0.0,0.0029230078312101303,0.0006124251228923761,-0.02662283646577887,0.0,0.0,0.0,-0.6479737804629507,-0.491229620171704,0.48798256097247966,0.6512229446356889,-0.8088589708319904,-0.6604057505730747,1.0
9.449999999999825,0.00013770170931819495,0.000278646643432656,-0.002247792212947568,0.9943637425658758,6.386939033541074e-05,0.106022052512335,-0.0002603308630855434,7.346886702007903e-05,0.21244340734935746,-0.00051577945932232,0.0005085001213984247,-0.0003520030381151776,0.00022015879405254586,-0.015602479481857806,-0.09103345231134008,-1.5627757002659967e-05,0.2,0.0,0.0,0.004691692906001821,0.0011410389250322563,-0.026090121920904864,0.0,0.0,0.0,-0.6479737804629507,-0.491229620171704,0.48798256097247966,0.6512229446356889,-0.8088589708319904,-0.6604057505730747,1.0
9.483999999999837,0.0001537004929594095,0.00026636616311768145,-0.0022423811053425276,0.9945286842353237,-0.0001993610612097738,0.10446340243166105,-0.00023246661060381007,-0.00045504045049322013,0.20930856744196355,-0.0005152875619795729,0.0004391233666002591,-0.0003731219176075794,0.00010123742789238802,-0.015469674940167315,-0.09363700178844622,2.544773608889166e-06,0.2,0.0,0.0,0.00644406668848909,0.0016553383241642472,-0.02547234892377596,0.0,0.0,0.0,-0.6527072690303928,-0.5035712894031066,0.49687392833852423,0.659406766619268,-0.8292689188990358,-0.6846736889815389,1.0
9.517999999999848,0.0001678282073511048,0.00025332620217514247,-0.002240631382599359,0.9946954623404132,-0.00046002492792179627,0.10286245013424256,-0.0002047653258013188,-0.0009779904671746035,0.20608920431791156,-0.000512849457999613,0.00038043426821739705,-0.00039332588083486835,-1.1378139586903415e-05,-0.01529409353823952,-0.09594775193790525,1.0096945958480858e-05,0.2,0.0,0.0,0.008176326252363567,0.002154027862906082,-0.024772477972654274,0.0,0.0,0.0,-0.656520958184517,-0.5159516417787953,0.5058599746639124,0.6666147917463809,-0.847816038446256,-0.708020111193803,1.0
9.55199999999986,0.00017998151514885054,0.00023961811803029938,-0.0022426854137976696,0.9948633368763034,-0.0007173985471887323,0.10122447757640732,-0.00017725138860175103,-0.0014939265553484708,0.2027959713469419,-0.0005083356059002431,0.0003331436911051119,-0.00041378288443794727,-0.00011660151583681389,-0.01507666545479628,-0.09796283578793635,6.9004599917642665e-06,0.2,0.0,0.0,0.009884903964615747,0.0026359630760759635,-0.02399353058723868,0.0,0.0,0.0,-0.6594954304867442,-0.5282909360633171,0.5148876742561234,0.6729008870370717,-0.8646462849932377,-0.7304670006184429,1.0
9.58599999999987,0.00019022074300483488,0.00022532424470882525,-0.0022485734719012358,0.9950316112157179,-0.0009707849581927434,0.09955464702630372,-0.0001500449401531851,-0.0020014736594134446,0.1994392735579268,-0.0005018387826813526,0.0002733643304203416,-0.0004294534870616385,-0.00023044465665656116,-0.014818428286454993,-0.09964736356349366,1.6586800642806014e-05,0.2,0.0,0.0,0.011566454793212404,0.00310015754004188,-0.02313856170699018,0.0,0.0,0.0,-0.6594954304867442,-0.5282909360633171,0.5148876742561234,0.6729008870370717,-0.8646462849932377,-0.7304670006184429,1.0
9.619999999999882,0.0001987429398511873,0.00021047079863101831,-0.0022581276067668568,0.99519961985386,-0.0012195056472289467,0.09785813330176088,-0.00012326963470364046,-0.0024992989600046353,0.1960295334311653,-0.000493484277622778,0.00021847338275776118,-0.0004430571871439769,-0.0003427411761125015,-0.014520524737232494,-0.10102879080496302,2.058936127198448e-05,0.2,0.0,0.0,0.013217840555147926,0.0035457880506596607,-0.022210633196657774,0.0,0.0,0.0,-0.6617119437210685,-0.5404992435261515,0.5238922580714184,0.6783211505725296,-0.879943716890593,-0.7520629205898357,1.0
9.653999999999893,0.0002054736277265469,0.00019516241781764162,-0.002271405379434158,0.9953667165961747,-0.0014628910634828629,0.09614026235519045,-9.693585478504325e-05,-0.002986069274025737,0.19257746962398667,-0.00048319110290127035,0.00017331023365101843,-0.00045684348196475095,-0.00044732053266186223,-0.014184196869832296,-0.1021117315783999,1.5808724198520097e-05,0.2,0.0,0.0,0.014836110105588461,0.003972197174551998,-0.021212787521532106,0.0,0.0,0.0,-0.6632509341922531,-0.552479357610086,0.5327989289741049,0.6829336092050117,-0.8939075424708196,-0.7728630418251077,1.0
9.687999999999905,0.00021043942681714406,0.00017949855564852605,-0.002288397885831053,0.9955323023868053,-0.001700300206676672,0.09440624357413044,-7.111860651541678e-05,-0.0034605262303560873,0.18909355858579194,-0.00047103587265049306,0.0001218823833365398,-0.00046665172302839546,-0.0005536227234544043,-0.013810777063849575,-0.10287280688640096,2.0165370046849738e-05,0.2,0.0,0.0,0.016418479215755906,0.004378895134939225,-0.020148029711297363,0.0,0.0,0.0,-0.6632509341922531,-0.552479357610086,0.5327989289741049,0.6829336092050117,-0.8939075424708196,-0.7728630418251077,1.0
9.721999999999916,0.00021385471482099445,0.00016349575324908089,-0.0023088713104553555,0.9956958226273491,-0.0019311194224366944,0.09266119721917156,-4.593617916029184e-05,-0.003921477962425553,0.18558808989789227,-0.00045720783133344116,7.165792897978258e-05,-0.0004731963810872699,-0.0006597843071305464,-0.01340168639915867,-0.10332970388927495,2.3204474314775234e-05,0.2,0.0,0.0,0.017962308739452777,0.004765559666036026,-0.01901931192234883,0.0,0.0,0.0,-0.6641882699347109,-0.5641261764433575,0.5415223842649457,0.6867943317423868,-0.9067545637730151,-0.7929346196803778,1.0
9.755999999999927,0.00021567301882601997,0.00014726325105916048,-0.0023328031584319803,0.9958567478509059,-0.0021547483903317332,0.09091036443604678,-2.1384483537895312e-05,-0.004367738887964559,0.18207158900120396,-0.0004416701978749249,2.9876307345206373e-05,-0.00047994333525572876,-0.0007572569599070921,-0.012958427708019044,-0.10349273761413402,1.941855254500272e-05,0.2,0.0,0.0,0.01946507950310383,0.005132032896685062,-0.017829518628637468,0.0,0.0,0.0,-0.6645933567816275,-0.5753292675767387,0.5499688436595467,0.689956071777201,-0.9187091114214309,-0.8123505680804012,1.0
9.789999999999939,0.00021590080950015722,0.0001309112003087277,-0.0023601450387202264,0.9960145964541895,-0.002370617214246677,0.08915886842019154,2.5003811525672614e-06,-0.004798195148831256,0.17855433714066413,-0.0004244910559677502,-1.410390693540963e-05,-0.0004836789544343522,-0.0008520831174832777,-0.012482577802036668,-0.10334781210967842,2.180850199276136e-05,0.2,0.0,0.0,0.02092436864395119,0.005478317513435237,-0.016581459745252047,0.0,0.0,0.0,-0.6645933567816275,-0.5753292675767387,0.5499688436595467,0.689956071777201,-0.9187091114214309,-0.8123505680804012,1.0
9.82399999999995,0.00021474166465731257,0.00011445106904610478,-0.0023906209915402713,0.9961689367715382,-0.002578189303110271,0.08741167939765462,2.561760313066902e-05,-0.005211813320671452,0.17504630132250898,-0.00040589144327227573,-5.93740784745892e-05,-0.00048311674079954683,-0.0009474821693591949,-0.01197578685779023,-0.10290532013771941,2.6423064255283668e-05,0.2,0.0,0.0,0.022337825881438948,0.005804570990141394,-0.015277867216720286,0.0,0.0,0.0,-0.6645262065365686,-0.5859735899337074,0.5580371232737349,0.6924649838189891,-0.9299961257938537,-0.8311862575928548,1.0
9.857999999999961,0.00021217312043037893,9.798731518087868e-05,-0.002424140917800373,0.9963193656455496,-0.0027769464070258347,0.08567384610230264,4.798270206694466e-05,-0.0056075771323687365,0.1715576004484041,-0.0003858758135999057,-9.744337495123176e-05,-0.00048281692422086006,-0.0010332388524653428,-0.011439769923213917,-0.102179472332215,2.603942558668717e-05,0.2,0.0,0.0,0.02370314754695367,0.006111096893395535,-0.013921392527697772,0.0,0.0,0.0,-0.6640353130557238,-0.5959422718801207,0.565620514202573,0.69435939886839,-0.9408312499943947,-0.8495133222278769,1.0
9.891999999999973,0.00020819042178545723,8.163245466610898e-05,-0.0024606264755099704,0.9964655253884659,-0.002966402379396139,0.08395029676178552,6.959036887797614e-05,-0.0059845399453440935,0.16809810553886365,-0.00036450977713021673,-0.00013510725174206058,-0.0004805563795554939,-0.0011130773737508988,-0.010876300656918511,-0.10116354247124529,2.9562308583025065e-05,0.2,0.0,0.0,0.025018053558530182,0.0063983354978227255,-0.01251461105853486,0.0,0.0,0.0,-0.6640353130557238,-0.5959422718801207,0.565620514202573,0.69435939886839,-0.9408312499943947,-0.8495133222278769,1.0
9.925999999999984,0.00020296645644351122,6.539725841819846e-05,-0.002499777718944181,0.9966071073309695,-0.003146108001095089,0.0822457747011414,9.036399651038357e-05,-0.006341841844868651,0.16467731072456918,-0.00034202047410747096,-0.00017561073959100414,-0.00047328464792145453,-0.0011944181922682892,-0.010287211328767427,-0.09986306366056388,3.78361399990377e-05,0.2,0.0,0.0,0.026280266057909216,0.006666852826375712,-0.011060030053354302,0.0,0.0,0.0,-0.6631554773806964,-0.6051176008235926,0.5726085244781421,0.695666897189339,-0.9514137497494926,-0.8673962136680685,1.0
9.959999999999996,0.00019649686288349125,4.937293973216081e-05,-0.0025414512388937287,0.9967438321014126,-0.0033156374497079976,0.08056505163023389,0.00011032638573460254,-0.0066786529192230295,0.1613047629258119,-0.0003184486394865773,-0.00021025539659717894,-0.00046635049114110097,-0.001265374468366233,-0.00967438347307743,-0.09829424408846321,4.26713735761693e-05,0.2,0.0,0.0,0.027487486827757472,0.006917327160028674,-0.009560097358296014,0.0,0.0,0.0,-0.6619073990000311,-0.6133843642667393,0.5788901266295258,0.6964039930692763,-0.9619184546175078,-0.8848875350725812,1.0
9.994000000000007,0.0001887727418031231,3.366545181779369e-05,-0.002585551500583919,0.9968754609175009,-0.003474598465149146,0.07891277347443927,0.0001294936241997378,-0.006994211814556283,0.15798975237166582,-0.00029386226544403566,-0.00024313558164237606,-0.0004584699802108317,-0.0013277114640799358,-0.009039742707626149,-0.09645595897128692,4.9712936555435155e-05,0.2,0.0,0.0,0.028637378781205855,0.00715053505380491,-0.008017215485856424,0.0,0.0,0.0,-0.6619073990000311,-0.6133843642667393,0.5788901266295258,0.6964039930692763,-0.9619184546175078,-0.8848875350725812,1.0
10.028000000000018,0.0001799227840045473,1.828761235440323e-05,-0.0026317724792878894,0.997001798241801,-0.0036226376032820464,0.07729339525656305,0.00014781449064567306,-0.0072878451366150425,0.15474118212930926,-0.0002684772097988384,-0.00027942371523444757,-0.0004453175676495992,-0.0013930421356058232,-0.008385258510414093,-0.09435165189555675,6.289704847908613e-05,0.2,0.0,0.0,0.029727550732112758,0.007367336360679435,-0.0064337588147624514,0.0,0.0,0.0,-0.6602969051926799,-0.6206320553809591,0.5843563128046192,0.6965750146172344,-0.972489635489896,-0.9020250044915257,1.0
10.06200000000003,0.00016995248535085124,3.311095459956926e-06,-0.0026799302522839156,0.9971226761738863,-0.0037594294011244734,0.07571134671700369,0.000165313956656437,-0.007558922307249008,0.1515679019764419,-0.00024236491674875467,-0.0003113693991573,-0.0004325865879407522,-0.0014475171133731745,-0.007712935167614468,-0.09199744998284096,7.380218491590039e-05,0.2,0.0,0.0,0.030755541781847348,0.007568657410912025,-0.004812091009578727,0.0,0.0,0.0,-0.6583121256166472,-0.6267547698159293,0.5889001307366198,0.6961691391900783,-0.9832349369079723,-0.9188280421931349,1.0
10.096000000000041,0.0001588545028106968,-1.1172847308166452e-05,-0.002729924429303614,0.9972379608580678,-0.0038846831431275956,0.07417092105076116,0.00018201923827897466,-0.007806881078312801,0.14847848525193727,-0.00021560025070474232,-0.00034146376816832004,-0.0004197624803515426,-0.001491004439786603,-0.007024807110444868,-0.08939604968315215,8.562375857657637e-05,0.2,0.0,0.0,0.03171881038949634,0.0077554740639249045,-0.0031545859705744018,0.0,0.0,0.0,-0.6583121256166472,-0.6267547698159293,0.5889001307366198,0.6961691391900783,-0.9832349369079723,-0.9188280421931349,1.0
10.130000000000052,0.00014670690652794093,-2.5149156273376403e-05,-0.002781462436556247,0.9973475526694757,-0.003998147580744742,0.07267623294773412,0.0001979006239344933,-0.008031245402385371,0.1454811448190057,-0.00018837919207841916,-0.0003743370842012893,-0.0004019271416110365,-0.0015396177705323739,-0.006322937541416997,-0.08655228078503754,0.00010381213203128554,0.2,0.0,0.0,0.03261472809628585,0.007928794507391744,-0.0014636509886649385,0.0,0.0,0.0,-0.6559240175127816,-0.6316537439191915,0.5924195166645495,0.6951606239010208,-0.994220784243282,-0.9352953191195965,1.0
10.164000000000064,0.00013351405572909776,-3.8569060919690336e-05,-0.002834329920361143,0.9974513757676492,-0.0040996031431403445,0.07123131946673542,0.00021297962597518558,-0.008231593185291415,0.14258393675914366,-0.00016079840401378816,-0.0004045716324291047,-0.0003846073203979985,-0.0015772051473242083,-0.0056094104721141624,-0.08347985223455845,0.00012038968670972033,0.2,0.0,0.0,0.033440573471465715,0.008089641103210496,0.0002582506601251506,0.0,0.0,0.0,-0.6530869281844458,-0.6352395068801852,0.5948195404678341,0.6935092751137626,-1.0054689463940663,-0.9514028808786774,1.0
10.198000000000075,0.0001192756518305973,-5.136214733295574e-05,-0.0028884316957753123,0.9975493810741798,-0.0041888658225820025,0.0698400605917002,0.00022728437979070053,-0.008407570895892717,0.13979460123804494,-0.00013294341253784696,-0.00043426844974070515,-0.0003678041754751,-0.0016017128889618856,-0.004886326427526547,-0.08018338041226414,0.00013686344416222857,0.2,0.0,0.0,0.03419353066167121,0.00823903259270003,0.0020085755128567114,0.0,0.0,0.0,-0.6530869281844458,-0.6352395068801852,0.5948195404678341,0.6935092751137626,-1.0054689463940663,-0.9514028808786774,1.0
10.232000000000086,0.0001040226017181146,-6.351362841418473e-05,-0.0029435097770653426,0.9976415430562744,-0.004265790841913986,0.06850617937435646,0.00024079933053753447,-0.008558907856046289,0.13712056287762617,-0.00010498868973204975,-0.0004645808390495927,-0.00034674707813356316,-0.0016339875205541947,-0.004155799279355771,-0.07667348448842556,0.00015884624548123688,0.2,0.0,0.0,0.03487069365632978,0.008377966851051695,0.0037846747081301106,0.0,0.0,0.0,-0.6497391149318255,-0.6374334455564863,0.5960139096193515,0.6911610292538438,-1.0169532198124025,-0.9671017448179354,1.0
10.266000000000098,8.774352066849639e-05,-7.499794708566296e-05,-0.0029993271762031133,0.9977278541203868,-0.004330267616578639,0.06723327757459022,0.0002535375228004542,-0.008685395642892054,0.13456900327419638,-7.704986097558209e-05,-0.0004941297223135102,-0.0003263127498330325,-0.0016553910857037349,-0.003419949148750828,-0.07295875401880586,0.00017939861906617944,0.2,0.0,0.0,0.035469071223545486,0.008507403659214045,0.0055837701712773795,0.0,0.0,0.0,-0.645804176745104,-0.6381694837367987,0.5959266858240132,0.6880493471319763,-1.0285989351060654,-0.982317671018305,1.0
10.300000000000109,7.044958001509383e-05,-8.57688882894137e-05,-0.0030558008350743482,0.9978083262852897,-0.004382221437828698,0.06602476528050209,0.000265519631196445,-0.008786894533012898,0.13214672017909287,-4.922405483552584e-05,-0.0005260577300233656,-0.00030675080826097703,-0.0016620156809496033,-0.0026808990315271286,-0.06904359052229675,0.00019903174837517424,0.2,0.0,0.0,0.03598559551359959,0.008628248366843947,0.007402931046474511,0.0,0.0,0.0,-0.645804176745104,-0.6381694837367987,0.5959266858240132,0.6880493471319763,-1.0285989351060654,-0.982317671018305,1.0
10.33400000000012,5.2140724874348275e-05,-9.581639451543255e-05,-0.00311272795812415,0.997882984307069,-0.004421615909645518,0.06488391449565202,0.0002767361349115744,-0.008863343514356475,0.12986023499674043,-2.166535916075674e-05,-0.0005545207334026838,-0.000284060522536932,-0.0016792119143199385,-0.0019407696970691448,-0.06494986980893727,0.00022249380698008317,0.2,0.0,0.0,0.03641713711551112,0.008741336859866203,0.00923905041316321,0.0,0.0,0.0,-0.6411926640829743,-0.6373949864063854,0.5944932910945429,0.6840967219168543,-1.0402802466334624,-0.9969478917246293,1.0
10.368000000000132,3.2770141448331183e-05,-0.00010513595989760345,-0.003169856139351184,0.9979518631529884,-0.004448449989585869,0.06381385151016758,0.0002871891485075672,-0.008914748622266438,0.12771577821054053,5.501242802609972e-06,-0.000584223561774305,-0.0002621153081701139,-0.0016860368495690541,-0.0012016720861464983,-0.060677961703658315,0.00024434980509811495,0.2,0.0,0.0,0.03676052122271942,0.008847421446965433,0.01108882418979126,0.0,0.0,0.0,-0.6358041697432558,-0.6350715592188336,0.5916618340361026,0.6792162431982508,-1.0518222553422745,-1.010862524739264,1.0
10.402000000000143,1.2362987147490518e-05,-0.00011370599464195237,-0.003227118340586717,0.9980150112380348,-0.004462758187979145,0.06281745769085702,0.0002968874495360024,-0.008941184075720277,0.12571909085691402,3.217192386065158e-05,-0.0006190318090674464,-0.0002407450738969274,-0.0016816865857480988,-0.0004657059548934363,-0.05623277035811623,0.0002650874213482253,0.2,0.0,0.0,0.03701254559071925,0.008947158127755777,0.01294873181573902,0.0,0.0,0.0,-0.6295305454149575,-0.6311754679597145,0.5873942806049042,0.6733140622508466,-1.0630018078369905,-1.0239034742402187,1.0
10.436000000000154,-9.079428284910884e-06,-0.0001215258953253551,-0.003284382696016256,0.9980724803207399,-0.004464611839337414,0.06189747766120726,0.00030582137163544286,-0.008942798268789038,0.12387564142300254,5.821344355719818e-05,-0.000647996520183511,-0.00021845423307561586,-0.0016810853536866263,0.00026504483615102595,-0.05164455044367215,0.00028677845730298943,0.2,0.0,0.0,0.03717000537915311,0.009041095766459657,0.014815018490420821,0.0,0.0,0.0,-0.6295305454149575,-0.6311754679597145,0.5873942806049042,0.6733140622508466,-1.0630018078369905,-1.0239034742402187,1.0
10.470000000000166,-3.166494666022305e-05,-0.00012860873527822722,-0.003341390889669565,0.9981243227751517,-0.00445411794509821,0.0610565191635924,0.000313983444657639,-0.008919808853884936,0.12219062600065098,8.350576912002497e-05,-0.0006782527653013904,-0.0001965769868880027,-0.0016755911793570758,0.0009884179668794594,-0.04691136564260054,0.000306923870850047,0.2,0.0,0.0,0.03722971962857898,0.009129666883553017,0.016683680348006415,0.0,0.0,0.0,-0.6222585891044661,-0.6256982929387406,0.5816665239901472,0.6662926639768142,-1.0735489713231454,-1.0358834769627192,1.0
10.504000000000177,-5.5347759863943716e-05,-0.0001349549072001789,-0.00339810220191785,0.9981706002084936,-0.004431421117595045,0.06029686647597525,0.0003213712409875308,-0.008872506296701086,0.12066859468986098,0.00010795000633132134,-0.0007158729814367902,-0.00017541854076239062,-0.0016611013045641997,0.0017021385765147233,-0.04203598334434551,0.00032557663580728426,0.2,0.0,0.0,0.03718855676010322,0.009213180179841915,0.018550452328698636,0.0,0.0,0.0,-0.6138745528944184,-0.6186461338126259,0.5744701281140354,0.6580528359943922,-1.0831517657111047,-1.046588269404145,1.0
10.538000000000189,-8.009457840092603e-05,-0.00014057760791016296,-0.0034544358741710195,0.9982113705353372,-0.0043967049669941406,0.05962064368386093,0.0003279727414906727,-0.008801258808540735,0.11931377886423877,0.0001314379307457915,-0.0007475177618156692,-0.0001544290303326153,-0.0016475431261537875,0.0024039723813962526,-0.037054845706137776,0.000343294419476596,0.2,0.0,0.0,0.037043467558824525,0.00929181534970319,0.020410798824956396,0.0,0.0,0.0,-0.6138745528944184,-0.6186461338126259,0.5744701281140354,0.6580528359943922,-1.0831517657111047,-1.046588269404145,1.0
10.5720000000002,-0.00010608563355335573,-0.0001455026856631979,-0.003510167659871126,0.9982466816315397,-0.004350190611254188,0.0590298826584849,0.0003337762589003855,-0.008706508332591109,0.11813022761773002,0.00015387197827950542,-0.000778014570286102,-0.0001340241434668429,-0.0016323624961581769,0.003091747795942659,-0.03196949515334113,0.00035894326633866447,0.2,0.0,0.0,0.03679151915055711,0.00936561987163575,0.022259907954870074,0.0,0.0,0.0,-0.604275650622502,-0.6100327862184639,0.5658199355042846,0.6484907450862131,-1.0914594337186194,-1.0557762393678374,1.0
10.606000000000211,-0.00013325029640028337,-0.00014974943910809837,-0.0035652776472357476,0.9982765889570635,-0.00429213558789779,0.05852618855901301,0.0003387699816795861,-0.008588768297066616,0.11712113774631785,0.0001751676571736338,-0.0008178885280227345,-0.00011461746682645048,-0.00161025334689641,0.0037633571523474608,-0.026777870237582352,0.0003726830263173208,0.2,0.0,0.0,0.036429926396135126,0.009434507719466986,0.024092688704395543,0.0,0.0,0.0,-0.593357762725083,-0.5998963071820911,0.5557384838729353,0.6375177908803715,-1.098088296427259,-1.0631812304366253,1.0
10.640000000000223,-0.00016149669420791472,-0.0001533431112426697,-0.0036197212025901064,0.9983011400392852,-0.00422283293046451,0.05811096172730211,0.00034293648579583255,-0.008448622813040962,0.11628929843583671,0.00019524065736915285,-0.0008533909518320001,-9.60176483888384e-05,-0.0015879425152326716,0.004416770551670297,-0.0215201791722736,0.00038415458821776296,0.2,0.0,0.0,0.03595609004397695,0.009498260419962948,0.025903772042576455,0.0,0.0,0.0,-0.593357762725083,-0.5998963071820911,0.5557384838729353,0.6375177908803715,-1.098088296427259,-1.0631812304366253,1.0
10.674000000000234,-0.00019107128724164276,-0.0001563211985393545,-0.003673334746363596,0.9983203625680576,-0.004142609185289736,0.05778557408756435,0.00034626361470834426,-0.008286721717973202,0.11563744484099601,0.00021402733124019287,-0.0008828642563636098,-7.818789507640671e-05,-0.0015657719035073782,0.0050500458012524094,-0.016207772432227784,0.0003928372107678199,0.2,0.0,0.0,0.03536763486406445,0.009556530137975746,0.027687515972140784,0.0,0.0,0.0,-0.5810321407235987,-0.5882865872885646,0.5442683809700712,0.6250525076614777,-1.102627145586191,-1.0685139168831044,1.0
10.708000000000245,-0.00022187962484313567,-0.00015871687817216798,-0.003726116145846582,0.9983342925082335,-0.0040518233511308765,0.0575508602306373,0.00034873532940361075,-0.008103779305366982,0.11516723854955022,0.00023147039708475503,-0.0009234771547276483,-6.167895292586322e-05,-0.0015389996980880694,0.005661332237100776,-0.010830794571694193,0.0003994364659186092,0.2,0.0,0.0,0.034662444633153974,0.009608844591303352,0.029438013364463677,0.0,0.0,0.0,-0.567228342073554,-0.5752674809081889,0.5314715310135455,0.6110264030253145,-1.1046449518512238,-1.0714660709481745,1.0
10.742000000000257,-0.00025374891887876175,-0.00016056237854375613,-0.0037780396116741145,0.9983429572623734,-0.003950865199691694,0.057407382941244915,0.0003503321722342908,-0.007900571301865342,0.11487979962446748,0.0002475171452829257,-0.0009629529076760424,-4.644569100690477e-05,-0.001512217780401334,0.0062488842509508865,-0.00543048683986202,0.00040326309347548815,0.2,0.0,0.0,0.03383870208243735,0.009654614092645964,0.031149104573100724,0.0,0.0,0.0,-0.567228342073554,-0.5752674809081889,0.5314715310135455,0.6110264030253145,-1.1046449518512238,-1.0714660709481745,1.0
10.776000000000268,-0.00028696894611891647,-0.00016190600957424707,-0.0038290183000056544,0.9983463569117156,-0.003840152590931656,0.05735574630929043,0.00035104770154507507,-0.00767792793963464,0.11477633401776195,0.0002621495883091089,-0.00098904537020017,-3.1900589468589605e-05,-0.0014854843296150872,0.006811063494508655,-3.4589761143697295e-05,0.00040345310763072433,0.2,0.0,0.0,0.03289492737203494,0.009693140334340437,0.03281439378734521,0.0,0.0,0.0,-0.5518972863859467,-0.5609182853921342,0.517427994336371,0.595389633656871,-1.1036988271476225,-1.0717146312957506,1.0
10.81000000000028,-0.00032142887917385705,-0.0001627896989663693,-0.003879068246643028,0.9983445030345214,-0.003720130683412505,0.05739591258019251,0.0003508668418513951,-0.007436734571095247,0.11485676486717103,0.0002753455723776941,-0.0010277252819168457,-1.9004924817039105e-05,-0.0014567917272293714,0.007346348320997384,0.005376348305409649,0.0004016759362459501,0.2,0.0,0.0,0.03183001394254666,0.009723626677172718,0.034427268280295506,0.0,0.0,0.0,-0.5350156093227713,-0.54533665246679,0.5022363974312449,0.5781178605890994,-1.0993399454645005,-1.0689239643926414,1.0
10.84400000000029,-0.00035685963181107395,-0.0001632460623927566,-0.0039281623257753995,0.9983374060067417,-0.003591269660081099,0.057527421376611154,0.00034977095030540626,-0.007177926846327636,0.11512017170154279,0.0002870861108005555,-0.0010701197404259116,-7.87145399856152e-06,-0.0014299114424511366,0.007853347016707667,0.010756263506378708,0.00039730059302411414,0.2,0.0,0.0,0.030643266796968695,0.009745190098714634,0.03598092262219791,0.0,0.0,0.0,-0.5350156093227713,-0.54533665246679,0.5022363974312449,0.5781178605890994,-1.0993399454645005,-1.0689239643926414,1.0
10.878000000000302,-0.0003935567567494758,-0.00016333168623540253,-0.003976292113252008,0.9983250527503046,-0.0034540610787811617,0.05774978417674144,0.0003477653030822988,-0.006902480550107602,0.115565580846777,0.00029740685471957816,-0.0010894722971054019,3.118624936767938e-06,-0.0014004221492290986,0.008330788283501027,0.01604672553536296,0.00038841864110445465,0.2,0.0,0.0,0.029334437355983997,0.009756874282983934,0.03746838574326534,0.0,0.0,0.0,-0.5165903464968238,-0.5286401642588066,0.48601500505785555,0.5592174370320209,-1.091115062039701,-1.062744032387643,1.0
10.912000000000313,-0.000431410198917029,-0.00016309346863691276,-0.0040234986884912696,0.9983074544289285,-0.003309017496601094,0.058061673398326276,0.00034484348182013826,-0.006611414638258152,0.11619034056118328,0.0003063308936846083,-0.0011225343242453748,1.2147269010879848e-05,-0.0013719072363001248,0.008777536588836104,0.021274837707913677,0.0003778410944759858,0.2,0.0,0.0,0.027903757024279906,0.009757663772012317,0.03888255153850471,0.0,0.0,0.0,-0.49666961550833044,-0.5109248206222846,0.4689098338391371,0.5386864640833223,-1.0785927581883539,-1.0528342547260543,1.0
10.946000000000325,-0.0004700502139071173,-0.00016255785552669655,-0.004069733720776269,0.9982846339554717,-0.003156670449673922,0.058461173179706304,0.0003409846260461918,-0.006305787840614701,0.11699062324344135,0.0003138595332427693,-0.001165735082978595,1.876405158030374e-05,-0.0013492197812336227,0.009192607702476076,0.026399477098263145,0.000365236545899852,0.2,0.0,0.0,0.026351970591229307,0.009746499130221593,0.04021621407073604,0.0,0.0,0.0,-0.49666961550833044,-0.5109248206222846,0.4689098338391371,0.5386864640833223,-1.0785927581883539,-1.0528342547260543,1.0
10.980000000000336,-0.0005097276643485424,-0.00016178422910234692,-0.0041150509342045925,0.9982565924440114,-0.0029975654441623425,0.058946392702244034,0.0003362006428968948,-0.005986683447802514,0.11796265426448005,0.00032006196218086874,-0.0011742091879873972,2.6364322203478518e-05,-0.001317965693251553,0.009575144687080907,0.03133557685095524,0.0003460136106006812,0.2,0.0,0.0,0.024680363733507692,0.009722292381513724,0.04146210377499303,0.0,0.0,0.0,-0.4753138392121138,-0.49233827998601903,0.4510620786274889,0.5165918285587067,-1.061348461810587,-1.038845005651168,1.0
11.014000000000348,-0.0005503561780241127,-0.00016082291160482169,-0.004159533387037995,0.9982233616271781,-0.002832262136373931,0.05951461477416542,0.00033048632361092783,-0.005655215222420888,0.11910100566984397,0.0003249785587136212,-0.0011971240726049513,3.172814031498301e-05,-0.0012907969835279879,0.009924434354522647,0.03612898352144765,0.000325486961067252,0.2,0.0,0.0,0.02289079067275657,0.009683943058894138,0.04261292834539166,0.0,0.0,0.0,-0.4526259582784782,-0.4730422820347069,0.4326361717892796,0.4930337789358715,-1.039001353909272,-1.0204525226954464,1.0
11.048000000000359,-0.0005914701017323523,-0.00015968891631108536,-0.004203091981531719,0.998184998289144,-0.0026613321908382104,0.06016246041773347,0.00032381778439477153,-0.005312523613407144,0.1203989255376682,0.00032861443523869005,-0.0012378543370137004,3.377501508929308e-05,-0.0012760871832532834,0.010239931159409733,0.04074928344180803,0.000304282116140837,0.2,0.0,0.0,0.02098570001361944,0.009630354614077177,0.04366141795763207,0.0,0.0,0.0,-0.4526259582784782,-0.4730422820347069,0.4326361717892796,0.4930337789358715,-1.039001353909272,-1.0204525226954464,1.0
11.08200000000037,-0.0006332166266068847,-0.00015843559514333404,-0.004245797005613685,0.998141543970987,-0.0024853532298749026,0.060886626006982664,0.00031621515408426017,-0.004959756410038491,0.1218498148594575,0.00033106007261780613,-0.0012308490285999841,3.853530063426925e-05,-0.0012427202787956204,0.010521218280583128,0.04508274164021614,0.00027428513713488156,0.2,0.0,0.0,0.018968151708453188,0.009560450025604161,0.04460036833363309,0.0,0.0,0.0,-0.42874963113161246,-0.4532148658776513,0.41381752762852503,0.46814859903871303,-1.011227579303312,-0.9973716947354354,1.0
11.116000000000382,-0.0006755636869060552,-0.00015711796522655352,-0.004287797368923251,0.9980930765428367,-0.002304909385149461,0.061683087473014375,0.0003076845445604758,-0.004598076584702662,0.12344563237418443,0.00033237708254036714,-0.0012386771648183932,4.083246510785661e-05,-0.0012165132344789562,0.010768013538972197,0.04919716779401276,0.00024382578499277773,0.2,0.0,0.0,0.016841834735474077,0.009473187567408371,0.045422689330642925,0.0,0.0,0.0,-0.403865146004258,-0.43305403148503385,0.39480728041444607,0.4421134434999184,-0.9777749129779228,-0.9693696389967719,1.0
11.150000000000393,-0.0007179690497563085,-0.0001557367401033965,-0.0043289471665259064,0.9980397152333552,-0.0021205901463687807,0.062547110164898,0.00029820190298495206,-0.004228662307315556,0.12517691366939337,0.00033256322913775626,-0.0012728190749889884,3.86222621331212e-05,-0.0012122584269138004,0.01098021201237263,0.053076581103100706,0.00021501063260363583,0.2,0.0,0.0,0.014611083274980945,0.009367576591408544,0.04612145919209991,0.0,0.0,0.0,-0.403865146004258,-0.43305403148503385,0.39480728041444607,0.4421134434999184,-0.9777749129779228,-0.9693696389967719,1.0
11.184000000000404,-0.0007604178890399751,-0.0001543276023573859,-0.004369257088601044,0.9979815749313966,-0.001932983205453228,0.06347406437336267,0.00028779385460280725,-0.0038526828239170635,0.12703440517805265,0.00033171026326639385,-0.0012459662983817425,4.138187415950414e-05,-0.0011747509281639205,0.011157835360547697,0.05657920005711568,0.00017491336267445244,0.2,0.0,0.0,0.012280880745749654,0.009242691293794644,0.04668997181219599,0.0,0.0,0.0,-0.3781887308499317,-0.41277674001313236,0.3758212171200489,0.4151457152567056,-0.9384783701772406,-0.9362809611773719,1.0
11.218000000000416,-0.0008029676720122478,-0.00015295399735251332,-0.004408977350319977,0.9979188089153087,-0.0017426747371999585,0.06445880431403238,0.00027648547271721865,-0.003471305320130739,0.12900781899637354,0.00032990011475103555,-0.0012340832155315748,4.150955836596658e-05,-0.0011472709433909597,0.011301009095685946,0.05979630554278989,0.00013565075594376198,0.2,0.0,0.0,0.009856863424919891,0.009097684039269029,0.04712178836259552,0.0,0.0,0.0,-0.3519704656174739,-0.3926170561093997,0.35708793432898833,0.3875009632162958,-0.8932724257728792,-0.8980202018081714,1.0
11.252000000000427,-0.0008450319453500958,-0.00015160214054899307,-0.004447898245590917,0.9978516283279364,-0.0015502501899222047,0.0654954558380973,0.0002642578174298959,-0.0030857022972327584,0.13108540657283263,0.0003271179816545724,-0.0012433326590528114,3.783683078285847e-05,-0.0011388682542848652,0.011410037790184048,0.06271273790345767,9.924603706703915e-05,0.2,0.0,0.0,0.007345325344482954,0.008931799097186676,0.047410799900189246,0.0,0.0,0.0,-0.3254909706553935,-0.3728239647681546,0.33884640022673096,0.3594698255146325,-0.8422044126090831,-0.854596045184726,1.0
11.286000000000438,-0.0008863863268893115,-0.00015027692017310318,-0.0044858670918975115,0.9977802532248915,-0.0013562864383931143,0.06657825237545653,0.0002511417894901904,-0.002697023930165313,0.13325563374110225,0.00032343768563943226,-0.0012070696723480382,3.747322891438385e-05,-0.0011086625551163,0.01148534911989638,0.06521043519874338,5.324769402610975e-05,0.2,0.0,0.0,0.004753207824761538,0.008744383049716744,0.04755127609666045,0.0,0.0,0.0,-0.3254909706553935,-0.3728239647681546,0.33884640022673096,0.3594698255146325,-0.8422044126090831,-0.854596045184726,1.0
