t,px,py,pz,qw,qx,qy,qz,roll,pitch,yaw,vx,vy,vz,wx,wy,wz,cur_x,cur_y,cur_z,wav_x,wav_y,wav_z,kick_x,kick_y,kick_z,u0,u1,u2,u3,u4,u5,dist_on
1.8040000000000014,0.00038377763358260226,-0.0031747381317839777,0.0001408028437371584,0.9989305993833479,-0.0005888346652376653,0.04623105677191352,-1.6706705745977513e-05,-0.001183011865957013,0.09249504608378403,-8.819959653333468e-05,-4.5357619862561216e-05,0.007550740714114125,-0.00042149909949721064,-0.0013423709260517538,0.05747386976360605,-0.00017629079055956877,0.2,0.0,0.0,0.021019674124595166,-0.015363388842647147,-0.03863285141931899,0.0,0.0,0.0,-0.8659813972822034,-0.6153875393279169,0.7239896425102279,0.7573820313129079,-0.968621395542703,-0.8368690836970779,1.0
1.8380000000000014,0.00038111327294354616,-0.002922757015252186,0.00012507130946834479,0.9988847850145421,-0.0006113133358678346,0.047210297634659316,-1.8965870701676193e-05,-0.001228530579746581,0.09445566373964888,-9.603811002387326e-05,-0.0001069146243077438,0.007259075943959749,-0.0004943561489272227,-0.0012832456917694223,0.0579193834201855,-0.00014672895505199386,0.2,0.0,0.0,0.023325061037268616,-0.014964673336974038,-0.03736549832396823,0.0,0.0,0.0,-0.8659813972822034,-0.6153875393279169,0.7239896425102279,0.7573820313129079,-0.968621395542703,-0.8368690836970779,1.0
1.8720000000000014,0.0003765748516058879,-0.0026806279089394975,0.00010711202414319058,0.9988376074167025,-0.0006326783542458547,0.0481978556804234,-2.08803155493712e-05,-0.0012718078798365298,0.09643302619999275,-0.00010317894484439818,-0.000170785708883942,0.006961800808343953,-0.0005786679173368792,-0.0012121417157395084,0.058498501756072324,-0.00011556698487750702,0.2,0.0,0.0,0.025583335610130303,-0.014534811213581005,-0.03599214957960492,0.0,0.0,0.0,-0.8829850797144427,-0.6158047829332294,0.7212625117783561,0.7775301202720072,-1.0240104237861576,-0.8739503228870485,1.0
1.9060000000000015,0.00036993951811296254,-0.002448564860964749,8.654755264856974e-05,0.998788918424679,-0.000652723638248222,0.049196238502305714,-2.238610212256568e-05,-0.0013124220971708837,0.09843215920673874,-0.00010947097530386055,-0.00022744900638271446,0.0066677073668079175,-0.0006484662670712196,-0.0011293305349937065,0.059208568645764584,-9.447140516778249e-05,0.2,0.0,0.0,0.027787626218738107,-0.014076432476738064,-0.03451615707591213,0.0,0.0,0.0,-0.8969957826815383,-0.6164282710210763,0.7181631591743868,0.7952636909713795,-1.0764835717180754,-0.9105474265506628,1.0
1.9400000000000015,0.0003610868204822614,-0.0022266888417796656,6.305368326785249e-05,0.998738560583212,-0.0006712506825050054,0.05020793240927333,-2.3449553856571637e-05,-0.0013499690913546592,0.10045804697651017,-0.00011482306508975754,-0.0002913955412865173,0.006369908716782427,-0.000725722959560987,-0.0010352065930154851,0.06008047840772324,-6.508807461618016e-05,0.2,0.0,0.0,0.029931173906116663,-0.013592206193890535,-0.032941129873182116,0.0,0.0,0.0,-0.8969957826815383,-0.6164282710210763,0.7181631591743868,0.7952636909713795,-1.0764835717180754,-0.9105474265506628,1.0
1.9740000000000015,0.00035014426980110126,-0.0020148980639559176,3.6996780542824476e-05,0.9986863666738337,-0.0006880769601201286,0.05123540752664823,-2.419697023316546e-05,-0.0013840927455861763,0.10251564229887747,-0.00011946538434323563,-0.00036014231371902047,0.006068701978023344,-0.0008195572813681735,-0.0009303672659229131,0.061107424858233506,-3.0397438898603144e-05,0.2,0.0,0.0,0.032007353131803584,-0.013084830294889787,-0.031270931801384634,0.0,0.0,0.0,-0.9079796479220881,-0.6171209965581388,0.7146090391372665,0.8104944233616396,-1.1257541407431646,-0.9463285203444503,1.0
2.0080000000000005,0.00033695119163073786,-0.0018132487826036554,8.106637606527499e-06,0.9986321447315616,-0.0007030203312069175,0.05228139887128977,-2.4562529918245165e-05,-0.0014144183750364667,0.10461043001497722,-0.0001232413583128895,-0.0004239112503100855,0.005772660535907993,-0.000898924530727914,-0.000815440608897285,0.06228344759650482,-8.132626810486927e-06,0.2,0.0,0.0,0.03400968103801904,-0.012557018061885673,-0.029509662856923132,0.0,0.0,0.0,-0.9159155899651783,-0.6177433996340831,0.7105198204089931,0.823142003022708,-1.1715493341296033,-0.9809658347930512,1.0
2.0419999999999967,0.00032141149962451213,-0.0016217391800179965,-2.390944396773041e-05,0.9985756919158402,-0.0007159109586265556,0.05334861185064295,-2.4493053640241267e-05,-0.0014405964778188946,0.10674783716244544,-0.00012601936815433558,-0.0004907838714085798,0.005478136075102508,-0.0009778810270501487,-0.0006911496694618625,0.0636258592180233,1.8374406979717522e-05,0.2,0.0,0.0,0.03593183732620554,-0.012011489783519291,-0.027661657860418305,0.0,0.0,0.0,-0.9159155899651783,-0.6177433996340831,0.7105198204089931,0.823142003022708,-1.1715493341296033,-0.9809658347930512,1.0
2.075999999999993,0.0003036043732021826,-0.0014402019271802236,-5.8695014881471e-05,0.9985167946448694,-0.0007266040114651608,0.05443971230037353,-2.4153642934176205e-05,-0.0014623508462070186,0.1089332128251316,-0.00012810720045567224,-0.0005622176460556662,0.005183097751574332,-0.0010762988563429515,-0.0005583732419478743,0.06513197231273107,5.534752701716489e-05,0.2,0.0,0.0,0.03776768700980032,-0.011450964264488024,-0.025731484222719703,0.0,0.0,0.0,-0.9207948987098262,-0.6181549560004943,0.7058179856647502,0.8331347126542544,-1.2136060319672772,-1.0141324053881449,1.0
2.109999999999989,0.0002834296962106191,-0.0012685671785135156,-9.639093763053372e-05,0.9984552183235003,-0.0007349578956636296,0.05555750433355202,-2.3488107796786057e-05,-0.0014793881656668026,0.1111721851326165,-0.00012936711845314358,-0.0006308263260142769,0.004894616169230812,-0.0011596073968986812,-0.0004180249873602705,0.06679577400573372,7.790281270017674e-05,0.2,0.0,0.0,0.03951128983607526,-0.010878148476574364,-0.02372392627597812,0.0,0.0,0.0,-0.9226229321857952,-0.6182175182307961,0.7004317411278462,0.8404115563907946,-1.2518329359519993,-1.04566534646024,1.0
2.1439999999999855,0.00026084660920636094,-0.0011067269226950297,-0.0001371861515764126,0.9983907178289022,-0.0007408462108087157,0.05670471935463841,-2.2425304037741956e-05,-0.0014914429867047428,0.11347023856689334,-0.00012963102083965588,-0.0007006850277543171,0.004610837941412902,-0.0012341535790496684,-0.0002710828088098589,0.06862378408184241,9.908643084397109e-05,0.2,0.0,0.0,0.041156921035107555,-0.010295730413395467,-0.021643981847426875,0.0,0.0,0.0,-0.9226229321857952,-0.6182175182307961,0.7004317411278462,0.8404115563907946,-1.2518329359519993,-1.04566534646024,1.0
2.1779999999999817,0.00023588463339702375,-0.0009544705916807355,-0.00018069653680342196,0.9983230352281395,-0.0007441746958162734,0.05788404866115576,-2.1153998702990152e-05,-0.001498343575463752,0.11583277899329175,-0.00012925488972076126,-0.0007719393983622378,0.004329868415603,-0.0013281238005539515,-0.00011862882439880868,0.07060887813199754,0.00013663243148930794,0.2,0.0,0.0,0.0426990953653044,-0.009706371896636349,-0.019496858295750187,0.0,0.0,0.0,-0.9214251869220086,-0.6178031909776953,0.6943025257425918,0.8449286962804401,-1.2870247342458052,-1.0762813510615576,1.0
2.211999999999978,0.00020849771626188857,-0.0008116348026787975,-0.00022688143445042896,0.9982518971792516,-0.0007448550507207788,0.05909817749547657,-1.963902915301218e-05,-0.0014999048632670657,0.11826520277976693,-0.0001281436552883292,-0.0008425372385496357,0.004056275956828975,-0.0014060513197855775,3.8229706566553735e-05,0.07274866322078888,0.0001582192625109168,0.2,0.0,0.0,0.04413257759246736,-0.009112700742454667,-0.017287958636166643,0.0,0.0,0.0,-0.9172346135280282,-0.6167857410887911,0.6873732972701355,0.846649891846839,-1.3194330770106693,-1.1061485670390652,1.0
2.2459999999999742,0.0001787103451770001,-0.0006780241553461864,-0.00027587078947332797,0.9981770224648165,-0.0007428149720392812,0.060349645669857246,-1.7796438877616497e-05,-0.0014959670975692315,0.12077261749568832,-0.0001261037930140994,-0.0009152957406524973,0.0037888569256614743,-0.0014697576673654063,0.00019835930799203726,0.07504252954513227,0.00017207713889593582,0.2,0.0,0.0,0.045452401952390364,-0.008517304480406534,-0.015022874583775596,0.0,0.0,0.0,-0.9172346135280282,-0.6167857410887911,0.6873732972701355,0.846649891846839,-1.3194330770106693,-1.1061485670390652,1.0
2.2799999999999705,0.00014650658974650616,-0.0005533978947734346,-0.0003273233549894388,0.9980981149014007,-0.000738018591769726,0.061640961288740574,-1.581861008950931e-05,-0.0014864766694493905,0.12336006942688782,-0.0001234999026141592,-0.0009838293876650284,0.003527864263394478,-0.0015550506718494807,0.00036056361862759446,0.0774700730807319,0.0002082279045124724,0.2,0.0,0.0,0.04665389721127286,-0.007922723960766128,-0.01270738027661346,0.0,0.0,0.0,-0.9100944732631292,-0.6150431349126975,0.6795921287897413,0.8455482974730645,-1.3490197372192512,-1.1351404444060993,1.0
2.3139999999999668,0.00011186312737229733,-0.0004375315586429199,-0.0003811107998433786,0.9980148694446311,-0.0007304387918872526,0.06297449197007168,-1.3700306612865129e-05,-0.0014713739174738241,0.12603232653388605,-0.00012029839812926155,-0.0010540029905073231,0.0032745649386148627,-0.00162466182475348,0.0005236401223776652,0.08003663676977013,0.00022743417263013536,0.2,0.0,0.0,0.0477326982397257,-0.007331446967750491,-0.01034741866795516,0.0,0.0,0.0,-0.900061049354635,-0.6124615735587594,0.6709157013580195,0.8416097163328997,-1.3757222789394528,-1.1631021286102121,1.0
2.347999999999963,7.487719136502652e-05,-0.0003301621477846285,-0.000437329844315164,0.9979269792145716,-0.0007200632714709418,0.06435235454676272,-1.1351343352312252e-05,-0.0014506172637241538,0.128793657377785,-0.00011629435929760799,-0.0011298804977568607,0.003027448011648494,-0.001676549294085393,0.000686402946965094,0.08273822428767386,0.00023267367773119262,0.2,0.0,0.0,0.048684763517643836,-0.006745902328132653,-0.007949091102511692,0.0,0.0,0.0,-0.900061049354635,-0.6124615735587594,0.6709157013580195,0.8416097163328997,-1.3757222789394528,-1.1631021286102121,1.0
2.3819999999999593,3.551654687593836e-05,-0.00023102392311864317,-0.0004957108167435752,0.9978341217566433,-0.0007069170016183082,0.06577663450237235,-8.946608978689955e-06,-0.001424273662354664,0.13164827048915684,-0.00011181929247860883,-0.001193018750615141,0.0027905822355695042,-0.0017515595185789363,0.0008476570656131351,0.08553218549481664,0.00026542514896573494,0.2,0.0,0.0,0.049506399440342866,-0.006168453453367216,-0.005518647397068461,0.0,0.0,0.0,-0.8872036566186351,-0.6089376139434355,0.6613097562804378,0.8348342787903635,-1.3994524864980138,-1.1898493004220687,1.0
2.4159999999999555,-6.248944752964839e-06,-0.0001398624169325694,-0.0005560579116967938,0.9977359725685019,-0.000691036291264474,0.06724917448686635,-6.516463699042801e-06,-0.001392414679628023,0.1345998913146794,-0.00010691368425118242,-0.0012600491078408967,0.0025613063103900467,-0.0018117397328617272,0.0010062257048752308,0.08843606511591331,0.00028084813325060184,0.2,0.0,0.0,0.05019427269091167,-0.005601392213171698,-0.0030624711681036133,0.0,0.0,0.0,-0.8716055303389333,-0.6043802246028778,0.6507501557272657,0.8252383264807377,-1.4201068350277781,-1.2151788058319237,1.0
2.4499999999999518,-5.024613543391601e-05,-5.6367010556838435e-05,-0.0006184392893849437,0.9976322155970783,-0.0006724689214486313,0.06877143427788912,-3.9719924061614055e-06,-0.0013551181332380167,0.1376514814863425,-0.00010137741028526778,-0.0013388648750493853,0.002337006500481426,-0.0018523078591772095,0.001160988380822412,0.09144659751597434,0.00027695265606080086,0.2,0.0,0.0,0.05074542421556345,-0.005046932845900421,-0.0005870658972958394,0.0,0.0,0.0,-0.8716055303389333,-0.6043802246028778,0.6507501557272657,0.8252383264807377,-1.4201068350277781,-1.2151788058319237,1.0
2.483999999999948,-9.647410208944731e-05,1.9754233694546503e-05,-0.0006826702366039879,0.9975225221599032,-0.0006512971152064107,0.0703448192385511,-1.4523373723655196e-06,-0.0013125619241630205,0.14080589677740837,-9.547311093118439e-05,-0.0013935332771390712,0.0021269021436701474,-0.0019165143938257034,0.0013108584025600374,0.09449034929666716,0.00030441471149880576,0.2,0.0,0.0,0.05115729099612569,-0.004507204786307394,0.0019009589707580186,0.0,0.0,0.0,-0.8533644919898563,-0.5987119044572888,0.6392234351427193,0.8128556443918822,-1.4375675581583143,-1.238869618598009,1.0
2.5179999999999443,-0.00014500718628751078,8.875691391729659e-05,-0.0007485103261277112,0.9974065673150706,-0.000627616888364701,0.07197044930287251,9.755500930351923e-07,-0.001264942480140438,0.14406542453318247,-8.931899788512051e-05,-0.0014542387148098533,0.0019239516679607758,-0.0019672243529870936,0.0014547867333420596,0.09760175735396268,0.00031479781959748993,0.2,0.0,0.0,0.05142771844246117,-0.003984245822140591,0.004394904717544739,0.0,0.0,0.0,-0.8325934832574684,-0.5918697100465756,0.6267269357610217,0.7977388896079297,-1.4517008673766643,-1.2606806870591236,1.0
2.5519999999999405,-0.0001956014272552476,0.0001509797875684701,-0.0008160051769072723,0.9972840499551281,-0.0006015307540499715,0.07364890939001537,3.392726026844114e-06,-0.0012124476260834468,0.14743128317539567,-8.273467727194729e-05,-0.0015282411469121062,0.0017262569176682832,-0.002004816990485856,0.001591818537204379,0.10077269882914208,0.00030817512606619334,0.2,0.0,0.0,0.051554969533688946,-0.0034799954224114986,0.006888000230546963,0.0,0.0,0.0,-0.8094217336248585,-0.583806744763674,0.6132693477580055,0.779961704981204,-1.4623613573456573,-1.2803547600535423,1.0
2.585999999999937,-0.0002481557916870498,0.00020674711962645405,-0.0008850560265426032,0.9971546650762081,-0.0005731695665202459,0.07538066967612198,5.7080636049134295e-06,-0.0011553470405758256,0.15090446432369234,-7.589062518685729e-05,-0.0015779702934543404,0.0015418290137718164,-0.002052077714752041,0.0017210724423406324,0.10392129400743891,0.0003226321842602785,0.2,0.0,0.0,0.051537742396657246,-0.002996286545570562,0.00937341954763959,0.0,0.0,0.0,-0.8094217336248585,-0.583806744763674,0.6132693477580055,0.779961704981204,-1.4623613573456573,-1.2803547600535423,1.0
2.619999999999933,-0.00030283375732541063,0.00025628981681839817,-0.0009554063696428297,0.9970181143104195,-0.0005426800259813553,0.07716595864820434,7.822246815674985e-06,-0.0010939445957027776,0.15448547844605165,-6.897645763281447e-05,-0.0016287216392455717,0.0013663190732818218,-0.00209414637059254,0.0018417123799091188,0.10707360773238817,0.00032698704286856747,0.2,0.0,0.0,0.0513751813899121,-0.0025348375998888676,0.011844301021731207,0.0,0.0,0.0,-0.7839951014668927,-0.5744926441083408,0.5988703376950528,0.7596199180383504,-1.4693944598745043,-1.2976201787091313,1.0
2.6539999999999293,-0.00035931660011413264,0.00029996258508263216,-0.0010270963663230024,0.9968741446004427,-0.0005102090550322386,0.07900429999493769,9.806392241086173e-06,-0.0010285184788654605,0.15817342580188484,-6.183788517826035e-05,-0.0016937518147768253,0.0011958731162699156,-0.0021265685948407918,0.0019530326858299585,0.11022717774734936,0.0003166781676609948,0.2,0.0,0.0,0.05106688057810651,-0.002097245174213147,0.014293766138933833,0.0,0.0,0.0,-0.7564771573109111,-0.5639145047553368,0.5835606685723889,0.7368334332596416,-1.472640369080404,-1.3121939078654858,1.0
2.6879999999999256,-0.0004173763641030156,0.0003381127794001664,-0.0011000690166344394,0.9967225136905852,-0.0004759241640250536,0.08089501878136343,1.1613538542775621e-05,-0.0009594065684197883,0.1619670109063146,-5.4562958116788006e-05,-0.0017375193844252348,0.0010372236699390093,-0.0021630761215239995,0.0020544296792088853,0.11329742334873943,0.00031895425663395767,0.2,0.0,0.0,0.050612896476839024,-0.0016849748899854771,0.016714939972673096,0.0,0.0,0.0,-0.7564771573109111,-0.5639145047553368,0.5835606685723889,0.7368334332596416,-1.472640369080404,-1.3121939078654858,1.0
2.721999999999922,-0.00047726290795063313,0.00037094317719567793,-0.001174114956759042,0.9965629862565185,-0.0004400086533892691,0.08283731431845766,1.3129389932742566e-05,-0.0008869906791356223,0.16586468862956075,-4.7379987048899566e-05,-0.0017743602589395625,0.0008893086939798542,-0.0021978995172957953,0.002145346887992323,0.11629456523651491,0.0003166672124558197,0.2,0.0,0.0,0.05001375476433415,-0.0012993526207245038,0.019100972376782297,0.0,0.0,0.0,-0.7270497650664339,-0.5520775032987355,0.5673820303356187,0.7117476015486721,-1.4719377761777621,-1.3237845742836862,1.0
2.755999999999918,-0.0005385977245351946,0.0003988083163384983,-0.001249264832969821,0.9963953986839836,-0.00040263989877557224,0.08482951818053981,1.4413695639783426e-05,-0.0008116125632872023,0.16986317493339148,-4.0166091370206494e-05,-0.0018263266338643866,0.0007459394401392722,-0.0022260308087568748,0.0022253820421287906,0.11922678872428955,0.0003021714009039134,0.2,0.0,0.0,0.04927044947816662,-0.0009415567691641416,0.02144505789955966,0.0,0.0,0.0,-0.6959134057326165,-0.5390051163719634,0.5503865403979834,0.6845342635386021,-1.46713102495168,-1.332098858304945,1.0
2.7899999999999143,-0.0006010153141801273,0.0004220686917472488,-0.0013254786010521726,0.9962196170827633,-0.00036400783680323165,0.08686968285359918,1.5449353275602437e-05,-0.0007336521797505014,0.1739586268800949,-3.295801801170202e-05,-0.0018622846590048957,0.0006124837112708266,-0.0022560300488083146,0.002294253814837819,0.12201254837625033,0.00029382020452447134,0.2,0.0,0.0,0.04838444941178975,-0.0006126089561336186,0.023740458054583125,0.0,0.0,0.0,-0.6959134057326165,-0.5390051163719634,0.5503865403979834,0.6845342635386021,-1.46713102495168,-1.332098858304945,1.0
2.8239999999999106,-0.0006648288348278366,0.0004409018804232485,-0.0014026228059287544,0.996035514523132,-0.0003243148914253197,0.08895587877310455,1.6130576229540157e-05,-0.0006535315098385951,0.17814723845622035,-2.5977303260786453e-05,-0.0018811672518251467,0.0004915556452013934,-0.0022851624843089747,0.0023517210804591872,0.12464015754509361,0.0002847680850237242,0.2,0.0,0.0,0.047357698872681535,-0.00031336548541820473,0.025980523338570347,0.0,0.0,0.0,-0.6632876911928605,-0.5247396066192025,0.532636738906766,0.6553927540936135,-1.4580756748353283,-1.3368465757969137,1.0
2.857999999999907,-0.0007296265706475552,0.0004556473491064045,-0.001480721041317896,0.9958430628527404,-0.00028375292996390326,0.0910851984681124,1.6503699969042165e-05,-0.0005716253131022547,0.18242324057774567,-1.913876365784857e-05,-0.0019159666566388853,0.00037450125353725365,-0.002310578738888983,0.0023977050834890733,0.12713310926266766,0.000266097194096156,0.2,0.0,0.0,0.04619261319220012,-4.45098743431635e-05,0.028158713769670163,0.0,0.0,0.0,-0.6294109998964758,-0.5093417034897744,0.514204927721688,0.6245498798052959,-1.44464603445404,-1.3377479363943758,1.0
2.891999999999903,-0.0007949093209122084,0.0004666685709102995,-0.0015597286863283603,0.9956422856357311,-0.0002425185710724463,0.09325438308335583,1.6569357587215423e-05,-0.0004883265236779683,0.18678015728751832,-1.2454145309624959e-05,-0.001941937493032232,0.00026513541513023553,-0.0023378463755688106,0.0024322560959712334,0.12941838926028085,0.0002493382031983309,0.2,0.0,0.0,0.04489207824885371,0.0001934553947928847,0.030268621684384444,0.0,0.0,0.0,-0.6294109998964758,-0.5093417034897744,0.514204927721688,0.6245498798052959,-1.44464603445404,-1.3377479363943758,1.0
2.9259999999998993,-0.0008610161786847889,0.0004741249350497463,-0.0016395951054778129,0.9954332133764746,-0.0002008152026367784,0.09546034316030926,1.6246756192289945e-05,-0.0004040585237954834,0.1912118509870276,-6.105937745642424e-06,-0.0019390723143944192,0.00016998463071133703,-0.0023625352702174823,0.002455449500545853,0.1314580672877753,0.00023401342979157297,0.2,0.0,0.0,0.043459444465448124,0.0004002157563906408,0.032303993126781505,0.0,0.0,0.0,-0.5945400654607849,-0.49289051498525294,0.49517284011143464,0.5922597496444143,-1.4267417389663084,-1.3345401960865728,1.0
2.9599999999998956,-0.0009275388165719701,0.00047832799582283306,-0.0017203428839731615,0.9952159988131879,-0.00015883266681132716,0.09769897766106923,1.5570318066351128e-05,-0.00031919674287488525,0.19571014915509483,-4.477378038006118e-08,-0.0019528696037878707,7.80097546823261e-05,-0.0023864988521680197,0.002467512040779422,0.13329483387610455,0.00021176637786050027,0.2,0.0,0.0,0.04189851881757935,0.0005756505888896318,0.034258748675683834,0.0,0.0,0.0,-0.5589502074516115,-0.4754819248791343,0.47563040243596133,0.5588036412762278,-1.4042957921549395,-1.3269843361661247,1.0
2.993999999999892,-0.0009938623543905268,0.0004796339886545636,-0.0018019014895136302,0.9949908690726647,-0.00011675872910173444,0.09996577723265744,1.4549685658702857e-05,-0.00023411795437224483,0.20026605413896703,5.724261434299178e-06,-0.0019666747556791354,-8.66688247423412e-06,-0.0024143234363271605,0.0024687961959494378,0.1348690815840666,0.00018937394643484505,0.2,0.0,0.0,0.04021355774648555,0.0007198389636474251,0.0361270057125807,0.0,0.0,0.0,-0.5589502074516115,-0.4754819248791343,0.47563040243596133,0.5588036412762278,-1.4042957921549395,-1.3269843361661247,1.0
3.027999999999888,-0.0010603050824289557,0.0004781934412281472,-0.0018842888777305627,0.9947580580063535,-7.478101078511792e-05,0.10225654143687508,1.3137625029800025e-05,-0.00014921164386220436,0.20487118361686876,1.1075440140699782e-05,-0.0019389630836606105,-7.971934953748679e-05,-0.002435030282955336,0.0024596592100471267,0.136114373590818,0.00016898661631903182,0.2,0.0,0.0,0.03840925431554289,0.0008330633118036538,0.03790309780232861,0.0,0.0,0.0,-0.5229353271745082,-0.4572262240696984,0.4556737433081512,0.5244896190385356,-1.3772840167007805,-1.31487267015567,1.0
3.0619999999998844,-0.0011265062952367257,0.00047427945602979485,-0.0019675363506395523,0.9945179365753705,-3.307212045499714e-05,0.10456611596029218,1.1361363774093519e-05,-6.482316915164819e-05,0.20951523121522764,1.6032310649686667e-05,-0.0019286246131121237,-0.00014826038029667755,-0.0024578646992163304,0.0024405779380463526,0.13709521592192955,0.00014440461413623508,0.2,0.0,0.0,0.03649072651160584,0.0009158125265249855,0.03958159540508804,0.0,0.0,0.0,-0.4867984453639138,-0.4382545601311151,0.43541179430911103,0.4896429204610781,-1.3457243628249802,-1.2980430569724821,1.0
3.0959999999998806,-0.0011917668874279544,0.00046822948877481014,-0.0020515273919852707,0.9942709704085791,8.202554655446543e-06,0.10688890143612778,9.234621096847982e-06,1.8712879130425873e-05,0.21418698699312616,2.058738703393706e-05,-0.0019283860312427144,-0.00021385854606667103,-0.0024886026771743885,0.0024121404662563782,0.13776919551314917,0.00011953085177624371,0.2,0.0,0.0,0.03446350439078006,0.0009687838456733767,0.04115732710105603,0.0,0.0,0.0,-0.4867984453639138,-0.4382545601311151,0.43541179430911103,0.4896429204610781,-1.3457243628249802,-1.2980430569724821,1.0
3.129999999999877,-0.0012563337536741059,0.0004601932539651192,-0.002136312257496753,0.9940176310970237,4.8884429694951145e-05,0.10921971723587144,6.7445888828751755e-06,0.0001010685366952939,0.21887607356161917,2.467547249154855e-05,-0.0018738924916208012,-0.00026294953298017633,-0.002504586652818242,0.002374917948730965,0.13804151172061388,9.601784411250247e-05,0.2,0.0,0.0,0.032333510946293005,0.0009928819177837608,0.04262539592449624,0.0,0.0,0.0,-0.4508525084503045,-0.4187138410066709,0.4149626195515174,0.45460533665464165,-1.3096862610435172,-1.2763840998528957,1.0
3.163999999999873,-0.0013199420070828067,0.00045039793911480513,-0.0022219455282840718,0.9937585288785948,8.883018191416985e-05,0.11155258121127867,3.917954256235637e-06,0.00018195408390291322,0.22357049058927414,2.8310052433818543e-05,-0.0018374665204834238,-0.00031010632216068196,-0.002525239016130059,0.002329551387925388,0.13799933215538482,7.094252616258616e-05,0.2,0.0,0.0,0.030107046157990168,0.0009892174857894353,0.04398119919676233,0.0,0.0,0.0,-0.41541921675970195,-0.3987618834408432,0.39444989510428313,0.41973270950684416,-1.269296775310441,-1.249839120124333,1.0
3.1979999999998694,-0.001381850918079956,0.0004391522668745275,-0.0023082483990719133,0.9934943833332716,0.0001279066518657888,0.11388105164836015,7.707863492551091e-07,0.0002610969155262263,0.22825730039110675,3.148036283458659e-05,-0.0018218932079095574,-0.00035633386206004414,-0.0025598189300254375,0.002276769771229729,0.1376196652022649,4.685451981401389e-05,0.2,0.0,0.0,0.02779076949109008,0.0009591043826554962,0.04522044890255038,0.0,0.0,0.0,-0.41541921675970195,-0.3987618834408432,0.39444989510428313,0.41973270950684416,-1.269296775310441,-1.249839120124333,1.0
3.2319999999998656,-0.0014421873435060861,0.00042661109494567076,-0.0023952460385409193,0.9932259183756339,0.00016599250011497385,0.11619917171039294,-2.6808880169828426e-06,0.0003382472757660407,0.2329245277757548,3.41737725802795e-05,-0.00174024665405587,-0.0003859245789360541,-0.0025688729577659523,0.0022172656298363918,0.13678208939172473,2.2710973987083326e-05,0.2,0.0,0.0,0.02539167545403393,0.0009040530888573968,0.0463391844370323,0.0,0.0,0.0,-0.3808203475632543,-0.37855967409683633,0.3739968738880254,0.3853845509234528,-1.2247488927776111,-1.218416898286908,1.0
3.265999999999862,-0.0015008282262153154,0.0004129533950407432,-0.0024830369320495,0.9929539814650468,0.00020298105701736392,0.11850041962113034,-6.404509712810515e-06,0.00041318809778803195,0.2375590462220723,3.641049170991348e-05,-0.001677332194436936,-0.00041403908304214884,-0.002584691506934716,0.002151740942252397,0.13559512299927226,-6.371659385561957e-07,0.2,0.0,0.0,0.022917072770903563,0.0008257638554670815,0.04733379013572532,0.0,0.0,0.0,-0.3473870509204314,-0.35828337192979903,0.35373934572984017,0.3519323810293749,-1.1762947949042188,-1.1821883450432047,1.0
3.299999999999858,-0.0015570397314684057,0.0003984504968056584,-0.0025713708850032824,0.992679535815239,0.00023877630474164032,0.1207778210257748,-1.0381882827938426e-05,0.0004857195755322834,0.24214680221377288,3.817987968300563e-05,-0.001645875474399011,-0.0004426248917160035,-0.0026222629289109154,0.002080956502147872,0.13405549565810812,-2.0949736937805557e-05,0.2,0.0,0.0,0.020374563235993685,0.0007261183301949619,0.04820101568335606,0.0,0.0,0.0,-0.3473870509204314,-0.35828337192979903,0.35373934572984017,0.3519323810293749,-1.1762947949042188,-1.1821883450432047,1.0
3.3339999999998544,-0.0016107899275815617,0.00038326269045087084,-0.002660173026440143,0.9924035460804058,0.00027329641643500304,0.1230249032658718,-1.4578324484403646e-05,0.0005556740950314895,0.24667473672645332,3.950520101309618e-05,-0.0015385752190892304,-0.00045546284579472344,-0.0026206563299014667,0.002005621501211017,0.13202275802708094,-4.307195476619411e-05,0.2,0.0,0.0,0.017772013095664292,0.000607167385266221,0.04893798525009609,0.0,0.0,0.0,-0.3154437651570534,-0.33810952454025744,0.3338129188098035,0.31974157849658214,-1.1242513643525913,-1.1412951314250543,1.0
3.3679999999998507,-0.0016621365338720681,0.000367523310180997,-0.0027496119015256483,0.9921270679198443,0.00030647312688050185,0.12523492650149456,-1.8951513946447312e-05,0.0006229130980684816,0.25112923642381674,4.042571573304084e-05,-0.0014506508508594065,-0.00046715831604462506,-0.0026273664009060604,0.0019263954105285057,0.12962307864727754,-6.252302895124587e-05,0.2,0.0,0.0,0.01511752710906889,0.0004711182736508655,0.04954221045364199,0.0,0.0,0.0,-0.2853028668929018,-0.31821291726106454,0.31435175896074957,0.2891651403450325,-1.069002147479662,-1.0959554456341427,1.0
3.401999999999847,-0.0017104038542069433,0.00035145970988096313,-0.002839365204895753,0.9918512692371796,0.0003382469692144735,0.1274007250772028,-2.3481613580748528e-05,0.0006873096445617236,0.25549581297184115,4.0934079383338e-05,-0.0029856823203747167,0.007271245203042199,-0.0021418442698608615,0.0018439652892070619,0.1268546958179936,-7.778109422737993e-05,0.2,0.0,0.0,0.012419424240085656,0.0003203210033465904,0.05001161213633745,-8.951086449428535,43.39339495510768,2.8431050721320834,-0.25725939767164435,-0.2987640500917273,0.29548740364376147,0.2605370715170266,-1.0109931465932958,-1.0464635778596991,1.0
3.435999999999843,-0.0021188074691052667,0.0016522732187454943,-0.00281962614339244,0.9915769934015463,0.00037417243341432264,0.12951805271426936,-1.3146976231281512e-05,0.0007642774779853757,0.25976583738505415,7.331127386635836e-05,-0.021559049655522848,0.07084246326685685,0.003449637411459377,0.0024217366167518023,0.12408963021566782,0.002841221710072039,0.2,0.0,0.0,0.009686462908615915,0.00015734504230346602,0.05034585684950717,-8.951086449428535,43.39339495510768,2.8431050721320834,-0.25725939767164435,-0.2987640500917273,0.29548740364376147,0.2605370715170266,-1.0109931465932958,-1.0464635778596991,1.0
3.4699999999998394,-0.003119388419090323,0.005029789895624282,-0.0026016869870664023,0.9913048430841163,0.0004380063545219468,0.13158461102072724,7.981812115262393e-05,0.0009213053157306477,0.26393454229025193,0.000283329386914183,-0.037650613806791376,0.13120962623964072,0.010255249829787668,0.003934230004774973,0.12002237100722077,0.010623439194509147,0.2,0.0,0.0,0.006927182170757846,-1.524894283965422e-05,0.05054481183463207,-8.951086449428535,43.39339495510768,2.8431050721320834,0.0,0.0,0.0,0.0,0.0,0.0,1.0
3.5039999999998357,-0.004640692485239499,0.010442752736931404,-0.0021364006610195647,0.9910391706102613,0.0005563073015507114,0.13356997529678824,0.00033843393278469895,0.0012371996394672658,0.267940284585136,0.0008497345955750162,-0.052662104770172115,0.19049328210390706,0.017506399659578398,0.006289824500654482,0.11509741431677406,0.023707935708557275,0.2,0.0,0.0,0.004149929917557161,-0.00019491658774254542,0.050608282833825714,-8.951086449428535,43.39339495510768,2.8431050721320834,0.0,0.0,0.0,0.0,0.0,0.0,1.0
3.537999999999832,-0.006666405509278022,0.01785159479110403,-0.0014280135037132644,0.9907803737563374,0.0007554524378127455,0.13547306883586768,0.0008531653173290418,0.00179398684907817,0.2717803125481965,0.0019675053051838075,-0.06728849281186895,0.24850522198066313,0.024539192146754246,0.009402766356063484,0.11034926270403717,0.04248252384989216,0.2,0.0,0.0,0.0013629851230341807,-0.00037910534673328013,0.05053581917033393,-8.951086449428535,43.39339495510768,2.8431050721320834,0.0,0.0,0.0,0.0,0.0,0.0,1.0
3.571999999999828,-0.009044898313646237,0.026692730752953264,-0.0005266329123912743,0.9905280137005268,0.0010599484506853025,0.13729599577987361,0.0017146797320949487,0.002671365992577827,0.2754577150918476,0.0038324180758028507,-0.0686594945645028,0.2591861042740826,0.027403802442385057,0.012937375169976392,0.10556719839165304,0.06529096584724775,0.2,0.0,0.0,-0.0014252654096197448,-0.000565207982154671,0.05032680484189827,0.0,0.0,0.0,0.0,0.0,0.0,0.0,0.0,0.0,1.0
3.6059999999998245,-0.011315449858278984,0.03540967194112978,0.0004211849751066499,0.990282471875289,0.0014730062676185278,0.13903182971011696,0.002933679696285029,0.003883257959188087,0.27895679999348144,0.0064700889451839595,-0.06337936247726673,0.2456926212317579,0.02733937191945171,0.01620727801713139,0.09780268914160187,0.0706193667484814,0.2,0.0,0.0,-0.004206092340580436,-0.0007505047007712371,0.04997987224457075,0.0,0.0,0.0,-9.342515801847233,11.99373851003409,-6.750328841559644,4.0991012345517595,-8.467319865333092,6.464870178920995,1.0
3.6399999999998207,-0.013306067011154284,0.043177791376286606,0.0012921386672785598,0.9900660729132376,0.0018635875250511676,0.14054398371607227,0.0036175888257610625,0.004900606150427059,0.2820051756618828,0.008003355649725463,-0.053279395781873566,0.2094223638569843,0.023699803510529104,0.018913268807793936,0.07977379638412316,0.007808781877785338,0.2,0.0,0.0,-0.0069703556889631315,-0.0009321354452624557,0.04949442381403692,0.0,0.0,0.0,-9.342515801847233,11.99373851003409,-6.750328841559644,4.0991012345517595,-8.467319865333092,6.464870178920995,1.0
3.673999999999817,-0.014991387828719567,0.04986967767307724,0.0020516315944288095,0.9898910604458874,0.002171249385419137,0.14177210465540735,0.0034123990093814028,0.005486724551012724,0.2844848660338486,0.00768022022109541,-0.04607466350758101,0.18535317100176582,0.021048257525574703,0.021080232542649523,0.06524404003998599,-0.02064774871319333,0.2,0.0,0.0,-0.009708839320203548,-0.0011072085074121678,0.04887145081816904,0.0,0.0,0.0,-4.862695521666712,6.415808761211945,-4.325169566256215,2.7720534569317765,-5.133742309535813,3.3914710776908237,1.0
3.7079999999998132,-0.01645772634407513,0.05583585592016942,0.002728663573291462,0.9897482512591972,0.002469233714527289,0.14277229805390731,0.0028936002886108844,0.0059569485112421945,0.28650661751483664,0.0067063681212961995,-0.03983439945603458,0.16462994575327455,0.018685855740613894,0.022871833642184192,0.0516965099584341,-0.03195908971691673,0.2,0.0,0.0,-0.012412539996641438,-0.0012729081806069865,0.04811320245195194,0.0,0.0,0.0,-3.951948437869963,5.522025251946759,-4.878938502643594,3.3088587874429916,-4.871869628011756,3.322110526842709,1.0
3.7419999999998095,-0.017714332361250668,0.06111462072769689,0.003327607128221281,0.9896376359859176,0.0027906587041601513,0.14354127877951864,0.0023372955614288757,0.006460727947219728,0.28806204773312855,0.0056605663617282035,-0.03376640149128134,0.14477535480037165,0.016398375636244092,0.02430536983677777,0.0377350065069299,-0.027485674359268956,0.2,0.0,0.0,-0.015072538692111693,-0.0014264791921923007,0.04722211860801002,0.0,0.0,0.0,-3.951948437869963,5.522025251946759,-4.878938502643594,3.3088587874429916,-4.871869628011756,3.322110526842709,1.0
3.7759999999998057,-0.01876903700195998,0.06573607166406037,0.0038500176491396533,0.989560279130548,0.003144341689946074,0.14407343233378184,0.0018474788149688151,0.007047996723233178,0.28913900248614,0.004760022581101423,-0.02798321152117111,0.1261787981383978,0.01422019573913964,0.025390275785038923,0.023581723801008134,-0.023083565543246337,0.2,0.0,0.0,-0.017680062211258167,-0.0015652556584394856,0.046201093950899635,0.0,0.0,0.0,-3.6307671515,5.157822646752181,-4.670189140955018,3.143130824072067,-4.557025247707249,3.1452441067323784,1.0
3.809999999999802,-0.019631408557283424,0.06973708428769557,0.004298657543844424,0.9895171242021455,0.00352425438397673,0.1443655568100708,0.001423568990514307,0.007706941103449428,0.2897308956706718,0.004001649497452048,-0.022533165227104152,0.10849779787486169,0.012114091660076385,0.02613933121784078,0.009322657966834662,-0.019642611009285174,0.2,0.0,0.0,-0.020226535615633354,-0.0016866887689675621,0.04505352033649291,0.0,0.0,0.0,-3.3742437332651347,4.766354872955071,-4.327489372985705,2.9353756610096675,-4.202900078418849,2.943363661526738,1.0
3.8439999999997982,-0.020316180225884564,0.07315823620105685,0.0046789005260710805,0.9895082466596499,0.003922169236439629,0.1444193452842461,0.0010483743107860038,0.008415980520334779,0.28984118966533945,0.0033472463379102175,-0.017478903875923907,0.09180601191435052,0.010123309508753803,0.026569797015360993,-0.004855352300460349,-0.01723011820276691,0.2,0.0,0.0,-0.022703634257456855,-0.0017883735678759288,0.043783292338824234,0.0,0.0,0.0,-3.3742437332651347,4.766354872955071,-4.327489372985705,2.9353756610096675,-4.202900078418849,2.943363661526738,1.0
3.8779999999997945,-0.020835879995384624,0.07603183348852953,0.00499429952775046,0.9895336634813183,0.004331000266760972,0.14423545480612115,0.0007105285364644604,0.009157425881986404,0.2894712580252202,0.0027708355864033856,-0.012888220836857076,0.0764733552932397,0.008342675314655244,0.02669899348059385,-0.01879029228586228,-0.0147709360294878,0.2,0.0,0.0,-0.025103296842946304,-0.0018680633469278574,0.042394747991856045,0.0,0.0,0.0,-3.0910692242344817,4.34117520507837,-4.0077278777424485,2.7576195870037896,-3.85019879850567,2.736614244233196,1.0
3.9119999999997908,-0.021203980431037325,0.07839402559067667,0.005249697020570355,0.9895928431096555,0.004745497150753799,0.14381695969600952,0.00040893365809794734,0.009920349552771641,0.28862731266330105,0.0022681441089393464,-0.008624666840701551,0.061984637703537585,0.006651114302066637,0.026546953483408863,-0.03262694288692841,-0.012757256350180976,0.2,0.0,0.0,-0.02741778103306347,-0.0019236947537765575,0.04089268894712618,0.0,0.0,0.0,-2.8244638381363627,3.9309050930914684,-3.6787509580469697,2.5723076586549065,-3.5036157353986477,2.530569963309406,1.0
3.945999999999787,-0.021433960449430283,0.0802825397044429,0.0054505431395829385,0.9896848862240735,0.005160528330651727,0.14316834518334257,0.00014094131751507576,0.010693502302966834,0.2873184697529698,0.0018317115177921028,-0.004691386382705429,0.04833055518102505,0.005057821070340523,0.02613591833903695,-0.04624035046530156,-0.011001906965400803,0.2,0.0,0.0,-0.029639697033865896,-0.0019534050721198887,0.03928235568214987,0.0,0.0,0.0,-2.8244638381363627,3.9309050930914684,-3.6787509580469697,2.5723076586549065,-3.5036157353986477,2.530569963309406,1.0
3.9799999999997833,-0.021536830523166395,0.0817272149840502,0.005600517930446901,0.9898088333644314,0.005570936256702711,0.14229345837503118,-9.882631443201275e-05,0.011464689791372148,0.2855526289730949,0.0014484302879101455,-0.0011958919494387296,0.03599322406060409,0.0036855886886525977,0.025486487133348498,-0.0593688366720725,-0.00932900524782309,0.2,0.0,0.0,-0.031762021081802275,-0.0019555423516837093,0.037569386990999216,0.0,0.0,0.0,-2.5747154646920003,3.535628200770267,-3.346926834462023,2.386012322848451,-3.167292761477067,2.327264995871735,1.0
4.01399999999978,-0.021524188860070945,0.08275987698906125,0.005704090382353513,0.9899632419544422,0.00597228910939225,0.14119848831777637,-0.0003134304070815067,0.012223884519373117,0.2833424413417399,0.0011102574385809013,0.0020215561692229584,0.02440168539104713,0.0023978848453096793,0.024620227517055154,-0.07220803685001356,-0.007993040759570864,0.2,0.0,0.0,-0.03377814810132334,-0.0019286848585570921,0.03575982339347987,0.0,0.0,0.0,-2.337526793370342,3.1529677979758013,-3.0211770239329283,2.2057345125888874,-2.8438754437486136,2.1283444604858177,1.0
4.047999999999776,-0.021407983837670345,0.08341454530159473,0.005766428571737321,0.9901463324457805,0.006360689512732485,0.13989112601421452,-0.0005048124080777455,0.012962479729164273,0.280703614497388,0.000811701186676098,0.004976945291673497,0.013486868089773325,0.0011871160426309832,0.023560079192126163,-0.08468189580372246,-0.00688472752677486,0.2,0.0,0.0,-0.03568192374335301,-0.0018716528709235962,0.03386008015175131,0.0,0.0,0.0,-2.337526793370342,3.1529677979758013,-3.0211770239329283,2.2057345125888874,-2.8438754437486136,2.1283444604858177,1.0
4.0819999999997725,-0.021197831155871087,0.083718596579844,0.005791155436165087,0.9903563425453112,0.006732455164861907,0.13837822003506453,-0.0006760529969279582,0.013671973943521196,0.27765019910587146,0.0005450581505097226,0.007520467110270346,0.0038221587005878533,0.00019510049840600405,0.022326975994901254,-0.09646983712974674,-0.005723437080858653,0.2,0.0,0.0,-0.03746765027888805,-0.0017835118656820358,0.03187690300260113,0.0,0.0,0.0,-2.113894706319279,2.7852349264957446,-2.7040735191180016,2.032732058466498,-2.5355483623469826,1.9349352541602067,1.0
4.115999999999769,-0.02090343742571195,0.08369929103943581,0.005782108671955337,0.9905911831302118,0.007084524468797856,0.13666832443593782,-0.0008285611695197006,0.014345654421713266,0.2741996928635225,0.00030637489212115987,0.00983343069478977,-0.0051953475116799305,-0.0007225087608225164,0.020941237999492424,-0.10782135438961957,-0.0047630095188675,0.2,0.0,0.0,-0.03913012917340455,-0.001663583959467585,0.029817353869993755,0.0,0.0,0.0,-1.9055930860483026,2.4349468193632027,-2.3984455298575535,1.869090818424447,-2.2448280471238413,1.7487919517791597,1.0
4.149999999999765,-0.020535156247500446,0.08338665678187834,0.005743886908453801,0.9908485028683396,0.007414299466884974,0.13477145567472304,-0.0009629445994254576,0.014978009054407687,0.27037254820577955,9.360807962362939e-05,0.011950775041249882,-0.013677539951804117,-0.001586114413153984,0.019423982988334584,-0.11871407878102139,-0.003959351753560497,0.2,0.0,0.0,-0.040664691871813125,-0.0015114542025086305,0.02768878098672931,0.0,0.0,0.0,-1.9055930860483026,2.4349468193632027,-2.3984455298575535,1.869090818424447,-2.2448280471238413,1.7487919517791597,1.0
4.183999999999761,-0.02010136916195924,0.08280580042203049,0.005679886451196975,0.9911260391284439,0.00771939550967926,0.1326967124420067,-0.001080741231924492,0.015563713381369155,0.2661873847360521,-9.70424966821376e-05,0.013682602656565526,-0.020994082988671257,-0.0022451509029439883,0.017794465070216068,-0.1287791845316654,-0.003053682841504972,0.2,0.0,0.0,-0.042067198687989346,-0.0013269672885324877,0.025498772371416355,0.0,0.0,0.0,-1.713507562839529,2.104095072855371,-2.1071198411766874,1.7165316094491985,-1.9736821413445094,1.5713915749013898,1.0
4.2179999999997575,-0.019609926324843818,0.08197974759960737,0.0055931711637944356,0.9914213843384153,0.007997871905105796,0.13045410625615364,-0.0011827435887062903,0.016098591606213037,0.26166465420726076,-0.00026759278653070177,0.015228679098671549,-0.027749606331278695,-0.0028433260154981602,0.01607028254633409,-0.13831449830204726,-0.0022773591612072572,0.2,0.0,0.0,-0.043334065476095536,-0.0011102300101743965,0.023255126504218262,0.0,0.0,0.0,-1.5395116254599603,1.7954667233702877,-1.832791285504102,1.5768357146503997,-1.7244074214374694,1.4046761886647512,1.0
4.251999999999754,-0.01906958527298695,0.0809345960764244,0.005487589341331616,0.9917319563102047,0.00824817761341769,0.1280550027180868,-0.001269124919496179,0.016579456312798363,0.2568275222843063,-0.0004185508535550758,0.016612977311938948,-0.033983960358907384,-0.003386406070870103,0.014269481586343027,-0.14730654234394067,-0.001600148586150353,0.2,0.0,0.0,-0.04446229211646082,-0.0008616122675735958,0.020965818364790004,0.0,0.0,0.0,-1.3829152066598098,1.5091025906916944,-1.5759535550701143,1.449765937874336,-1.4969649246463563,1.2485025428564356,1.0
4.28599999999975,-0.018487621783908406,0.07969305342810411,0.0053661605598303895,0.9920553154782156,0.008468951294307582,0.12550988059478874,-0.0013408088875256421,0.017003316185879795,0.2516973637219937,-0.0005518265145843207,0.01769707070654158,-0.03937925986129659,-0.003794156615316342,0.012408570938562118,-0.15548035727289092,-0.0008767148839518288,0.2,0.0,0.0,-0.04544945453336837,-0.0005817381891646433,0.018638951806068157,0.0,0.0,0.0,-1.3829152066598098,1.5091025906916944,-1.5759535550701143,1.449765937874336,-1.4969649246463563,1.2485025428564356,1.0
4.319999999999746,-0.017870074591799446,0.07827376936656605,0.00523112575437001,0.9923890536651279,0.008659131237612128,0.12282926979175614,-0.0013986043988684876,0.01736784431537258,0.2462956373676104,-0.0006689162978251726,0.018609092081536736,-0.04419841731168841,-0.004133856917345719,0.010501817766338958,-0.16304276129518044,-0.00022977221527744522,0.2,0.0,0.0,-0.046293712494620214,-0.0002714801613363834,0.016282720509596428,0.0,0.0,0.0,-1.2421629752388066,1.2440101371732208,-1.3362682390995213,1.3344210737519973,-1.2904492485977797,1.1020188783113358,1.0
4.3539999999997425,-0.01722418433452951,0.07669880556656836,0.005085532266311542,0.9927306630774013,0.00881797423510283,0.12002496500223364,-0.0014428071610524992,0.017671514169976917,0.24064631954914156,-0.0007700741439913917,0.019393241384088863,-0.04856418204686475,-0.004428761010919883,0.008563829135042385,-0.17003235364337518,0.0003387115729930895,0.2,0.0,0.0,-0.04699383389521221,6.804507992754267e-05,0.013905369418652608,0.0,0.0,0.0,-1.1158125167848627,0.9991564741112481,-1.1132821403151192,1.2299383985410053,-1.1038879888418984,0.9644387032706787,1.0
4.387999999999739,-0.016556089294784058,0.07498782565705547,0.004931813941630112,0.9930778129982332,0.008944910189987589,0.11710795306514997,-0.0014741917211898827,0.017913036229161104,0.23477173951617675,-0.0008564280292756027,0.01995221327378632,-0.05229904960473258,-0.004633816966777508,0.006607908686424371,-0.17625409288696356,0.0009113514653066259,0.2,0.0,0.0,-0.047549177490155276,0.0004354902472182069,0.011515147195099693,0.0,0.0,0.0,-1.1158125167848627,0.9991564741112481,-1.1132821403151192,1.2299383985410053,-1.1038879888418984,0.9644387032706787,1.0
4.421999999999735,-0.015870286553883197,0.07315599788348054,0.004771554710983061,0.993428334664776,0.009039575988114845,0.11408855694988039,-0.001493694821518262,0.018091514680400194,0.22869286427384036,-0.000929329725523509,0.020355034223575864,-0.05549893112407237,-0.004778348969848772,0.004645335311423393,-0.18183669834909158,0.0014302023316270173,0.2,0.0,0.0,-0.04795968649406391,0.0008292893150251096,0.009120264081583219,0.0,0.0,0.0,-1.0025568534048601,0.773509676261868,-0.906456306861456,1.135503907228467,-0.9362762975690709,0.8350540682781065,1.0
4.455999999999731,-0.015172558507032674,0.07122151637693722,0.004606985877506804,0.9937800203887126,0.009101862124987871,0.11097824885036126,-0.001501820287173872,0.018206686555516476,0.22243293664293787,-0.0009891087653881188,0.02066244927115861,-0.058321707823141826,-0.004890760106258715,0.002687449838551785,-0.18686010438169195,0.0018795954040949233,0.2,0.0,0.0,-0.04822590072760136,0.0012476669779154358,0.006728848993050296,0.0,0.0,0.0,-0.9012070842087216,0.5660391847600751,-0.7152225797869054,1.050391098545107,-0.7866027278745706,0.7132460834821143,1.0
4.4899999999997275,-0.014467922635575116,0.06920095926602615,0.004439898609232332,0.9941308555390613,0.009131808177245704,0.10778777330647298,-0.0014993566022248792,0.018258525895523948,0.21601370693722421,-0.0010366101793746602,0.020808807057462374,-0.06066733772573121,-0.004946501814531748,0.0007445472825590015,-0.19119434173235764,0.002306688405418929,0.2,0.0,0.0,-0.04834893188230457,0.0016886556513566187,0.004348904995766931,0.0,0.0,0.0,-0.9012070842087216,0.5660391847600751,-0.7152225797869054,1.050391098545107,-0.7866027278745706,0.7132460834821143,1.0
4.523999999999724,-0.013759599755457553,0.06710661337932836,0.004271349240328162,0.9944790558934986,0.009129603462768336,0.10452676987555459,-0.001487316096557798,0.01824726467924925,0.2094546748845983,-0.0010730865962811996,0.020816490089450117,-0.06253780712061614,-0.004955229881387496,-0.001174594386497859,-0.1949028960183634,0.002690174486848438,0.2,0.0,0.0,-0.04833044541324746,0.0021501112419037914,0.0019882682970642296,0.0,0.0,0.0,-0.8107114113415234,0.3757506651821726,-0.538951429903611,0.9739129797656629,-0.6538492379008145,0.5984727249113457,1.0
4.55799999999972,-0.013052013509035664,0.06495312389124704,0.00410282764609233,0.9948228473550068,0.009095639365346268,0.10120583728272109,-0.0014663645232982287,0.01817362890077339,0.2027772320879843,-0.001098999836992327,0.02075832885779613,-0.06410421021108306,-0.004943539802340091,-0.003060366401161488,-0.1980953689192245,0.0030105758283145534,0.2,0.0,0.0,-0.04817265701412247,0.0026297274587163614,-0.000345434853962867,0.0,0.0,0.0,-0.7301467916168898,0.2016952169869642,-0.3769495171891871,0.9054020682703481,-0.5369897032012121,0.4902603112683213,1.0
4.591999999999716,-0.012349119088892723,0.06275413015604973,0.0039355121585896114,0.995160643656694,0.00903045478637426,0.09783495439056927,-0.00143732478586569,0.018038607739433176,0.1960014947951073,-0.001115100779699707,0.020593011374537375,-0.06531546255268411,-0.004899061394786457,-0.004903357920670391,-0.2006926718787613,0.0032949450623085924,0.2,0.0,0.0,-0.047878301420646474,0.0031250547182045028,-0.0026448272666268423,0.0,0.0,0.0,-0.7301467916168898,0.2016952169869642,-0.3769495171891871,0.9054020682703481,-0.5369897032012121,0.4902603112683213,1.0
4.625999999999713,-0.011653106805431216,0.06051948701384423,0.0037700463328971625,0.9954911074036308,0.008934728325883011,0.09442278494317738,-0.0014012114791571897,0.0178434336491874,0.18914491035596553,-0.001122523293801514,0.02030699632840022,-0.06611666931884295,-0.004823380571051858,-0.006695440510010864,-0.20270546926519564,0.0035418938155482803,0.2,0.0,0.0,-0.04745060487704773,0.0036335183270229253,-0.00490281716411187,0.0,0.0,0.0,-0.6586082919047096,0.04287271522826752,-0.22856670738579055,0.8443034217932819,-0.43499810898737057,0.3881919451439581,1.0
4.659999999999709,-0.010967172520969747,0.05826066856691371,0.0036073061098507928,0.9958129449971198,0.008809309165933815,0.09097872497190088,-0.0013587680700979663,0.01758974140572625,0.18222636563775452,-0.0011218126901531812,0.019980900543714552,-0.06667986975234699,-0.004736678695240604,-0.008428989616841869,-0.20426209348222438,0.0037339596282343446,0.2,0.0,0.0,-0.04689326601327652,0.004152436210315892,-0.007112636143677921,0.0,0.0,0.0,-0.5953111475808236,-0.10165485536127511,-0.09308840224170717,0.7900556930091189,-0.34685114417714447,0.29189971254241626,1.0
4.693999999999705,-0.010294298454518359,0.055988610272696054,0.0034479387086963054,0.996125030345681,0.008655168378927651,0.08751167832580027,-0.001310776773107859,0.017279400140159076,0.1752637330236819,-0.0011135983843676897,0.019592076668276313,-0.06698660676506854,-0.004632987160452964,-0.010097216996272975,-0.2053217442046256,0.003888138884670054,0.2,0.0,0.0,-0.04621041907131198,0.0046790387258234326,-0.009267870403744747,0.0,0.0,0.0,-0.5953111475808236,-0.10165485536127511,-0.09308840224170717,0.7900556930091189,-0.34685114417714447,0.29189971254241626,1.0
4.727999999999701,-0.009635864884733733,0.053711102271125126,0.003292273435579552,0.9964264710614404,0.00847337915616861,0.08402920123586764,-0.0012581547527605592,0.016914456514427006,0.16827215793283884,-0.001098815141218083,0.01910018895444197,-0.06694826698237823,-0.004514239063790981,-0.01169431688067987,-0.20585387053509854,0.0040116790460231425,0.2,0.0,0.0,-0.04540659932939974,0.005210488043951642,-0.011362489397899316,0.0,0.0,0.0,-0.5395832203994926,-0.2327563831438546,0.030262896261532002,0.7420781343793887,-0.27152781691562317,0.201059520593249,1.0
4.761999999999698,-0.00899399243618538,0.05143684762510611,0.0031407238239544366,0.9967164378245947,0.008265133956804987,0.08053934598348063,-0.0012016153625002243,0.016497233344499342,0.16126775754837494,-0.0010779902551658796,0.018589782531166704,-0.06672991873713943,-0.004391162645370728,-0.013215094756056483,-0.20599624369232192,0.00408996730034702,0.2,0.0,0.0,-0.04448671135042711,0.005743897596897423,-0.013390873890375096,0.0,0.0,0.0,-0.49078857940011655,-0.35129792735511456,0.14224896915969398,0.6998390935685898,-0.20801824884150288,0.1153843423077575,1.0
4.795999999999694,-0.008370800380030088,0.049174357590608356,0.0029935146858565322,0.9969942400133099,0.008031711331208518,0.07704980939918263,-0.0011418690483997324,0.016030222085178264,0.15426591635598694,-0.00105167938664995,0.018052310351366813,-0.06633459029360156,-0.004259950083071306,-0.014655103605709556,-0.20573577955798975,0.0041337649773367045,0.2,0.0,0.0,-0.04345598792559809,0.006276351976779631,-0.015347836835329972,0.0,0.0,0.0,-0.49078857940011655,-0.35129792735511456,0.14224896915969398,0.6998390935685898,-0.20801824884150288,0.1153843423077575,1.0
4.82999999999969,-0.007767051144903928,0.046929668179346865,0.002850739989389641,0.9972593864585044,0.007774459170357499,0.07356703176686077,-0.0010796953405857092,0.01551603775928312,0.14727948276515512,-0.0010206344534647656,0.0174284977910739,-0.06565632153279487,-0.004128902039896458,-0.01601062681355455,-0.20501124635384257,0.004152073187994385,0.2,0.0,0.0,-0.04231995114536626,0.006804926552960361,-0.01722864185767857,0.0,0.0,0.0,-0.4483409279262198,-0.45812243011874926,0.2436272495480572,0.6628377834228809,-0.1553275226335954,0.034622278603999156,1.0
4.863999999999686,-0.0071839534092644425,0.04470911240171082,0.002712505193738064,0.9975114563950391,0.007494800097425293,0.07009772199265367,-0.001015728107110572,0.014957466104182799,0.14032182822427286,-0.000985349138682893,0.016803497139053176,-0.06484787982158853,-0.003997610775381076,-0.017278544041716068,-0.2039625261726323,0.004135438354370136,0.2,0.0,0.0,-0.04108437288130297,0.0073267070849407775,-0.0190290183383227,0.0,0.0,0.0,-0.41170287270321226,-0.5540399825785751,0.33514877643418656,0.6305958633078036,-0.11248778409924527,-0.04145432341638882,1.0
4.897999999999683,-0.006622884842141261,0.04251907697638587,0.0025787299403533634,0.9977501364719391,0.007194209732501785,0.06664836772304515,-0.0009505768800260111,0.01435739840595142,0.13340586814150668,-0.0009463203011663539,0.01617908853129641,-0.06392553930528178,-0.003861429984325107,-0.01845640150381398,-0.20259575251317627,0.004091807255516075,0.2,0.0,0.0,-0.03975523148140843,0.007838808911287664,-0.020745169828516638,0.0,0.0,0.0,-0.41170287270321226,-0.5540399825785751,0.33514877643418656,0.6305958633078036,-0.11248778409924527,-0.04145432341638882,1.0
4.931999999999679,-0.006084152999002346,0.04036410891297074,0.002449331138024145,0.9979752710893368,0.006874204492590821,0.0632243673874148,-0.0008848588699791096,0.013718802606419507,0.1265423250078839,-0.0009041294425953361,0.015483764982048055,-0.06277803965277617,-0.0037389365055461488,-0.01954228991909903,-0.2008282377665461,0.004026157002487429,0.2,0.0,0.0,-0.03833867156042645,0.008338395988423775,-0.022373780738954657,0.0,0.0,0.0,-0.38037820929319144,-0.6398306398918304,0.4175482751182884,0.6026624591669753,-0.0785625819082872,-0.11305116417838555,1.0
4.965999999999675,-0.005568220760694528,0.03824855760939355,0.002324239741954183,0.9981867736730544,0.006536338734809423,0.05983118109641947,-0.0008190901835883808,0.013044733810521708,0.11974203653128868,-0.0008592087249201893,0.014800490926964506,-0.061542373296743294,-0.003618600758601467,-0.02053479601958145,-0.19879656621690847,0.00393601777972861,0.2,0.0,0.0,-0.03684096226447746,0.008822699481096636,-0.023912017552811502,0.0,0.0,0.0,-0.35391054951421663,-0.7162442272078164,0.49154078218730674,0.5786159719230127,-0.05259199069478376,-0.1802952567342056,1.0
4.999999999999671,-0.005075853467544421,0.036176988187880774,0.002203148516469167,0.998384635471393,0.006182190017854103,0.056474171223542056,-0.0007537677702913839,0.012338293090245747,0.11301563866871092,-0.0008120125062851693,0.014138133736229318,-0.06024184106309,-0.0034940257446350407,-0.021433107263784126,-0.19651943929792678,0.00382913365639396,0.2,0.0,0.0,-0.03526845446031081,0.009289035336997577,-0.02535752339808237,0.0,0.0,0.0,-0.35391054951421663,-0.7162442272078164,0.49154078218730674,0.5786159719230127,-0.05259199069478376,-0.1802952567342056,1.0
5.033999999999668,-0.004607043977045236,0.034152686456670606,0.0020858066165615826,0.9985689641231098,0.005813352027993795,0.053157818131674785,-0.0006893473579196775,0.011602616213375763,0.10637199603564518,-0.0007629841227865287,0.013418584046900946,-0.05876864896141386,-0.0033947406786047334,-0.02223682906422706,-0.19390039985987675,0.0037010714930619075,0.2,0.0,0.0,-0.033627542826730826,0.00973482199748133,-0.026708412749895025,0.0,0.0,0.0,-0.33189063597206575,-0.7840175267283976,0.5578321471025522,0.5580780775274354,-0.03310439182274216,-0.24274966471105106,1.0
5.067999999999664,-0.004161674570416928,0.03217838004202866,0.001972059429145416,0.9987399291490712,0.0054314276333731655,0.04988648498118492,-0.0006262055536373548,0.010840864443312465,0.09981973573528738,-0.0007124699461252916,0.012720599404391141,-0.05724202110772343,-0.0032979853585550323,-0.022945910999718128,-0.1910690236472217,0.0035585653420943334,0.2,0.0,0.0,-0.03192462716565156,0.010157597220104092,-0.027963260114616695,0.0,0.0,0.0,-0.31392876333078795,-0.8438294891694036,0.6170761087306819,0.5406842830279206,-0.019082910878293613,-0.30036570182574074,1.0
5.10199999999966,-0.003740019086115468,0.030257105533174903,0.0018615244694982125,0.9988977524503408,0.005038017662714248,0.04666454340789093,-0.0005647266780717323,0.010056192916945227,0.09336750119552689,-0.0006608934530805362,0.012047404578165733,-0.05567066136885868,-0.0032009359278237443,-0.023560816408085807,-0.18803887852066678,0.003409260700168567,0.2,0.0,0.0,-0.030166073862629948,0.010555033251186029,-0.02912108164938202,0.0,0.0,0.0,-0.29965506224266314,-0.896311423811129,0.669875461520328,0.5260932343914883,-0.009934318923816354,-0.3534526517543897,1.0
5.135999999999656,-0.003341858030406372,0.028391081955016287,0.001753872466797794,0.9990427360269633,0.004634718465367059,0.04349569774986721,-0.0005052264443069391,0.009251754117334506,0.08702259940362826,-0.0006086080488407982,0.01134993266317175,-0.05400747816288025,-0.00312147121639173,-0.024082346938379948,-0.18474489886177567,0.0032411304416518384,0.2,0.0,0.0,-0.02835818297693973,0.010924952320444731,-0.030181318293399227,0.0,0.0,0.0,-0.29965506224266314,-0.896311423811129,0.669875461520328,0.5260932343914883,-0.009934318923816354,-0.3534526517543897,1.0
5.169999999999653,-0.002966633760581802,0.026581743433983784,0.0016490053234917003,0.9991752333813971,0.0042231150090358905,0.04038338342027396,-0.00044792899226861504,0.008430685523995507,0.08079179999203537,-0.0005558448948297708,0.010670183340503694,-0.05230198879791035,-0.0030501045044840306,-0.02451148623555524,-0.18126887447701664,0.0030655466616201854,0.2,0.0,0.0,-0.026507156639321558,0.011265341208062302,-0.03114381480026824,0.0,0.0,0.0,-0.2887303088091678,-0.9420583364113317,0.716795993172763,0.5139949262487242,-0.00512326400117466,-0.402314902209704,1.0
5.203999999999649,-0.0026142556926523315,0.024830897680861372,0.0015465405586652437,0.9992956297375288,0.0038047698897640575,0.03733113413528272,-0.0003931128788788442,0.0075960753693378145,0.07468207255406306,-0.0005030013055552683,0.010018957990229525,-0.05057520869814031,-0.0029784662215552203,-0.02484967053383369,-0.17763338718041236,0.0028920845639885282,0.2,0.0,0.0,-0.024619067870355414,0.011574362889397767,-0.03200878983174185,0.0,0.0,0.0,-0.2808458813314819,-0.9816278416777423,0.7583653851728114,0.504110670583793,-0.004178743709583876,-0.4472574374774716,1.0
5.237999999999645,-0.00228432095364307,0.023139788545478213,0.0014461351469991601,0.9994043616197742,0.003381224381810182,0.034342000916761484,-0.0003409839949094994,0.006750976529264017,0.06869942323140465,-0.0004503881875820784,0.00936480227689687,-0.04880512367049999,-0.0029192627854485193,-0.02509859622369978,-0.17379518114327416,0.002704312968563661,0.2,0.0,0.0,-0.022699836046599788,0.011850369144441791,-0.03277681079886395,0.0,0.0,0.0,-0.2808458813314819,-0.9816278416777423,0.7583653851728114,0.504110670583793,-0.004178743709583876,-0.4472574374774716,1.0
5.271999999999641,-0.0019760117913568184,0.021508924698422457,0.0013477538245898126,0.9995019037428466,0.002953994025975712,0.031418677527172985,-0.0002916096073134902,0.005898401015990871,0.06284914650557358,-0.000398093533361532,0.008726849743593867,-0.04701123429217392,-0.002870949318905576,-0.025260044796232166,-0.16980154680124784,0.002512507633455967,0.2,0.0,0.0,-0.020755204598616763,0.012091912069809292,-0.03344876609168605,0.0,0.0,0.0,-0.2757215109927203,-1.0155398487895637,0.795071712051422,0.4961920336708616,-0.00667914970920927,-0.48857157751420033,1.0
5.305999999999638,-0.0016889630889164477,0.019939107779419603,0.0012510618688742854,0.9995887473005984,0.0025245564066703192,0.028564011880379266,-0.0002451739527363209,0.005041278056830562,0.057136850891988285,-0.0003464887602809167,0.008119915502113901,-0.045216451613391995,-0.002821021448508743,-0.025336161447373308,-0.16568006422789203,0.002330630965812411,0.2,0.0,0.0,-0.018790720338209714,0.012297751598206152,-0.034025828273156505,0.0,0.0,0.0,-0.2731041314477373,-1.0442777210981276,0.82736334820143,0.49002093854881434,-0.01225359824464567,-0.5265372894478013,1.0
