t,px,py,pz,qw,qx,qy,qz,roll,pitch,yaw,vx,vy,vz,wx,wy,wz,cur_x,cur_y,cur_z,wav_x,wav_y,wav_z,kick_x,kick_y,kick_z,u0,u1,u2,u3,u4,u5,dist_on
30.00399999999425,0.10605878477178024,-0.17503070794106543,0.045069562980744056,0.9882005081226288,-0.002341387447006813,0.15310417405266957,-0.0036586252406145543,-0.006030541038431417,0.30739640321406214,-0.008338841756546063,-0.0372611375118048,0.039233155038230515,0.0017489617821614346,0.02803785363683543,-0.06139802598764001,0.041663409672186485,0.2,0.0,0.0,-0.044581924035065584,0.013378951656141364,0.04676097914070903,0.0,0.0,0.0,0.34558816961774186,-0.9283985363723066,1.0258642064491796,-0.4430527628014239,-0.32950822286882875,-1.602047387790582,1.0
30.025999999994237,0.10523338165579284,-0.17415463707785606,0.04509843646452604,0.9883080379264292,-0.0019676705952289225,0.15242296276158102,-0.003254360985231491,-0.005119274775674409,0.30602307148529384,-0.0073751788293934285,-0.03783841141870922,0.04052049787546571,0.0007623717140258507,0.02841666991405115,-0.06446093166100075,0.04104143569282516,0.2,0.0,0.0,-0.04588048531777839,0.012877932144516333,0.04517468904509679,0.0,0.0,0.0,0.3255477078892563,-0.9253852935319508,1.0315993278814677,-0.43176063388338254,-0.32370403852680996,-1.5829695785249887,1.0
30.047999999994225,0.10439491149036106,-0.17325059481216537,0.04510500922074648,0.9884198527564867,-0.001591162429582899,0.1517085949724868,-0.002857462238047808,-0.004206084106377098,0.3045820417995292,-0.006427411519609811,-0.03844473530482315,0.0417735967609873,-0.00025872656624381174,0.028757776602537016,-0.06745734175016738,0.04040584939699857,0.2,0.0,0.0,-0.0471278397960764,0.012368535968012684,0.04353063587854302,0.0,0.0,0.0,0.30475040922283975,-0.9234661244855439,1.0381066233771605,-0.4193897648768289,-0.31723055750511175,-1.5632367022420153,1.0
30.069999999994213,0.10354288850129725,-0.1723193139796212,0.04508906135781669,0.9885357690454529,-0.00121227564983014,0.15096182501499797,-0.0024680141014660267,-0.003291949417861152,0.30307487340606853,-0.0054959697683161285,-0.03907267417383977,0.042993858824534666,-0.0012850588645513456,0.029060647578582895,-0.07037862028203917,0.03975922847114631,0.2,0.0,0.0,-0.04832205760789888,0.01185206625930776,0.04183107306129732,0.0,0.0,0.0,0.28308128032134655,-0.922738411851542,1.0454993472085792,-0.4058410337460626,-0.310402837883473,-1.5431622032237984,1.0
30.0919999999942,0.10267682228697392,-0.17136151017207882,0.04505050073778812,0.988655587713611,-0.000831424581266949,0.15018350746340048,-0.002086073299505031,-0.002377836339911673,0.3015033306915539,-0.004581217337197857,-0.03972379705700323,0.04418196554979667,-0.0023143025844362423,0.0293247991829752,-0.07321509482566724,0.03910407863602271,0.2,0.0,0.0,-0.049461309591487514,0.011329818058183809,0.04007833224960515,0.0,0.0,0.0,0.2604095405264754,-0.9233189299334879,1.053910374168431,-0.390999759864525,-0.3032421215088147,-1.5227692661913554,1.0
30.11399999999419,0.10179618320197621,-0.17037788401704715,0.04498928754913608,0.9887790936254023,-0.00044902489968222793,0.14937460485379409,-0.0017116689925441675,-0.0014646950295796241,0.2998693983629613,-0.003683452613131622,-0.04040015882916088,0.04533859502672601,-0.0033440096178364398,0.029549799628171624,-0.07595643106785047,0.03844283136132853,0.2,0.0,0.0,-0.05054386952742762,0.01080307424164964,0.038274816326093315,0.0,0.0,0.0,0.23658305727125223,-0.9253453016571656,1.0634937270753435,-0.3747302100226872,-0.29577119705194643,-1.5020824334749499,1.0
30.135999999994176,0.10090039089072819,-0.16936912128420334,0.04490543721900048,0.9889060551217548,-6.549334945531999e-05,0.1485361954458516,-0.0013448035625238696,-0.0005534594533637895,0.29817529669990406,-0.0028029093449692477,-0.041104380627060975,0.04646441872491225,-0.004371590649540955,0.029735268822897874,-0.07859151606900613,0.037777846759833866,0.2,0.0,0.0,-0.051568116832941754,0.010273101712296598,0.036422993311262114,0.0,0.0,0.0,0.21142401071942357,-0.9289803181676691,1.0744289130832794,-0.3568712797637973,-0.2880145234785142,-1.4811277293579823,1.0
30.157999999994164,0.09998880089716784,-0.1683358930650546,0.04479902370809626,0.9890362234202094,0.0003187525359008807,0.1476694824302234,-0.000985453347575286,0.0003549533148368804,0.2964234997106717,-0.0019397572764226518,-0.04183974635075719,0.04756009805000998,-0.005394295511313083,0.02988087818872588,-0.08110830715077047,0.037111417504321356,0.2,0.0,0.0,-0.052532538903247813,0.00974114770334189,0.034525390241038144,0.0,0.0,0.0,0.18472353400958846,-0.9344172731431393,1.086926285173501,-0.33723116078648,-0.2799983840783238,-1.4599328157080067,1.0
30.179999999994152,0.09906068895950548,-0.16727885603086123,0.044670183285736825,0.9891693318379947,0.0007032947109443318,0.14677580494636183,-0.0006335693111574356,0.0012596437933436071,0.2946167569284062,-0.0010941026361484692,-0.04261031916161389,0.04862628063880042,-0.00640918854541728,0.029986350460453223,-0.0834936447872984,0.03644577396388789,0.2,0.0,0.0,-0.053435733101959385,0.009208436216071763,0.03258458703441334,0.0,0.0,0.0,0.15623503910984465,-0.941886599333813,1.1012337186425876,-0.3155807067237559,-0.2717510794140119,-1.4385271870876626,1.0
30.20199999999414,0.09811532781596419,-0.16619865282582919,0.04451909017418765,0.989305103149201,0.0010877148632834214,0.14585659461742992,-0.0002890777260513924,0.002159730692993237,0.29275800504202903,-0.0002659887740096133,-0.04339826824572219,0.04966358701759604,-0.0074199816676266345,0.030051458550744262,-0.08576788371310584,0.035783046933217294,0.2,0.0,0.0,-0.054276408021131706,0.008676164613684353,0.030603210144625626,0.0,0.0,0.0,0.14238541883501232,-0.9349451945335447,1.1009255668488493,-0.3083643266907352,-0.263261154500921,-1.4169005729709685,1.0
30.223999999994128,0.09715299924796181,-0.1650959123652623,0.04434565276461552,0.9894433664982012,0.0014715941827249139,0.1449125825734521,4.811611801303336e-05,0.003054348119413797,0.29084876459722836,0.0005445938951153905,-0.04414781611550923,0.05067268012102568,-0.00844158091282768,0.030076016966196124,-0.0880220321556372,0.035124833014894566,0.2,0.0,0.0,-0.05505338056120056,0.008145500572934474,0.028583924261222107,0.0,0.0,0.0,0.13458493135773542,-0.9221708903965511,1.0945932362318171,-0.307005821923835,-0.254433067416704,-1.39495896126322,1.0
30.245999999994115,0.0961745742665425,-0.1639712478734521,0.04414964605198699,0.9895840316266774,0.0018545135194260778,0.14394395490301307,0.0003781216447736419,0.003942640033640449,0.2888894549312018,0.0013376914883422757,-0.04485787236093935,0.05165430623818768,-0.009472259752542407,0.030059884679414218,-0.0902577187495478,0.03447240428980328,0.2,0.0,0.0,-0.055765578306782936,0.007617579288096799,0.026529428104610436,0.0,0.0,0.0,0.12675724153693935,-0.9096299971771231,1.0883143028189974,-0.3054401006185119,-0.24528174748244191,-1.3727184222571545,1.0
30.267999999994103,0.09518092892408352,-0.16282525625768574,0.04393088843417289,0.9897270049855317,0.00223605394992128,0.14295091527615256,0.0007010612056652652,0.004823759705283827,0.28688053170284294,0.0021133832123583275,-0.04552770978606813,0.05260919949539716,-0.010510208310244651,0.030002968356931798,-0.09247304552506577,0.033826927916331406,0.2,0.0,0.0,-0.05641204243280556,0.007093500608364727,0.02444245015611195,0.0,0.0,0.0,0.11890074222691716,-0.8973143546202371,1.0820914300782125,-0.30367637936401354,-0.23582464564016614,-1.3501973870286244,1.0
30.28999999999409,0.09417295512200585,-0.16165851841758608,0.04368923794217211,0.9898721895650406,0.0026157970630415884,0.14193368698956985,0.0010170688203278181,0.0056968698419148055,0.2848224908428836,0.0028717790511256515,-0.04615662702319355,0.05353807943310358,-0.011553632471351754,0.02990522184751473,-0.09466623736688015,0.03318946155028825,0.2,0.0,0.0,-0.05699192796214724,0.00657432634512014,0.022325742856373565,0.0,0.0,0.0,0.11101403994477393,-0.8852159331068434,1.0759269078966576,-0.30172358419595174,-0.2260794984174993,-1.327414423855441,1.0
30.31199999999408,0.09315155978140247,-0.1604715995809105,0.043424591938993035,0.9900194851767542,0.0029933252459827865,0.14089251197986016,0.001326288932360642,0.0065611427112072795,0.28271586638260654,0.0036130174629107215,-0.04674396401899483,0.05444164952923999,-0.012600752454016172,0.029766645777852558,-0.09683559943707551,0.03256095783177046,0.2,0.0,0.0,-0.05750450375028917,0.006061077784015899,0.020182076948463145,0.0,0.0,0.0,0.10309598771508283,-0.8733268014818385,1.069822626879052,-0.2995903899112583,-0.216064320529595,-1.3043882374470135,1.0
30.333999999994067,0.09211766392005397,-0.15926504967089483,0.043136886778080016,0.9901687887189183,0.003368221978505571,0.13982764995934413,0.0016288752136964955,0.007415760282339391,0.28056122853929577,0.004337263162165658,-0.047289103400800114,0.05532059582173935,-0.013649805417354275,0.029587287123912797,-0.09897952051605158,0.03194226865542753,0.2,0.0,0.0,-0.05794915216109777,0.0055547334104084495,0.0180142359524123,0.0,0.0,0.0,0.09514567443460004,-0.8616391397197933,1.0637800967353985,-0.29728521515488715,-0.20579737071515147,-1.2811376419736842,1.0
30.355999999994054,0.09107220170113264,-0.15803940370282007,0.04282609740544869,0.9903199944474438,0.0037400721346929986,0.1387393775169661,0.00192498941531041,0.008259914385658745,0.278359181740247,0.005044704980691186,-0.047791471683443436,0.0561755856401288,-0.014699047955729221,0.029367238758750042,-0.10109647616699219,0.03133414926833071,0.2,0.0,0.0,-0.05832536844458496,0.005056226855017701,0.015825010786495716,0.0,0.0,0.0,0.08716241478962389,-0.8501452518960124,1.0578004645398602,-0.2948162176249489,-0.1952971182072315,-1.2576815351240689,1.0
30.377999999994042,0.0900161194567421,-0.15679518220735664,0.04249223690817051,0.9904729942506375,0.004108462291754514,0.1376279871885445,0.002214800262544723,0.00909280689003956,0.2761103625942254,0.005735553804153315,-0.0482505403378018,0.05700726645056411,-0.0157467584701598,0.02910663897773613,-0.10318503136583376,0.030737262218926323,0.2,0.0,0.0,-0.058632759828620915,0.0045664450652157795,0.013617194549278318,0.0,0.0,0.0,0.07914573969709765,-0.8388375792582381,1.051884532809355,-0.2921912895206625,-0.18458220995986552,-1.234038873236873,1.0
30.39999999999403,0.08895037468931728,-0.1555328916781541,0.042135356011936784,0.9906276779257989,0.004472981045387966,0.136493786501938,0.0024984823935907817,0.009913649897539175,0.27381543782179674,0.006410040580674817,-0.04866582672286593,0.05781626481782773,-0.016791239414270905,0.028805671002280455,-0.10524384259371344,0.03015218117795635,0.2,0.0,0.0,-0.05887104433738087,0.004086226705857679,0.01139357747505645,0.0,0.0,0.0,0.07109538718844571,-0.8277087132644168,1.0460327774068214,-0.28941805329165,-0.17367143870687352,-1.2102286475130426,1.0
30.421999999994018,0.08787593505386514,-0.15425302504107438,0.04175554253048191,0.9907839334558093,0.004833219331230879,0.13533709700269822,0.0027762153398996625,0.010721665955112215,0.2714751021558986,0.007068414398803771,-0.049036894883708014,0.058603185486954035,-0.017830819412971002,0.028464562463199793,-0.10727165939505884,0.029579394650068855,0.2,0.0,0.0,-0.05904004934998607,0.0036163607920585076,0.00915694207391404,0.0,0.0,0.0,0.06301129366106412,-0.8167514084607055,1.040245365272551,-0.28650385774271153,-0.1625837119191338,-1.1862698613079687,1.0
30.443999999994006,0.0867937773239678,-0.15295606214241778,0.041352920769678086,0.990941647283998,0.00518877075195038,0.1341582532657529,0.003048182547502595,0.011516088283265767,0.26909007622393494,0.007710940632685307,-0.049363356218180846,0.05936861058627936,-0.01886385525275855,0.028083584864966652,-0.10926732540779799,0.029019309592717583,0.2,0.0,0.0,-0.05913970991338514,0.003157585554824097,0.006910058466230361,0.0,0.0,0.0,0.05489358542915307,-0.8059585950837161,1.034522171985244,-0.2834557745434328,-0.15133802171675725,-1.162181508498357,1.0
30.465999999993993,0.08570488634440501,-0.15164247025345887,0.040927650889130945,0.9911007045855827,0.005539231909536957,0.13295760189858655,0.003314570438406447,0.012296161021639215,0.2666611044224317,0.008337899152729714,-0.04964487001561835,0.06011309895285518,-0.019888733743246914,0.027663053032124015,-0.11122977887527269,0.02847225495688286,0.2,0.0,0.0,-0.059170066824009236,0.0027105875389516042,0.004655679920107689,0.0,0.0,0.0,0.04674257051208558,-0.7953233912806501,1.0288627991528538,-0.2802805951872239,-0.1399534157830018,-1.1379825529133045,1.0
30.48799999999398,0.0846102539731755,-0.15031270458859836,0.040479928224108244,0.9912609895341359,0.00588420274238142,0.1317355005412882,0.0035755675113915667,0.013061139491568173,0.2641889527950573,0.008949582600480784,-0.04988114387117436,0.06083718558031229,-0.020903873450122616,0.027203324539192438,-0.11315805265231821,0.027938485162143402,0.2,0.0,0.0,-0.059131264493113865,0.002276000931160907,0.0023965385988755994,0.0,0.0,0.0,0.038558730605418146,-0.7848391148513537,1.0232665916318462,-0.27698482843949784,-0.12844896931777483,-1.1136919088152235,1.0
30.50999999999397,0.08351087801561426,-0.14896720883444312,0.040009982570622965,0.9914223855616149,0.006223286866726476,0.13049231686870502,0.003831363481678776,0.013810290475744119,0.2616744069244784,0.00954629472674394,-0.050071933979766774,0.06154138118843338,-0.021907726300342777,0.026704799125423336,-0.11505127372062529,0.027418183516709355,0.2,0.0,0.0,-0.05902354861102693,0.0018544071150019621,0.00013534152453380274,0.0,0.0,0.0,0.030409325197057968,-0.774432682416309,1.017666042438448,-0.27364131044322665,-0.11684377513418731,-1.0893284394869178,1.0
30.531999999993957,0.0824077802439088,-0.14760641549918654,0.03951807236615291,0.9915847772397528,0.006556091968525239,0.12922841510020336,0.00408214835356939,0.014542892401506018,0.25911824463988037,0.0101283483648425,-0.05021420829922027,0.06222620019996744,-0.02289953017903142,0.026167917963542158,-0.11691308188002406,0.02691145250174829,0.2,0.0,0.0,-0.05884726355318583,0.0014463344625054522,-0.002125233235334713,0.0,0.0,0.0,0.02350615005946738,-0.7628870024541959,1.0108490682144067,-0.27146684962193846,-0.10515205522522703,-1.0649061021548634,1.0
30.553999999993945,0.0813020593723854,-0.14623074587545748,0.03900446985055315,0.9917480565692713,0.006882230308989065,0.12794410753291083,0.004328110980059264,0.015258235036961202,0.2565211382384966,0.010696061645351466,-0.05030584208291801,0.06289212827387926,-0.023878305137948575,0.025593162710749715,-0.11874653330995594,0.026418285254882642,0.2,0.0,0.0,-0.058602849491646264,0.0010522583714458733,-0.004382540130046288,0.0,0.0,0.0,0.01656198969545153,-0.7514848119626202,1.0041025473455156,-0.2691783671179733,-0.09338884277552545,-1.0404396149989883,1.0
30.575999999993932,0.0801948282321543,-0.14484061111457294,0.038469477085624024,0.9919121171446961,0.007201318881862935,0.12663969796978636,0.004569438259950295,0.015955619915161052,0.25388374208350717,0.011249756978104184,-0.05034691335540466,0.06353960630406669,-0.024842530881751902,0.024981055208460275,-0.12055085490850984,0.025938612133349997,0.2,0.0,0.0,-0.05829083979873246,0.0006726014217394382,-0.006633969468247915,0.0,0.0,0.0,0.009578590414426824,-0.7402202954978855,0.9974243265814009,-0.26678127144804237,-0.08157329456119938,-1.0159477572074107,1.0
30.59799999999392,0.07908719878050817,-0.14343641290718478,0.037913428834382895,0.9920768521218706,0.007512979709320591,0.1253154976851687,0.004806314572085726,0.01663436085641237,0.25120672475592754,0.011789760221945384,-0.050337472323928455,0.06416905076252248,-0.025790746705938995,0.024332156919607374,-0.12232542614166406,0.0254723105753347,0.2,0.0,0.0,-0.05791185811975826,0.0003077337632746537,-0.008876950559851188,0.0,0.0,0.0,0.002557567645628922,-0.7290881298534273,0.9908123420442518,-0.26428043738295526,-0.06972433989578875,-0.9914490419914982,1.0
30.619999999993908,0.07798028140548628,-0.14201854403174952,0.03733669159022436,0.9922421544340293,0.00781684020604502,0.12397182440730471,0.0050389211577223265,0.017293784397122446,0.24849076695120245,0.012316399476524109,-0.050277615711688046,0.06478085313872767,-0.02672153256272393,0.02364706829908071,-0.12406969811685462,0.0250192081197377,0.2,0.0,0.0,-0.05746661526635585,-4.2026294962906836e-05,-0.011108954631786737,0.0,0.0,0.0,-0.004499360687664877,-0.71808324984967,0.9842643937492053,-0.2616804480532362,-0.05786079315728576,-0.9669618364385227,1.0
30.641999999993896,0.07687518390283665,-0.1405873889018039,0.03673966267421418,0.9924079169643097,0.008112533544147914,0.12260900158173323,0.0052674355416152925,0.01793323023649452,0.2457365599488812,0.012830003943416856,-0.05016748662895352,0.0653753801922532,-0.02763350988738974,0.022926428157061345,-0.12578319056312368,0.02457908561807519,0.2,0.0,0.0,-0.05695590600237734,-0.00037641151551772036,-0.013327497516375467,0.0,0.0,0.0,-0.01159038225288428,-0.7072008532913543,0.9777781619485421,-0.25898559825121714,-0.04600133374892729,-0.9425043491361826,1.0
30.663999999993884,0.07577301045859113,-0.13914332410670094,0.036122769314831236,0.9925740327078048,0.008399699019616022,0.12122735766379836,0.0054920309903833675,0.018552051699134375,0.24294480414720818,0.013330902849766837,-0.050007274248007126,0.06595297430178788,-0.02852534234160353,0.022170913014753036,-0.12746548909758934,0.024151680389373383,0.2,0.0,0.0,-0.05638060573632133,-0.0006952047938119743,-0.015530142113734515,0.0,0.0,0.0,-0.018713598478066584,-0.6964364053861574,0.9713512233220678,-0.2561998980328767,-0.03416448697640778,-0.9180946184918213,1.0
30.68599999999387,0.0746748606396526,-0.1376867189437614,0.035486467712430234,0.9927403949229902,0.008677982419885424,0.11982722544141103,0.005712876007699326,0.019149616213065674,0.24011620766445646,0.013819424433641387,-0.04979721339296475,0.0665139539036335,-0.02939573645007025,0.021381236453822148,-0.12911624220742715,0.023736689321256152,0.2,0.0,0.0,-0.055741667135265335,-0.00099823806214322,-0.0177145006304413,0.0,0.0,0.0,-0.025867032486464048,-0.6857856422753802,0.9649810666830598,-0.25332707695847007,-0.02236860600001339,-0.8937505018953887,1.0
30.70799999999386,0.0735818283942181,-0.13621793593993484,0.03483124209073194,0.9929068972722414,0.00894703639214649,0.11840894139101499,0.005930133865888236,0.019725305802639204,0.23725148501252502,0.014295894990432522,-0.049537584049268904,0.0670586140133798,-0.03024344213453499,0.02055814846079854,-0.13073515796835602,0.023333771918604418,0.2,0.0,0.0,-0.055040116675023586,-0.0012853910488446463,-0.01987823659741484,0.0,0.0,0.0,-0.033048636809062726,-0.6752445736804656,0.9586651082079003,-0.2503705889631075,-0.01063185483581347,-0.8694896656955775,1.0
30.729999999993847,0.07249500106375752,-0.13473733136120603,0.03415760373755786,0.9930734339512379,0.009206520811991178,0.11697284506946157,0.006143962173523844,0.020278517595784435,0.2343513558477877,0.014760637979649011,-0.04922871079756294,0.06758722682415239,-0.031067253149307326,0.019702434767622377,-0.13232200052553852,0.022942553300224017,0.2,0.0,0.0,-0.054277051140943076,-0.0015565899055946747,-0.022019066670658387,0.0,0.0,0.0,-0.04025630088494747,-0.6648094846776756,0.9524007061979978,-0.24733361784361402,0.001027807623462773,-0.8453295759585118,1.0
30.751999999993835,0.07141545840816454,-0.13324525570812956,0.0334660900369333,0.9932398998071703,0.00945610315202234,0.11551927854422711,0.006354512478610301,0.02080866434500834,0.23141654380362428,0.015213973191443152,-0.04887096217670996,0.06810004237457482,-0.03186600742258018,0.018814916189445436,-0.13387658636303226,0.02256262714315463,0.2,0.0,0.0,-0.053453634093412215,-0.001811805716198744,-0.0241347622191338,0.0,0.0,0.0,-0.04748785835613811,-0.6544769366204728,0.9461851753826009,-0.24421908334411319,0.012592642600041448,-0.8212874899786602,1.0
30.773999999993823,0.07034427164559054,-0.13174205419603066,0.03275726349458796,0.9934061904457682,0.009695458850051993,0.11404858586413291,0.006561929906923672,0.021315174961497863,0.22844777540850253,0.015656215972186343,-0.048464749980759184,0.06859728927940024,-0.03263858730788454,0.01789644796070548,-0.13539878038794853,0.022193558573569694,0.2,0.0,0.0,-0.0525710923117966,-0.0020510529003921374,-0.026223150704612928,0.0,0.0,0.0,-0.05474109416046302,-0.6442437672355892,0.9400158007709746,-0.24102964781924502,0.024045145469694218,-0.7973804485120313,1.0
30.79599999999381,0.0692825025083661,-0.13022806721856267,0.032031710758787274,0.9935722023272648,0.009924271676522106,0.1125611125724558,0.006766352835066885,0.021797495061631207,0.22544577909292524,0.01608767650835794,-0.048010528494691486,0.06907917551565156,-0.03338391975007136,0.01694791907039542,-0.13688849185532484,0.02183488700265398,0.2,0.0,0.0,-0.05163071223012258,-0.0022743875263084266,-0.028282116858879533,0.0,0.0,0.0,-0.06201375142343002,-0.6341070899242232,0.9338898510621958,-0.23776772345088465,0.03536805888370026,-0.7736252687020304,1.0
30.8179999999938,0.06823120231630862,-0.12870363079347438,0.031290041638330705,0.9937378328515091,0.010142234100787111,0.11105720526404368,0.00696791259776397,0.02225508752514911,0.22241128428800314,0.016508659167944563,-0.047508793673792814,0.06954588925705926,-0.034100976370242814,0.015970251597341677,-0.13834567015942298,0.021486128905392594,0.2,0.0,0.0,-0.05063383637742402,-0.0024819055452396537,-0.030309603664147082,0.0,0.0,0.0,-0.06930353814766799,-0.6240642923045361,0.9278045916204244,-0.23443547999146347,0.04654438501210234,-0.7500385376686649,1.0
30.839999999993786,0.06719141106860789,-0.12716907698959515,0.030532888119455866,0.9939029804325191,0.01034904765590264,0.10953721118778303,0.00716673322888616,0.02268743306418264,0.2193450206178788,0.01691946189846536,-0.04696008227150967,0.06999759974960076,-0.03478877347406979,0.014964400046188406,-0.13977030051672965,0.0211467805398578,0.2,0.0,0.0,-0.049581859835233576,-0.0026737409621782732,-0.0323036131430014,0.0,0.0,0.0,-0.07660813369660896,-0.6141130340353966,0.9217572970230602,-0.23103485300469295,0.057557396947331585,-0.7266366067319936,1.0
30.861999999993774,0.06616415655537415,-0.12562473433420568,0.02976090338328926,0.9940675445628646,0.010544423301569537,0.1080014778955,0.007362931235664815,0.02309403080227966,0.2162477171877001,0.01732037568064613,-0.046364970920637974,0.07043445822102228,-0.035446371987939686,0.01393135068465971,-0.1411623995653792,0.020816320604330057,0.2,0.0,0.0,-0.04847622672425671,-0.002850063955386917,-0.034262206964599244,0.0,0.0,0.0,-0.08392519506739249,-0.6042512439643677,0.9157452631885634,-0.22756755257248734,0.06839064930818423,-0.7034355862407791,1.0
30.88399999999376,0.06515045348982719,-0.12407092820011668,0.028974760825387275,0.9942314258683336,0.010728081784886016,0.10645035293811783,0.007556615405505123,0.02347439886251814,0.21312010196833023,0.01771168403666302,-0.04572407517268044,0.07085659881736125,-0.03607287732737432,0.012872120882536975,-0.14252201090504976,0.02049421282942885,0.2,0.0,0.0,-0.047318426731804884,-0.003011078957891697,-0.03618350687423505,0.0,0.0,0.0,-0.09125236294670314,-0.5944771166451174,0.9097658190899991,-0.22403507243525428,0.07902798808471934,-0.6804513409772326,1.0
30.90599999999375,0.06415130266199845,-0.12250798117192994,0.028175153078812912,0.9943945261534018,0.010899753998564162,0.10488418360964162,0.007747886644771487,0.023828074963742972,0.20996290127848724,0.018093662591769765,-0.045038048500185536,0.07126413955968064,-0.036667439202155476,0.011787758452646836,-0.14384920060062248,0.020179908502351365,0.2,0.0,0.0,-0.04610999169108082,-0.0031570227133510204,-0.038065694953759055,0.0,0.0,0.0,-0.0985872675422502,-0.5847891082709091,0.9038163380594757,-0.2204386995313612,0.08945355976509456,-0.6576994861083997,1.0
30.927999999993737,0.06316769011471272,-0.12093621339110268,0.027362791042096466,0.9945567484381129,0.011059181336269682,0.10330331673929678,0.007936837848871194,0.02415461702391292,0.20677683936453828,0.018466578688010483,-0.04430758126684184,0.07165718331446905,-0.037229251362584176,0.010679340994004482,-0.14514405267204364,0.019872848920310597,0.2,0.0,0.0,-0.04485249222292836,-0.003288162318213968,-0.039907013720662916,0.0,0.0,0.0,-0.10592753418197992,-0.575185932071532,0.8978942486878061,-0.21677952390065092,0.09965181978555548,-0.6351953836543229,1.0
30.949999999993725,0.06220058634251171,-0.11935594287957808,0.02653840291333098,0.9947179969869978,0.01120611604474569,0.10170809853191189,0.008123553802918149,0.0244536037694983,0.20356263807771263,0.01883069104860831,-0.04353339967005629,0.07203581877145412,-0.037757551291294864,0.009547975237099951,-0.1464066645919125,0.01957246777032546,0.2,0.0,0.0,-0.04354753445013669,-0.0034047932614701642,-0.04170576607397827,0.0,0.0,0.0,-0.11327078867261836,-0.5656665532211768,0.8919970453224713,-0.21305844891598652,0.10960754034488646,-0.6129541394423308,1.0
30.971999999993713,0.06125094551407728,-0.11776748584187856,0.025702733231556113,0.9948781773307427,0.011340321572382413,0.10009887445640984,0.008308111112214342,0.024724635349825483,0.2003210166480739,0.019186249491507976,-0.04271626466068501,0.07240012142291004,-0.03825161984504127,0.008394796391150369,-0.14763714281134163,0.019278193432632235,0.2,0.0,0.0,-0.042196756793885674,-0.0035072374726012653,-0.0434603150954402,0.0,0.0,0.0,-0.12061466240909399,-0.556230183304157,0.8861222981659427,-0.20927620180643125,0.11930581762462386,-0.5909906005158985,1.0
30.9939999999937,0.06031970471861196,-0.11617115694568493,0.024856541926486866,0.9950371962813414,0.011461572913895376,0.09847598918205618,0.008490578161743426,0.02496733395522512,0.19705269155418143,0.019533494690441255,-0.04185697084451039,0.07275015453890972,-0.03871078085086949,0.007220967492970109,-0.14883559833361212,0.018989451205152226,0.2,0.0,0.0,-0.04080182686136676,-0.0035958413875999923,-0.04516908371466715,0.0,0.0,0.0,-0.12795679722649259,-0.5468762743842823,0.8802676629751185,-0.2054333444353571,0.12873207845621068,-0.5693193529653502,1.0
31.01599999999369,0.059407783236532244,-0.11456726958104325,0.02400060337754649,0.9951949619415051,0.011569656950773876,0.09683978656190523,0.008671015103829477,0.02518134443780393,0.19375837648698563,0.019872657981779347,-0.04095634536997243,0.07308597013337834,-0.03913440066109531,0.006027678756934114,-0.15000214235408646,0.01870566544665729,0.2,0.0,0.0,-0.03936443843307283,-0.003670974042115697,-0.04683055424738309,0.0,0.0,0.0,-0.13529484998643487,-0.5376045127221326,0.8744308903611956,-0.2015302842966698,0.1378720864760835,-0.5479547201463049,1.0
31.037999999993676,0.05851608183473316,-0.1129561360984493,0.023135705483065618,0.9953513837091382,0.011664372787160218,0.09519060966269123,0.008849473873074777,0.025366334933626743,0.1904387824061435,0.020203961215336477,-0.04001524680655885,0.07340760991623058,-0.03952188767151521,0.004816146925327525,-0.15113688198375638,0.01842626163651434,0.2,0.0,0.0,-0.037886308557677204,-0.0037330251999463456,-0.04844326781600058,0.0,0.0,0.0,-0.14262649689039628,-0.5284148121823259,0.8686098346880181,-0.1975672856925732,0.1467119478095187,-0.526910761250164,1.0
31.059999999993664,0.05764548208658655,-0.11133806802616053,0.022262648740412165,0.9955063722777077,0.01174553208081783,0.09352880084022717,0.009025998227654049,0.025521997485066398,0.1870946176866053,0.020527616647196385,-0.03903456401813771,0.07371510622732677,-0.03987269180728689,0.003587614618187785,-0.1522399160727025,0.018150668349155706,0.2,0.0,0.0,-0.03636917476183741,-0.003782403524217292,-0.050005823662125914,0.0,0.0,0.0,-0.14994943751304238,-0.5193073073705259,0.8628024625653333,-0.19354448105648736,0.15523811632374515,-0.5062012701892473,1.0
31.081999999993652,0.05679684571674245,-0.10971337626717448,0.021382245337718687,0.9956598396333479,0.011812959368842618,0.09185470185919997,0.009200623816008963,0.02564804866205267,0.18372658835300804,0.020843826872548446,-0.03801521503538128,0.07400848294844634,-0.04018630398093694,0.002343349681554678,-0.1533113311486324,0.017878319141706525,0.2,0.0,0.0,-0.034814792381651256,-0.003819534797693268,-0.051516878360823165,0.0,0.0,0.0,-0.15726139854955035,-0.5102823465370273,0.8570068609319381,-0.1894618823852936,0.1634373984906281,-0.485839774757213,1.0
31.10399999999364,0.05597101397071354,-0.10808237127639106,0.02049531825777571,0.9958116990495592,0.011866492387767285,0.09016865405609137,0.0093733782679568,0.02574423018092829,0.18033539839913001,0.02115278479644415,-0.03695814593127324,0.07428775638995183,-0.04046225552696808,0.001084644532850417,-0.1543511974845553,0.017608654353497497,0.2,0.0,0.0,-0.03322493202188028,-0.003844860197758104,-0.052975144946703495,0.0,0.0,0.0,-0.16456013727167806,-0.501340484280835,0.8512212447220355,-0.1853193927455522,0.17129695789889485,-0.4658395360234545,1.0
31.125999999993628,0.05516880700913601,-0.10644536321854516,0.01960270039456097,0.9959618650803542,0.011905982387702125,0.08847099854380079,0.009544281309200233,0.025810309519600113,0.1769217501893888,0.02145467364031777,-0.03586432970351657,0.07455293614929556,-0.04070011761756002,-0.0001871843950270325,-0.15535956530855113,0.017341122816503914,0.2,0.0,0.0,-0.031601377148399154,-0.0038588346306867197,-0.05437939196214658,0.0,0.0,0.0,-0.17184344468848303,-0.4924824740846778,0.8454439641066429,-0.18111681781918315,0.17880431945556832,-0.4462135479180358,1.0
31.147999999993615,0.05439102332650366,-0.10480266210758807,0.01870523368268628,0.9961102535490537,0.011931294745535516,0.08676207645937663,0.00971334487149516,0.025846081140795504,0.17348634493911125,0.021749666981840252,-0.034734765170647,0.07480402593138491,-0.040899500682583474,-0.0014706604453066992,-0.15633646116053454,0.017075183543275127,0.2,0.0,0.0,-0.029945921818678514,-0.003861925128931676,-0.05572844243817132,0.0,0.0,0.0,-0.17910914873456502,-0.48370926041324797,0.8396735115935019,-0.1768538777169048,0.18594737321905647,-0.4269745370281431,1.0
31.169999999993603,0.05363843919398757,-0.10315457792857652,0.017803768239319725,0.9962567815055761,0.01194231221527484,0.08504222927649623,0.00988057299897289,0.025851373015484024,0.17002988326973154,0.02203792882068249,-0.033570475883669904,0.07504102432170179,-0.04106005382889884,-0.002763928430012055,-0.1572818843615241,0.0168103077151293,0.2,0.0,0.0,-0.028260368554416528,-0.003854609314255149,-0.05702117281867495,0.0,0.0,0.0,-0.18635511915213782,-0.47502196870900015,0.8339085300619709,-0.17253022013526342,0.19271437542579903,-0.40813496449685627,1.0
31.19199999999359,0.052911808126268826,-0.10150142074240093,0.016899161520367793,0.9964013671901414,0.011938937739370385,0.08331179915283654,0.010045961835012758,0.025826052265340908,0.166553065835205,0.022319613659540428,-0.03237250903478213,0.07526392557491807,-0.04118146413075951,-0.004065062796024333,-0.1581958036486185,0.01654598036303343,0.2,0.0,0.0,-0.026546526359748742,-0.003837373928683214,-0.05825651183895895,0.0,0.0,0.0,-0.19357927078366038,-0.46642189637740183,0.8281478193112267,-0.16814543262696507,0.19909394880680992,-0.3897070287273699,1.0
31.21399999999358,0.05221186037206269,-0.09984350077354062,0.01599227749164404,0.9965439300276385,0.011921094925061795,0.08157112929110374,0.01020949984238747,0.02577002612047852,0.16305659401712647,0.022594866604977202,-0.031141934400354895,0.0754727203571557,-0.04126345599710536,-0.00537211194726356,-0.1590781540144842,0.01628170167518106,0.2,0.0,0.0,-0.024806208887733446,-0.003810713434426623,-0.059433439369616904,0.0,0.0,0.0,-0.20077956476420167,-0.45791050563447344,0.8223903414610914,-0.16369905396180784,0.20507508643413525,-0.3717026654414661,1.0
31.235999999993567,0.05153930242761935,-0.09818112848194026,0.015083985813612972,0.9966843906275832,0.011888728368963642,0.0798205643319849,0.010371168054569212,0.025683242578150377,0.15954117068503038,0.022863823490240336,-0.029879843310025286,0.0756673964466576,-0.04130579056190926,-0.00668310174095837,-0.15992883373749991,0.01601698822149722,0.2,0.0,0.0,-0.023041232757059403,-0.0037751286831182724,-0.06055098523696655,0.0,0.0,0.0,-0.2079540094316214,-0.44948941629907646,0.8166352258975107,-0.1591905853697036,0.2106471558065546,-0.3541335473380708,1.0
31.257999999993554,0.05089481657265711,-0.09651461461983099,0.014175161039466304,0.9968226707891794,0.011841803936983603,0.07806045077791166,0.010530940347156452,0.025565690977165267,0.1560075010177631,0.023126611018326207,-0.028587347640969235,0.07584793939845277,-0.04130826508360694,-0.007996039755789892,-0.16074770160969334,0.015751374095139437,0.2,0.0,0.0,-0.021253416020169218,-0.003731125653978755,-0.06160822803131888,0.0,0.0,0.0,-0.21510066100136357,-0.44116039846131916,0.8108817736734987,-0.1546195015984348,0.21579990284688547,-0.33701108355335485,1.0
31.279999999993542,0.05027906042815277,-0.09484427027428984,0.013266681826280562,0.9969586935122495,0.01178030899623167,0.07629113744539777,0.010688783728283937,0.025417402480959174,0.15245629338168212,0.02338334692348348,-0.027265578839392585,0.07601433317294048,-0.041270712358450416,-0.009308919630276701,-0.16153457436904553,0.015484411971263646,0.2,0.0,0.0,-0.0194445767832241,-0.003679214259832891,-0.06260429391445615,0.0,0.0,0.0,-0.22221762401549203,-0.4329253650259657,0.8051294613417426,-0.14998526175382854,0.22052345584285815,-0.32034641885939497,1.0
31.30199999999353,0.049692666535373284,-0.09317040689632833,0.012359430158905706,0.9970923830147239,0.011704252597990104,0.0745129759436604,0.01084465864664834,0.025238450467127218,0.14888826026132665,0.023634140149366427,-0.025915686970867945,0.07616656072878214,-0.04119300015217442,-0.010619725452229525,-0.16228922434186163,0.01521567408362855,0.2,0.0,0.0,-0.017616531977541105,-0.0036199072192671018,-0.06353835543770889,0.0,0.0,0.0,-0.2293030515768095,-0.42478636412543663,0.799377944193697,-0.14528731989174437,0.22480832935563685,-0.30415043254389745,1.0
31.323999999993518,0.04913624195550081,-0.09149333631728879,0.011454290586138689,0.9972236647572961,0.011613665611025042,0.07272632117717305,0.010998519315752008,0.025028950821656827,0.145304119238102,0.023879091042074585,-0.02453883980079439,0.07630460458081205,-0.04107503065427521,-0.01192643618159971,-0.16301137730007456,0.01494475311975215,0.2,0.0,0.0,-0.015771096281338517,-0.003553718992646511,-0.06440963038201888,0.0,0.0,0.0,-0.2363551453787386,-0.4167455713946971,0.7936270588794829,-0.1405251353332183,0.2286454281192544,-0.28843373691398067,1.0
31.345999999993506,0.04861036788917869,-0.08981337075330859,0.01055214946864239,0.997352465475797,0.01150860080472937,0.07093153186974478,0.011150314052942286,0.024789062136536297,0.1417045940124457,0.024118291556346778,-0.023136221905883436,0.07642844732396743,-0.04091673995908522,-0.013227030088919567,-0.16370071053755483,0.014671263035459233,0.2,0.0,0.0,-0.01391008118981433,-0.0034811647792055804,-0.06521738063131696,0.0,0.0,0.0,-0.24337215554104097,-0.40880528209868006,0.7878768253823714,-0.13569818267581885,0.2320260509533277,-0.27320667536796917,1.0
31.367999999993494,0.048115599315289866,-0.08813082279858755,0.009653894237979792,0.9974787132217493,0.011389132881796172,0.06912897110767592,0.01129998563180444,0.02451898580984991,0.1380904154648708,0.024351825473216487,-0.021709033817193663,0.07653807212449559,-0.040718097577679704,-0.014519489191529188,-0.16435685116873808,0.014394839789768701,0.2,0.0,0.0,-0.012035294230766108,-0.003402759571987291,-0.06596091109042299,0.0,0.0,0.0,-0.25035238026114315,-0.40096790310101527,0.7821274483217215,-0.13080596147654627,0.2349418947103561,-0.2584793199805891,1.0
31.38999999999348,0.04765246464827157,-0.08644600540816419,0.008760412666046024,0.9976023374115051,0.011255358460332354,0.06731900689950444,0.011447471646451341,0.024218966047907443,0.13446232275123363,0.02457976862748049,-0.020258491194841997,0.07663346317991572,-0.04047910598448947,-0.01580180366990572,-0.16497937465214993,0.014115142001163924,0.2,0.0,0.0,-0.010148538322147236,-0.0033190172670357885,-0.06663956865853393,0.0,0.0,0.0,-0.25729416528988036,-0.3932359446618172,0.776379317558107,-0.1258480055834426,0.23738505827787543,-0.24426146854874142,1.0
31.41199999999347,0.04722146541327155,-0.08475923187087162,0.00787259214409766,0.9977232688842731,0.011107396005530226,0.06550201274983013,0.01159270488624366,0.023889289769389803,0.13082106442753078,0.024802189143384078,-0.018785824034119082,0.07671460614940095,-0.04019980020228679,-0.017071976246656875,-0.16556780354071407,0.013831851526370717,0.2,0.0,0.0,-0.008251611267135563,-0.0032304498229511398,-0.06725274126912847,0.0,0.0,0.0,-0.2641959032399391,-0.38561201205096945,0.7706330080749543,-0.1208238920955208,0.23934804665437276,-0.23056264104744495,1.0
31.433999999993457,0.046823075938460794,-0.08307081577310636,0.006991318970500213,0.9978414399692744,0.010945385711220647,0.06367836824468397,0.011735613719469571,0.023530286411919826,0.12716739959950427,0.025019147676983006,-0.01729227590232977,0.07678148855639659,-0.03988024742898578,-0.01832802651110584,-0.16612160646006538,0.013544673962835835,0.2,0.0,0.0,-0.006346305381484198,-0.003137566466679459,-0.06779985700684935,0.0,0.0,0.0,-0.27105603273413115,-0.3780987969628844,0.7648892791114155,-0.1157332499326198,0.2408237751164997,-0.2173920754483325,1.0
31.455999999993445,0.046457743060710384,-0.08138107095349721,0.006117477621393907,0.9979567845621827,0.0107694893318373,0.06184845964592989,0.01187612248451362,0.0231423276418959,0.12350209909238122,0.02523069766370599,-0.015779104709141952,0.07683410040792385,-0.039520558674615465,-0.019567995160565673,-0.1666401972385317,0.013253339076191906,0.2,0.0,0.0,-0.004434407247094476,-0.0030408729412405816,-0.0682803833112281,0.0,0.0,0.0,-0.27787304362394133,-0.3706990770230271,0.7591490807771728,-0.11057576172513023,0.2418057060372335,-0.20475859219703554,1.0
31.477999999993433,0.0461258856379718,-0.07969031141575988,0.0052519483511593214,0.9980692382100822,0.010579889967400342,0.06001268050552323,0.012014151887081841,0.022725826973001628,0.119825946662745,0.025436885570347803,-0.014247603239818702,0.07687243798041635,-0.03912106006720194,-0.020789947425930353,-0.1671229294307416,0.01295760116073853,0.2,0.0,0.0,-0.00251769758377918,-0.0029408707899915296,-0.0686938262535629,0.0,0.0,0.0,-0.2846455607039705,-0.3634158204819862,0.7534136647048368,-0.10535108605752957,0.2422897675762657,-0.19266870051775056,1.0
31.49999999999342,0.04582789379290248,-0.077998851187776,0.004395602394227589,0.9981787382002327,0.010376791813404472,0.058171432379042154,0.012149619402382619,0.022281239319447012,0.11613974041166704,0.025637751154136565,-0.01269908695243763,0.07689650232218219,-0.03868221136111016,-0.021991975584476364,-0.16756908510518095,0.012657239361440326,0.2,0.0,0.0,-0.0005979512357457424,-0.0028380566738654797,-0.06903972988477651,0.0,0.0,0.0,-0.29137228628913914,-0.3562521030749448,0.7476845077787969,-0.10005892176081793,0.24227350082872642,-0.18112743377566676,1.0
31.521999999993408,0.04556412864705937,-0.07630700424997246,0.0035493007738795915,0.9982852236550025,0.010160419873217141,0.056325125615127605,0.012282439681190348,0.021809060478347176,0.1124442943525896,0.025833327726713855,-0.011134877412691795,0.07690629698935346,-0.03820448285917923,-0.023172202858225976,-0.16797787420557284,0.01235205793798981,0.2,0.0,0.0,0.001323062729081187,-0.0027329217214641663,-0.06931767574838162,0.0,0.0,0.0,-0.29805193262287344,-0.3492110090181012,0.7419632197208729,-0.09469908209387157,0.24175470998594006,-0.17013967628407806,1.0
31.543999999993396,0.04533492218779569,-0.07461508447670594,0.00271389403584605,0.9983886356385182,0.00993101962350347,0.05447418013387927,0.012412524958183577,0.02130982651953042,0.10874043996036001,0.026023642417615393,-0.009556302053186888,0.07690182836799421,-0.037688357849294384,-0.02432878742698592,-0.16834843617504444,0.012041886448895912,0.2,0.0,0.0,0.003243580824488481,-0.0026259509041800166,-0.06952728253059463,0.0,0.0,0.0,-0.30468322349069443,-0.3422956237941528,0.7362515412333915,-0.08927149848745569,0.24073149052145304,-0.15971013189814445,1.0
31.565999999993384,0.04514057714505334,-0.07292340557147865,0.0018902219680425004,0.9984889172749974,0.009688856633515423,0.052619026185696305,0.012539785461004323,0.020784113084078636,0.1050290276847775,0.026208716435605024,-0.00796469359417682,0.07688310592527123,-0.03713433208136555,-0.025459926296549636,-0.16867984174286335,0.011726579857958198,0.2,0.0,0.0,0.0051618448675708455,-0.0025176224313393065,-0.06966820584204002,0.0,0.0,0.0,-0.31126489408111346,-0.33550902472304106,0.7305513392510894,-0.08377622536450469,0.23920222443347197,-0.1498433244958779,1.0
31.58799999999337,0.044981366880513934,-0.07123228099669783,0.0010791133308204026,0.9985860138782341,0.009434216139742796,0.05076010508802002,0.012664129818554873,0.020232534594419364,0.10131092842394053,0.02638856532663924,-0.006361389502163561,0.07685014245409295,-0.03654291334429126,-0.02656385902205499,-0.16897109495818877,0.011406018565194201,0.2,0.0,0.0,0.007076101626791401,-0.0024084071614555776,-0.06974013813816389,0.0,0.0,0.0,-0.31779569074586994,-0.3288542715051847,0.7248646014762395,-0.07821344437179661,0.23716557610668157,-0.1405435972680667,1.0
31.60999999999336,0.04485753528831553,-0.06954202389810138,0.0002813855954974996,0.9986798730916577,0.009167402577550473,0.04889786993726653,0.012785465467088593,0.01965574337904981,0.09758703495232567,0.026563199227361816,-0.004747731482186928,0.0768029543132714,-0.03591462114613969,-0.027638871274056103,-0.16922113545953157,0.011080108364293371,0.2,0.0,0.0,0.008984602407410822,-0.002298768025919529,-0.06974280878431414,0.0,0.0,0.0,-0.3242743706507971,-0.3223343967205804,0.7191934301825021,-0.07258346803385446,0.23462048883651831,-0.13181511076869346,1.0
31.631999999993347,0.044769296706640115,-0.06785294702392931,-0.0005021553111271642,0.9987704450382774,0.008888739071575077,0.047032786293365034,0.01290369905269638,0.01905442871528465,0.09385826329875596,0.026732623113166713,-0.0031250649991167814,0.07674156166507064,-0.035249986499833436,-0.02868329823603021,-0.16942884096848868,0.010748780328699338,0.2,0.0,0.0,0.01088560258573643,-0.0021891594617512184,-0.06967598427060474,0.0,0.0,0.0,-0.33069970130826,-0.3159523962673467,0.7135400352753716,-0.06688674284243107,0.23156618205076468,-0.12366183968813346,1.0
31.653999999993335,0.04471683583958388,-0.06616536263888154,-0.001270715258613105,0.9988576824797558,0.008598566886789486,0.045165332834451344,0.013018736828839405,0.01842931579369982,0.09012555406965887,0.02689683704000481,-0.001494738822878771,0.07666598871179829,-0.034549551816081596,-0.029695527823186418,-0.1695930299959512,0.01041199062844739,0.2,0.0,0.0,0.012777361104115485,-0.00208002685037368,-0.06953946858077582,0.0,0.0,0.0,-0.3370704599818979,-0.3097112197239644,0.7079067265998789,-0.06112385179724611,0.22800214925970227,-0.11608756831782421,1.0
31.675999999993323,0.04470030768883701,-0.06447958243286839,-0.00202351216344534,0.9989415409837762,0.008297244842266342,0.04329600197940403,0.013130485047631544,0.01778116460819659,0.08638987371325539,0.02705583637924812,0.00014189540780507103,0.07657626393287205,-0.033813870904726845,-0.030674003713626313,-0.1697124647486711,0.010069720279912979,0.2,0.0,0.0,0.014658139939021623,-0.0019718059597368266,-0.06933310371830184,0.0,0.0,0.0,-0.3433854329544233,-0.30361376062026985,0.7022959054892918,-0.05529551641591496,0.22392815676208586,-0.10909588468192219,1.0
31.69799999999331,0.04471983749482289,-0.06279591742453063,-0.0027597762407202903,0.9990219790987839,0.007985148689780864,0.04142530047605156,0.013238850343630716,0.017110768775831953,0.08265221572057012,0.02720961204506108,0.0017834836088922315,0.07647242032355268,-0.033043509085071726,-0.03161722818411551,-0.1697858542238249,0.009721974830656094,0.2,0.0,0.0,0.01652620355495112,-0.0018649223875125006,-0.06905677039199597,0.0,0.0,0.0,-0.34964341464915255,-0.2976628466034882,0.6967100555516994,-0.04940259823298776,0.21934424313002285,-0.1026901733186231,1.0
31.7199999999933,0.0447755206870747,-0.06111467785948308,-0.0034787502593486715,0.9990989585351336,0.007662670459488407,0.039553749953023985,0.01334374010895749,0.01641895429075122,0.07891360175940533,0.027358150713862023,0.003428669667720379,0.07635449563628251,-0.03223904340511402,-0.03252376474394947,-0.1698118574790198,0.009368783981579726,0.2,0.0,0.0,0.018379818357129655,-0.0017597910034979863,-0.06871038886229802,0.0,0.0,0.0,-0.3558432065963044,-0.29186122948684723,0.6911517326950443,-0.04344609981009051,0.21425071949133598,-0.09687360670140935,1.0
31.741999999993286,0.044867422843762717,-0.05943617310321689,-0.004179689803165342,0.9991724443516036,0.007330217774993767,0.03768188743337025,0.013445062858621036,0.01570657821671845,0.07517508273767767,0.027501435035589168,0.005076095859175154,0.07622253262530727,-0.03140106296896726,-0.0333922405616254,-0.16978908706505927,0.00901020114865603,0.2,0.0,0.0,0.02021725215627324,-0.001656815389792238,-0.06829391994834273,0.0,0.0,0.0,-0.3619836162353366,-0.2862115751699857,0.6856235543948015,-0.03742716528087958,0.20864817062333235,-0.09164913529829699,1.0
31.763999999993274,0.04499557966042426,-0.05776071152858352,-0.004861863540313407,0.999242405146182,0.00698821314019646,0.03581026580821037,0.013542728584996765,0.014974527322868308,0.07143773979277106,0.027639443836612636,0.00672440326775462,0.07607657929499226,-0.030530169371065084,-0.03422134868025567,-0.1697161126087118,0.008646302966514675,0.2,0.0,0.0,0.022036773658782382,-0.0015563872777532646,-0.06780736619477268,0.0,0.0,0.0,-0.368063455545082,-0.28071645342220664,0.6801281882124779,-0.031347080456172516,0.2025374568669843,-0.08701947627530601,1.0
31.785999999993262,0.045159996928091875,-0.05608860039777762,-0.005524553503232165,0.9993088132499857,0.006637093200349692,0.03393945426884255,0.013636649100466405,0.014223716667400245,0.06770268520381856,0.02777215231425684,0.008372232222104257,0.07591668915197722,-0.029626977235055647,-0.0350098500188655,-0.16959146453271526,0.008277188736230935,0.2,0.0,0.0,0.023836651995839668,-0.0014588859811836103,-0.0672507731960987,0.0,0.0,0.0,-0.3740815394941897,-0.27537832752165897,0.6746683395773732,-0.025207272516108936,0.19591971686546725,-0.08298710085870684,1.0
31.80799999999325,0.04536065052116039,-0.054420145738734715,-0.006167055381525408,0.9993716449231331,0.006277307979810319,0.03207003869587495,0.013726738367299565,0.013455088134002405,0.06397106322408212,0.02789953222301516,0.010018222748687584,0.07574292146104451,-0.028692114854590067,-0.035756575157901024,-0.16941363790028838,0.00790297981969977,0.2,0.0,0.0,0.025615156304875073,-0.0013646778256404856,-0.06662423107523455,0.0,0.0,0.0,-0.38003668430498494,-0.2701995437459959,0.66924673884828,-0.01900930931735534,0.1887963711258503,-0.07955422037911039,1.0
31.829999999993237,0.04559748639548094,-0.05275565221586572,-0.006788678829917922,0.9994308805513464,0.005909320098983144,0.03020262200410248,0.013812912813925696,0.01266960892583032,0.06024405083085548,0.028021552052651957,0.0116610150512977,0.0755553415043157,-0.027726224932494013,-0.03646042590842427,-0.1691810963715242,0.007523818983032922,0.2,0.0,0.0,0.027370555376777492,-0.0012741155742002311,-0.06592787611163144,0.0,0.0,0.0,-0.38592770552505007,-0.26518232071243386,0.6638661276765636,-0.012754898344567278,0.18116912639739452,-0.07672277102912939,1.0
31.851999999993225,0.04587042059731744,-0.05109542299506075,-0.007388747793423682,0.9994865048420458,0.005533603972975739,0.028337824441997294,0.013895091636816582,0.011868270021873326,0.05652285839056797,0.0281381771984924,0.013299250023103273,0.07535402084313449,-0.026729965414097934,-0.037120376665581656,-0.16889227625918865,0.007139869691471682,0.2,0.0,0.0,0.029101117382075756,-0.0011875378504364175,-0.06516189251323404,0.0,0.0,0.0,-0.39175341590176127,-0.2603287385681322,0.6585292446966652,-0.006445885336000379,0.17303998085460615,-0.0744943973750479,1.0
31.873999999993213,0.04617933928394777,-0.04943975960291176,-0.00796660085174915,0.9995385070186483,0.0051506449944799665,0.02647628384482881,0.013973197087271377,0.011052084600523105,0.05280873023701597,0.028249370124301114,0.014931569797852581,0.07513903758175239,-0.025704010409788227,-0.03773547554799585,-0.16854559067165628,0.006751315358365069,0.2,0.0,0.0,0.03080510968906019,-0.001105268559781752,-0.06432651432528153,0.0,0.0,0.0,-0.3975126230564065,-0.25564072803467885,0.653238810575048,-8.425261387795535e-05,0.16441123006780295,-0.07287043467165888,1.0
31.8959999999932,0.04652409875683633,-0.04778896178012496,-0.008521591584839344,0.9995868810118042,0.004760938703384256,0.024618655840574596,0.014047154742469333,0.01022208643511303,0.049102945160896846,0.028355090518242837,0.01655661834673806,0.07491047663169895,-0.024649051201133632,-0.03830484532573945,-0.1681394337309672,0.006358358550823931,0.2,0.0,0.0,0.032480798786488636,-0.0010276163108379663,-0.06342202746777381,0.0,0.0,0.0,-0.4032041269559631,-0.25112005931381065,0.6479975124537147,0.006327882849565036,0.155285473738614,-0.07185189003814997,1.0
31.91799999999319,0.046904525508446114,-0.04614332732912091,-0.009053088961343204,0.9996316256462573,0.004364989945596536,0.022765614007924543,0.014116893760228327,0.00937932826612739,0.04540681680905732,0.028455295442504285,0.01817304212724136,0.07466842997550739,-0.02356579732424582,-0.03882768414050143,-0.16767218485429305,0.005961220154722356,0.2,0.0,0.0,0.03412645032310995,-0.0009548738385634372,-0.062448771892246964,0.0,0.0,0.0,-0.4088267171821572,-0.24676833086493696,0.6428079878294746,0.012788271599372125,0.14566562317251117,-0.07143942256150176,1.0
31.939999999993177,0.04732041628389525,-0.04450315195585155,-0.00956047775162838,0.9996727448220382,0.003963312023522665,0.020917849985819314,0.014182347116980621,0.008524880154686021,0.041721693992104035,0.028549939477233655,0.019779490790043344,0.0744129969282655,-0.02245497772335694,-0.03930326602244545,-0.167142213087448,0.005560138501780703,0.2,0.0,0.0,0.035740329275739134,-0.0008873174316156431,-0.061407143847351575,0.0,0.0,0.0,-0.4143791699993073,-0.24258695806863312,0.6376728079155525,0.019294534067566038,0.13555490945531817,-0.0716333224022902,1.0
31.961999999993164,0.04777153815879384,-0.0428687291058985,-0.010043158966814692,0.9997102476886838,0.0035564258405995806,0.01907607353409811,0.014243451828550524,0.007659827821795698,0.038048960899250237,0.02863897485952467,0.021374617949789863,0.07414428439528781,-0.021317341966933342,-0.039730941209082465,-0.16654788147946972,0.005155368461526727,0.2,0.0,0.0,0.03732070025705279,-0.0008252063664311928,-0.060297598241588694,0.0,0.0,0.0,-0.4198602452242922,-0.23857716179418006,0.6325944605373477,0.02584416311487181,0.12495689229548743,-0.0724334889860723,1.0
31.983999999993152,0.048257628634721134,-0.04124034979495661,-0.010500550325120043,0.9997441488111947,0.003144859042227039,0.017241012544960143,0.014300149153391261,0.006785270977725462,0.034390037219491756,0.028722351618233517,0.022957082025154788,0.0738624071240476,-0.02015366151802339,-0.040110136272235114,-0.16588755148772474,0.0047471805009929435,0.2,0.0,0.0,0.038865827973608734,-0.0007687823509107105,-0.05912065109049781,0.0,0.0,0.0,-0.4252686829041448,-0.23473995689314375,0.6275753326196281,0.03243452671466751,0.1138754694891458,-0.07383940837140715,1.0
32.00599999999315,0.04877839575391863,-0.03961830243384852,-0.010932086746623942,0.9997744683264522,0.0027291451553772923,0.015413413005068629,0.01435238477801035,0.005902321645711112,0.030746378168416987,0.02880001770547035,0.024525547153239277,0.0735674879483773,-0.018964731049926166,-0.04044035405985519,-0.16515958740345574,0.0043358597150679745,0.2,0.0,0.0,0.04037397784387575,-0.0007182689808143578,-0.05787688203452828,0.0,0.0,0.0,-0.4306031998089416,-0.231076140645174,0.6226176923277582,0.03906287075041692,0.10231488696007407,-0.07585012989331123,1.0
32.025999999993175,0.04928164191866705,-0.0381494489931657,-0.011301495551612497,0.9997989451602238,0.0023480778179400235,0.013759076226606895,0.014395958059628868,0.005093302205147233,0.027448460700104878,0.028865622297499068,0.02593815810712917,0.07328817245225126,-0.01786266286973983,-0.04069769530433062,-0.1644377406391209,0.0039594642852059676,0.2,0.0,0.0,0.04171147658269081,-0.0006776496367640992,-0.056688739093176135,0.0,0.0,0.0,-0.4353875125892047,-0.22789634245554188,0.6181658999350683,0.045119180698494465,0.09139333435278335,-0.0782017084015197,1.0
32.0459999999932,0.04981301898723897,-0.0366862771293404,-0.011648685918910462,0.9998205069022602,0.001964435801781335,0.012112123943004614,0.014435768884162644,0.004279124483386631,0.02416553545338719,0.028926420846466357,0.027337108055137938,0.07299829147105184,-0.016741037709575517,-0.040913948403176845,-0.16365743675608516,0.0035809599910631125,0.2,0.0,0.0,0.043015682428650816,-0.0006422250080681304,-0.055446438858727944,0.0,0.0,0.0,-0.4401086450620034,-0.22486056768922952,0.6137681775219432,0.05120226393224092,0.08008330731611399,-0.08105055524550413,1.0
32.065999999993224,0.05037224484570325,-0.03522899716640906,-0.011973272551321003,0.999839181241291,0.0015786290581104344,0.010473155068702908,0.01447178661907512,0.0034606435121188805,0.020898771665403965,0.028982370310847983,0.028721409971416163,0.07269795562807992,-0.015600508211399675,-0.041088902543058844,-0.1628174712860023,0.0032005883192663424,0.2,0.0,0.0,0.04428529740759664,-0.0006121219845316637,-0.05415056446148317,0.0,0.0,0.0,-0.44476556739198814,-0.2219688994077967,0.6094258981202444,0.05730980064425589,0.06838878975027633,-0.08439491609108575,1.0
32.08599999999325,0.050959017699561744,-0.03377781716136296,-0.012274883378097127,0.9998550000048937,0.0011910693292458434,0.008842780469247814,0.014503984026435508,0.002638718373135565,0.017649362312954196,0.029033426563765976,0.03009008363705414,0.07238728163216669,-0.01444174646629922,-0.04122239779049955,-0.16191665325391155,0.002818598071367022,0.2,0.0,0.0,0.04551902674649903,-0.0005874537884252851,-0.05280174931179564,0.0,0.0,0.0,-0.44935722368546654,-0.21922124204134563,0.6051403057738853,0.06343939532490828,0.056314032449378215,-0.08823267420426076,1.0
32.10599999999327,0.05157301621719487,-0.03233294278142833,-0.012553159951720275,0.9998679992179101,0.0008021696283853107,0.007221622792190684,0.014532337324300225,0.0018142111731121466,0.014418523847237377,0.02907954447267491,0.03144215646148945,0.07206639238780714,-0.013265444879700447,-0.04131432457525794,-0.16095380791064087,0.002435244700722464,0.2,0.0,0.0,0.046715579798258675,-0.0005683197043730632,-0.051400678738010616,0.0,0.0,0.0,-0.4538825293785451,-0.21661731437860215,0.600912504060455,0.06958857861891754,0.04386356055113577,-0.09256133477445921,1.0
32.1259999999933,0.05221389969020628,-0.03089457717924561,-0.012807757861916076,0.999878219151649,0.00041234372509240313,0.005610316270752642,0.014556826237913049,0.0009879860267621686,0.011207495875091558,0.029120677980237975,0.03277666435638934,0.07173541709377221,-0.012072317028020333,-0.04136462309651291,-0.15992777944990424,0.002050789642796919,0.2,0.0,0.0,0.04787367107864466,-0.0005548048280192395,-0.04994809161037422,0.0,0.0,0.0,-0.45834036857353466,-0.21415664266161533,0.5967434446766609,0.07575480917099886,0.031042181113097242,-0.09737800921851189,1.0
32.14599999999332,0.052881308211722045,-0.02946292086618858,-0.013038347166681606,0.9998857043633333,2.2005637357865687e-05,0.004009506500508456,0.014577434040814205,0.0001609080498424328,0.008017540786960363,0.029156780186897362,0.034092652662575586,0.07139449132906439,-0.010863098500699433,-0.04137328265674754,-0.15883743370680267,0.0016654996405312847,0.2,0.0,0.0,0.048992021417038525,-0.0005469798353862845,-0.04844478194119527,0.0,0.0,0.0,-0.4627295913365703,-0.2118385538135305,0.5926339161368351,0.08193547545273205,0.017854990778407617,-0.1026793995359743,1.0
32.165999999993346,0.05357486287370751,-0.028038171584086287,-0.013244612839976648,0.9998905037252792,-0.00036843086895699614,0.002419850189379657,0.014594147585976498,-0.0006661576366163524,0.004849943331882642,0.02918780343563903,0.035389177130216276,0.07104375712511507,-0.009638547721468108,-0.04134034092830341,-0.1576816608347141,0.0012796460664403308,0.2,0.0,0.0,0.05006935922210901,-0.0005449007748054644,-0.046891600451342726,0.0,0.0,0.0,-0.4670490109709961,-0.20966216882960292,0.5885845326359274,0.0881278975639499,0.0043073834931076915,-0.10846178278802619,1.0
32.18599999999337,0.05429416598436685,-0.026620524175632834,-0.013426255235607618,0.9998926704433205,-0.0007585527725396875,0.0008420148812577654,0.014606957327113358,-0.0014923468895837134,0.0017060101398539912,0.029213699399443342,0.03666530495215349,0.07068336302316118,-0.008399446742613982,-0.04126588315762526,-0.15645937795781936,0.0008935042431028452,0.2,0.0,0.0,0.05110442186297696,-0.000548608883259537,-0.04528945609297962,0.0,0.0,0.0,-0.4712974012822155,-0.20762639636372682,0.5845957231300396,0.09432932900356583,-0.009594941764040209,-0.1147209957736159,1.0
32.205999999993395,0.055038801306683934,-0.02521017045379038,-0.013582990566707743,0.9998922620640063,-0.0011479482802063186,-0.0007233213463933706,0.01461585733032918,-0.0023167975136432575,-0.001412930808039598,0.029234419171902178,0.03792011584986814,0.0703134641157939,-0.007146602005974785,-0.04115004131224205,-0.15516953179678092,0.0005073527637131446,0.2,0.0,0.0,0.05209595716586377,-0.0005581304289131145,-0.04363931751832266,0.0,0.0,0.0,-0.4754734938512677,-0.20572992654432667,0.5806677206893751,0.10053695840607632,-0.023845973278947122,-0.12145241997749467,1.0
32.22599999999342,0.05580833431915027,-0.0238072990705107,-0.013714551400091278,0.9998893404701622,-0.0015362073009931004,-0.002275470210582087,0.014620845276307519,-0.003138650215885209,-0.004505530761268879,0.029249913361468437,0.03915270321121389,0.06993422207172965,-0.005880845064352935,-0.040992993175532344,-0.15381110126533828,0.00012147281436182252,0.2,0.0,0.0,0.05304272502563115,-0.0005734765815333275,-0.04194221448412292,0.0,0.0,0.0,-0.47957597533555174,-0.20397122505540585,0.5768005521798115,0.10674791124174399,-0.03843937896724533,-0.12865096686563754,1.0
32.245999999993444,0.056319256042715246,-0.02254370482747854,-0.013757207571579479,0.9998839697644031,-0.0019229028554748316,-0.0038149785469717874,0.014621743790425372,-0.00395704655115325,-0.007572911785387603,0.029259779877631047,0.007625789977103663,0.055135115505898745,0.002217601532574773,-0.04079367595505441,-0.15296010752683095,-0.00033907170746674874,0.2,0.0,0.0,0.0539442668692308,-0.0005945488026505009,-0.040199968362566785,-27.335924475090216,-15.886475847534658,8.269813899912588,-0.328575440513347,-0.16924469384725208,0.5362845625576234,-0.03846350834531306,-0.07484465822292076,-0.26757252953767025,1.0
32.26599999999347,0.05619657540971333,-0.021563523450322218,-0.01364667013546046,0.9998761819459354,-0.00230742590650602,-0.005350807407915062,0.01461729875824433,-0.004770996916110341,-0.01063303345817555,0.029261500460292963,-0.022788347935816872,0.04156495073323805,0.009534556202954477,-0.04053968555853031,-0.1532997560864751,-0.0009977634591377457,0.2,0.0,0.0,0.054800225928551764,-0.0006212346278452912,-0.03841439052534016,-27.335924475090216,-15.886475847534658,8.269813899912588,-0.18286521405404277,-0.1336892115785865,0.4932734499425789,-0.17671843939361132,-0.1084804586161684,-0.3965006846747916,1.0
32.28599999999349,0.05547334174650167,-0.020852652365699043,-0.013391606455177259,0.9998659533589609,-0.00268897854753879,-0.006894763120601716,0.014605031648597553,-0.0055791859081962885,-0.013709562020722649,0.029250146656182835,-0.05235198234105152,0.028225821888191657,0.016650260006630006,-0.04021736514908893,-0.15484222311874565,-0.00198988150408382,0.2,0.0,0.0,0.05560941238418862,-0.0006535180816604695,-0.03658647482215715,-27.335924475090216,-15.886475847534658,8.269813899912588,-0.03677093125024199,-0.10143821098973825,0.4504326997675818,-0.31222330215039357,-0.14174072155228068,-0.525567735231899,1.0
