t,px,py,pz,qw,qx,qy,qz,roll,pitch,yaw,vx,vy,vz,wx,wy,wz,cur_x,cur_y,cur_z,wav_x,wav_y,wav_z,kick_x,kick_y,kick_z,u0,u1,u2,u3,u4,u5,dist_on
9.52399999999985,-0.04743515102868238,-0.014891998111559635,0.004881412763731972,0.9998858117755948,-7.024970956495235e-05,-0.01510301189277135,0.0005074510865710877,-0.0001558825695482867,-0.030207096945598307,0.001017372548100711,0.017156893725849807,0.010063382988799899,-0.00030851024253954765,0.005591311708685886,0.010891334033582358,-0.00010843425484012144,0.0,0.0,0.0,0.0,0.0,0.0,0.0,0.0,0.0,0.017331814919431962,0.05595430416745595,-0.05906280862496797,-0.014223445877017418,-0.5816075739507865,-0.5428863909705512,0.0
9.543999999999857,-0.04708906773742031,-0.014691663590778165,0.0048750675331966035,0.9998874776177538,-1.4440880447891283e-05,-0.014992485508594349,0.0005072208008857652,-4.4107340476465946e-05,-0.02998607592243504,0.0010152170275637006,0.01762151205046183,0.009959992639219371,-0.0003190747668695793,0.005575709265257248,0.01105731360010519,-0.00010409989743927802,0.0,0.0,0.0,0.0,0.0,0.0,0.0,0.0,0.0,0.22802604345481958,0.26730527590783143,-0.2703628590040252,-0.22496937561160618,-0.5818783010624325,-0.5425953514013065,0.0
9.563999999999863,-0.04672715379915119,-0.014493387464219307,0.004868795327244799,0.9998890823026216,4.118988725351554e-05,-0.01488503679638403,0.0005070256242203182,6.730627244950023e-05,-0.029771210966625158,0.0010131616815969538,0.018804950999107867,0.009857483544748772,-0.00030315335708661447,0.005554351809034821,0.01004654479771213,-0.00010137670116614912,0.0,0.0,0.0,0.0,0.0,0.0,0.0,0.0,0.0,0.42544667600182534,0.46535950438897594,-0.4683791409148131,-0.4224286854712639,-0.5823474648025465,-0.5425121645091353,0.0
9.58399999999987,-0.046337823700798426,-0.014297157898545892,0.004862948792688667,0.9998904782139519,9.65906279333377e-05,-0.014790718600128948,0.0005068437782547577,0.00017824491997981795,-0.02958260988789165,0.001011161835449305,0.02026558616687758,0.009755238191857763,-0.00027945485056630527,0.005527284896448242,0.008512021362127305,-0.00010114578829897554,0.0,0.0,0.0,0.0,0.0,0.0,0.0,0.0,0.0,0.4269977910469419,0.46750986016009977,-0.470512647258809,-0.42399665678293486,-0.5828307194711305,-0.5424550345768475,0.0
9.603999999999877,-0.04591949360379291,-0.01410297350215034,0.004857566175489102,0.9998916371670126,0.00015170592131182989,-0.014711703357034324,0.0005066489100419952,0.0002885965567294048,-0.029424617862091423,0.001009161320974847,0.021711626918926107,0.009652975621841118,-0.0002565955478199806,0.005494560458236793,0.006978841028683453,-0.00010323482278405319,0.0,0.0,0.0,0.0,0.0,0.0,0.0,0.0,0.0,0.4285523688025243,0.46962911576933253,-0.4726358421169161,-0.4255473020780022,-0.5833213482868999,-0.5424180595522096,0.0
9.623999999999883,-0.045472264458852336,-0.013910834291225624,0.00485263682881762,0.9998925618381873,0.00020647978033310648,-0.014648060906163827,0.0005064172739885234,0.0003982500454060792,-0.02929737440675064,0.0010071090324004362,0.023155235967216848,0.009550723077474432,-0.00023416196904484674,0.005456236033109425,0.005435104183824655,-0.00010737426728885222,0.0,0.0,0.0,0.0,0.0,0.0,0.0,0.0,0.0,0.4300752458154075,0.47168371625898753,-0.4747135521520254,-0.42704707615574794,-0.5838226962720038,-0.5424045935681641,0.0
9.64399999999989,-0.04499618619911437,-0.013720739934031731,0.0048481526754399415,0.9998932537460543,0.0002608567911234626,-0.014599893890063864,0.0005061277128142351,0.0005070952767532242,-0.029201084666035607,0.0010049590128092159,0.024596245805402886,0.009448495073760872,-0.0002121063345534845,0.005412374708368941,0.003881652625968542,-0.0001133167030693529,0.0,0.0,0.0,0.0,0.0,0.0,0.0,0.0,0.0,0.4315659605909184,0.47367465793632285,-0.4767452764141718,-0.4284970147797103,-0.5843356042517848,-0.5424155140589041,0.0
9.663999999999897,-0.04449131258354645,-0.013532689811060438,0.0048441065732902746,0.9998937138607026,0.00031478215020305415,-0.014567295540517385,0.0005057614893577834,0.0006150233000318319,-0.029135934974584922,0.001002670141144195,0.02603445976080449,0.009346305870142266,-0.0001903824613311893,0.005363045019716094,0.0023194767658507144,-0.0001208297246689338,0.0,0.0,0.0,0.0,0.0,0.0,0.0,0.0,0.0,0.4330241769279367,0.47560300573124403,-0.4787306447849887,-0.4298982167983877,-0.5848608898113175,-0.5424516700799477,0.0
9.683999999999903,-0.0439577012770968,-0.01334668301955078,0.004840492297379961,0.9998939425939599,0.00036820172126008645,-0.014550349176091971,0.000505302139436381,0.0007219264486665327,-0.029102091854150285,0.001000205859437318,0.02746968427790881,0.009244169512699837,-0.00016894491106597673,0.0053083208469826785,0.0007495653202533284,-0.0001296953689478417,0.0,0.0,0.0,0.0,0.0,0.0,0.0,0.0,0.0,0.4344495927881507,0.4774698032711595,-0.4806693268920434,-0.43125175417468,-0.5853993518489357,-0.5425138868196786,0.0
9.70399999999991,-0.043395413786914395,-0.01316271837767343,0.004837304524214008,0.999893939783999,0.0004210620908461392,-0.014549128227941376,0.000504735330463593,0.0008276984619612556,-0.029099702066818584,0.000997533911308563,0.02890172901568453,0.009142099843174541,-0.00014774906789117486,0.005248281304670709,-0.0008270883876475689,-0.00013970953116557814,0.0,0.0,0.0,0.0,0.0,0.0,0.0,0.0,0.0,0.4358419390964318,0.4792760730525092,-0.4825610308516979,-0.4325586722149285,-0.5859517693976881,-0.5426029644741663,0.0
9.723999999999917,-0.04280451539795017,-0.012980794428541787,0.004834538814620513,0.999893704691555,0.00047331062237086584,-0.01456369562068872,0.0005040487261367303,0.0009322346028478246,-0.029128891378221798,0.0009946260929535168,0.030330406859779318,0.009040110507272707,-0.00012675122233795304,0.00518301062754406,-0.0024092895741248824,-0.0001506813987804855,0.0,0.0,0.0,0.0,0.0,0.0,0.0,0.0,0.0,0.43720097929200064,0.48102281737346975,-0.48440550275358063,-0.4338199905683169,-0.5865188995485704,-0.5427196762322813,0.0
9.743999999999923,-0.04218507510830376,-0.012800909444062035,0.004832191594544979,0.9998932360256949,0.0005248955077585635,-0.0145941012901061,0.0005032318577067797,0.001035431771580023,-0.02918975959390391,0.0009914580192756394,0.03175553393556373,0.008938214962414509,-0.00010590869911863292,0.005112598051450779,-0.003995648473867189,-0.00016243290673599936,0.0,0.0,0.0,0.0,0.0,0.0,0.0,0.0,0.0,0.4385265103658596,0.4827110207697512,-0.48620252762250193,-0.43503670573819153,-0.587101472432255,-0.542864763327498,0.0
9.76399999999993,-0.0415371655643402,-0.012623061428633285,0.004830260133231651,0.9998925319501781,0.0005757658184612694,-0.014640381238293802,0.0005022760003738229,0.0011371886155263952,-0.029282378670957936,0.000988008899657606,0.0331769296172163,0.008836426484910943,-8.517997408895225e-05,0.005037137689773397,-0.005584774290857328,-0.0001747981972067582,0.0,0.0,0.0,0.0,0.0,0.0,0.0,0.0,0.0,0.4398183626552361,0.4843416512945985,-0.48795192912947444,-0.4362097924454871,-0.5877001882693963,-0.5430389321656046,0.0
9.783999999999937,-0.04086086299565156,-0.012447248122709408,0.004828742519397161,0.9998915900788351,0.000625871555520137,-0.014702557565939772,0.0005011740547109918,0.0012374056350928336,-0.029406792783968638,0.000984261322624846,0.034594416534389494,0.008734758176571251,-6.45247621303192e-05,0.004956728405787104,-0.007175280654575902,-0.00018762309082133625,0.0,0.0,0.0,0.0,0.0,0.0,0.0,0.0,0.0,0.4410763988644194,0.4859156610416672,-0.48965356852278624,-0.4373402042413662,-0.5883157160079439,-0.5432428530453047,0.0
9.803999999999943,-0.04015624714989765,-0.01227346700623349,0.004827637635693283,0.999890407473943,0.0006751636981696059,-0.014780638522521988,0.0004999204333134831,0.0013359852857563598,-0.029563018426783175,0.0009802010502714211,0.03600782057749197,0.008633222970782712,-4.39041005145569e-05,0.004871473681170474,-0.00876578719787709,-0.00020076457277549783,0.0,0.0,0.0,0.0,0.0,0.0,0.0,0.0,0.0,0.44230051308393725,0.4874339866664574,-0.4913073435518761,-0.4384288741239526,-0.5889486920416711,-0.5434771589651719,0.0
9.82399999999995,-0.039423401227553154,-0.012101715301955288,0.0048269451315383636,0.9998889806475999,0.0007235942509646022,-0.014874618573051224,0.0004985109525233235,0.0014328320762293971,-0.029751044547303596,0.0009758168220566592,0.037416970901649145,0.008531833638086747,-2.3280428230221063e-05,0.00478148148092454,-0.010354921251081093,-0.00021409029374366012,0.0,0.0,0.0,0.0,0.0,0.0,0.0,0.0,0.0,0.443490629811819,0.4888975499063512,-0.49291318738852247,-0.43947671515844344,-0.5895997190036057,-0.5437424445099361,0.0
9.843999999999957,-0.03866241181658666,-0.011931989978641503,0.004826665394399859,0.9998873055660944,0.0007711162894132514,-0.014984478481660343,0.0004969427290805731,0.0015278526627762058,-0.029970832715913335,0.0009711001675841785,0.03882169992945137,0.008430602791273974,-2.6176611015918094e-06,0.004686864114946676,-0.011941319519442002,-0.00022747808556277887,0.0,0.0,0.0,0.0,0.0,0.0,0.0,0.0,0.0,0.44464670297944936,0.49030725809721265,-0.49447106754859277,-0.44048462109781084,-0.5902693646374014,-0.5440392648184479,0.0
9.863999999999963,-0.03787336882709482,-0.011764287754188347,0.004826799519613365,0.9998853776572103,0.000817684004098618,-0.015110185411849428,0.0004952140815522345,0.0016209559397052445,-0.030222317327154042,0.0009660452279816899,0.040221843352597215,0.008329542890020449,1.8118737435422624e-05,0.004587738096497663,-0.013523629738234288,-0.0002408154916266444,0.0,0.0,0.0,0.0,0.0,0.0,0.0,0.0,0.0,0.4457687149845218,0.4916640046850488,-0.4959809848175714,-0.44145346700188964,-0.5909581607485584,-0.5443681346345765,0.0
9.88399999999997,-0.03705636542591286,-0.011598605098645319,0.004827349278826138,0.999883191820434,0.0008632527432742111,-0.015251693043150015,0.0004933244363909287,0.0017120531260630414,-0.030505405834177338,0.0009606485855069818,0.041617240132535364,0.008228666245086296,3.896169002355834e-05,0.004484223997791753,-0.015100512301324868,-0.00025399931189401016,0.0,0.0,0.0,0.0,0.0,0.0,0.0,0.0,0.0,0.44685667573345905,0.4929686697314038,-0.49744297218290856,-0.442384109852841,-0.5916666022372141,-0.544729527442131,0.0
9.903999999999977,-0.03621149797122049,-0.011434938237158842,0.004828317087155421,0.9998807424400051,0.0009077790539191395,-0.01540894170393088,0.0004912742384765238,0.0018010578485567945,-0.03081997901541371,0.0009549091010134553,0.043007732500204704,0.008127985022097323,5.994244365038549e-05,0.004376446302931181,-0.016670641859235277,-0.0002669351623826308,0.0,0.0,0.0,0.0,0.0,0.0,0.0,0.0,0.0,0.44791062169544643,0.4942221204112508,-0.4988570937759798,-0.4432773891651174,-0.5923951462139435,-0.5451238746846496,0.0
9.923999999999984,-0.03533886594716046,-0.011273283152843833,0.004829705969154018,0.9998780234007334,0.0009512207212398812,-0.015581858520028982,0.0004890648659953348,0.001887886220734322,-0.03116589127282207,0.0009488277589173543,0.04439316595496822,0.008027511244929474,8.109051258758381e-05,0.004264533258398422,-0.018232708882835073,-0.0002795370489924204,0.0,0.0,0.0,0.0,0.0,0.0,0.0,0.0,0.0,0.44893061496997216,0.495425211502324,-0.5002234438261635,-0.4441341275882571,-0.5931442111997753,-0.5455515650706944,0.0
9.94399999999999,-0.03443857189848498,-0.011113635589591038,0.004831519523677322,0.999875028106498,0.0009935368066066735,-0.015770357578851642,0.00048669854951326495,0.0019724569184512214,-0.03154297096100815,0.0009424075193184377,0.045773389262830554,0.0079272567987152,0.00010243362608663642,0.004148616721311293,-0.01978542118895907,-0.00029172695547425166,0.0,0.0,0.0,0.0,0.0,0.0,0.0,0.0,0.0,0.449916742369632,0.4965787858648771,-0.5015421456293687,-0.4449551315009183,-0.5939141764113768,-0.5460129439650685,0.0
9.963999999999997,-0.03351072136524368,-0.010955991054817508,0.004833761887747602,0.9998717495013398,0.0010346876839135062,-0.015974340108559724,0.0004841782951012423,0.0020546912516561295,-0.031951020746426854,0.0009356531769360445,0.047148254454023604,0.0078272334324901,0.00012399768090119408,0.004028832005637953,-0.021327505424407433,-0.0003034344453375726,0.0,0.0,0.0,0.0,0.0,0.0,0.0,0.0,0.0,0.45086911451967415,0.49768367491105997,-0.5028133505330357,-0.4457411915947997,-0.5947053811321295,-0.546508312866174,0.0
9.984000000000004,-0.03255542281752488,-0.010800344822167239,0.0048364376995125935,0.9998681800930342,0.0010746350743516527,-0.01619369467190736,0.0004815078113735599,0.0021345132325258967,-0.0323898179958146,0.000928571226533388,0.04851761682003874,0.007727452761497527,0.00014580669869259963,0.0039053177265611135,-0.022857708504967527,-0.0003145962774688372,0.0,0.0,0.0,0.0,0.0,0.0,0.0,0.0,0.0,0.45178786497560963,0.4987406990631429,-0.5040372369394452,-0.4464930834471641,-0.5955181241695563,-0.547037928969494,0.0
10.00400000000001,-0.03157278759026075,-0.010646691934168688,0.004839552060396489,0.9998643119790303,0.0011133420795875401,-0.016428297374281055,0.0004786914403021617,0.002211849639983169,-0.032859115192931686,0.0009211697345142358,0.049881334910177356,0.007627926269168173,0.0001678827883615706,0.003778215643173109,-0.02437479900628847,-0.0003251560352132483,0.0,0.0,0.0,0.0,0.0,0.0,0.0,0.0,0.0,0.4526731493600066,0.49975066819993336,-0.5052140093289348,-0.44721156808083395,-0.5963526633993307,-0.5476020048169883,0.0
10.024000000000017,-0.030562929818105225,-0.010495027204855475,0.004843110496542108,0.9998601368746339,0.0011507732133366592,-0.016678012085450354,0.0004757340916725628,0.0022866300806295412,-0.033358640382633746,0.000913458216387939,0.05123927052768477,0.007528665308790928,0.00019024611333541536,0.0036476704996760787,-0.02587756850364287,-0.00033506376865672456,0.0,0.0,0.0,0.0,0.0,0.0,0.0,0.0,0.0,0.4535251445194533,0.5007143820907871,-0.5063438973044488,-0.4478973925106134,-0.5972092153958655,-0.5482007080319842,0.0
10.044000000000024,-0.029525966370392637,-0.010345345222356367,0.004847118919643557,0.9998556461432965,0.0011868944313260029,-0.016942690674513535,0.0004726411810498808,0.0023587870461278405,-0.03388809764123274,0.0009054475198108995,0.05259128872552529,0.007429681104890815,0.00021291486382670152,0.0035138298652543894,-0.0273648328578231,-0.0003442756498296468,0.0,0.0,0.0,0.0,0.0,0.0,0.0,0.0,0.0,0.45434404770235887,0.5016326308168092,-0.5074271546585054,-0.4485512902753229,-0.5980879551492272,-0.5488341611389305,0.0
10.06400000000003,-0.028462016786183646,-0.010197640351460188,0.004851583587268811,0.9998508308288717,0.0012216731596383376,-0.017222173257495282,0.00046941857112639144,0.0024282559670674836,-0.03444716757205559,0.0008971497129249817,0.053937257801849145,0.0073309847543291,0.00023590523406580302,0.0033768439727795366,-0.02883543344464148,-0.00035275364054249104,0.0,0.0,0.0,0.0,0.0,0.0,0.0,0.0,0.0,0.45513007575826503,0.5025061951787596,-0.5084640584636312,-0.4491739819545807,-0.5989890158679162,-0.5495024414672001,0.0
10.084000000000037,-0.0273712032094043,-0.010051906736161157,0.004856511062771679,0.9998456816896836,0.0012550783214323805,-0.017516288457028843,0.00046607251632506185,0.002494975263347084,-0.03503550782505882,0.0008885779777259763,0.05527704929519412,0.00723258722714024,0.00025923140449650277,0.003236865556501163,-0.03028823832573223,-0.000360465172552764,0.0,0.0,0.0,0.0,0.0,0.0,0.0,0.0,0.0,0.455883464359051,0.5033358470913603,-0.5094549081869922,-0.4497661756696839,-0.5999124888668053,-0.5502055811379167,0.0
10.104000000000044,-0.026253650324083194,-0.009908138302189722,0.004861908174892141,0.9998401892342638,0.001287080362033706,-0.017824853673533328,0.0004626096105366706,0.0025588863911085746,-0.035652753639314784,0.0008797465082079839,0.05661053797945738,0.007134499367119746,0.00028290552891075326,0.003094049688871561,-0.03172214335858786,-0.00036738283975433765,0.0,0.0,0.0,0.0,0.0,0.0,0.0,0.0,0.0,0.45660446724232173,0.504122349963734,-0.5104000248298223,-0.4503285675680058,-0.6008584235393426,-0.550943567132616,0.0
10.12400000000005,-0.025109485289691022,-0.009766328759533796,0.004867781977143604,0.9998343437585864,0.0013176512723919191,-0.018147675367276486,0.0004590367378713149,0.002619933886257152,-0.036298518407143564,0.0008706704130423652,0.057937601858664936,0.007036731892176554,0.000306937726485896,0.002948553616644989,-0.03313607324400161,-0.00037348410207398966,0.0,0.0,0.0,0.0,0.0,0.0,0.0,0.0,0.0,0.4572933554770907,0.504866459065754,-0.5112997500920428,-0.4508618422904083,-0.6018268274128832,-0.5517163414423503,0.0
10.144000000000057,-0.023938837676586437,-0.009626471604954955,0.0048741397070846595,0.9998281353846376,0.0013467646109003757,-0.01848454935069644,0.00045536102630839003,0.0026780654046013215,-0.03697239425863166,0.0008613656225627321,0.059258122161559436,0.006939295394463217,0.0003313360786748612,0.0028005365963875177,-0.03452898250932976,-0.00037875100075484896,0.0,0.0,0.0,0.0,0.0,0.0,0.0,0.0,0.0,0.45795041675175,0.505568921880146,-0.5121544455623135,-0.4513666734212621,-0.6028176662858278,-0.5525238012956841,0.0
10.164000000000064,-0.022741839401571696,-0.00948856012450395,0.004880988745571885,0.9998215541001566,0.0013743955235754157,-0.01883526109034033,0.0004515898041324102,0.0027332317586470822,-0.03767395266524793,0.0008518487998401605,0.06057198333601815,0.006842200340296614,0.0003561066308879443,0.0026501597295277455,-0.035899856426230906,-0.00038316988470316516,0.0,0.0,0.0,0.0,0.0,0.0,0.0,0.0,0.0,0.4585759546842069,0.5062304784402155,-0.5129644919336107,-0.4518437239207319,-0.6038308644450585,-0.5533657994638677,0.0
10.18400000000007,-0.021518624663561386,-0.0093525873960396,0.004888336576088866,0.9998145897993718,0.0014005207625927781,-0.019199586017765405,0.0004477305590453714,0.002785386951080153,-0.038402745061242166,0.0008421372556454523,0.06187907304330667,0.00674545706988168,0.00038125339889251593,0.00249758579707369,-0.03724771186178383,-0.00038673114757332375,0.0,0.0,0.0,0.0,0.0,0.0,0.0,0.0,0.0,0.4591702881538845,0.5068518616531693,-0.5137302882442161,-0.4522936465391096,-0.604866304961959,-0.5542421446413011,0.0
10.204000000000077,-0.020269329879367606,-0.009218546291754857,0.004896190744245067,0.9998072323245605,0.0014251187031795517,-0.019577289848737623,0.0004437908998496626,0.0028344882049697526,-0.03915830348149211,0.0008322488671076868,0.06317928215216609,0.006649075796850287,0.00040677837984568653,0.0023429790941165343,-0.03857159806212819,-0.00038942897526512933,0.0,0.0,0.0,0.0,0.0,0.0,0.0,0.0,0.0,0.4597337506552806,0.5074337976089447,-0.5144522511439659,-0.4527170842129517,-0.6059238300651415,-0.5551526018992758,0.0
10.224000000000084,-0.01899409361960495,-0.009086429480713731,0.004904558817536347,0.9997994715082584,0.0014481693588607096,-0.019968128910054898,0.0004397785205988443,0.002880495990727145,-0.03994014121444841,0.0008222019998905318,0.06447250473272452,0.006553066607627088,0.00043268156786376076,0.0021865052642375095,-0.039870597368013155,-0.00039126110350872433,0.0,0.0,0.0,0.0,0.0,0.0,0.0,0.0,0.0,0.46026668967255646,0.5079770058746111,-0.5151308141853557,-0.45311467044296516,-0.6070032415878304,-0.5560968932108181,0.0
10.24400000000009,-0.01769305654471897,-0.008956229431402321,0.0049134483454569295,0.9997912972159466,0.0014696543950599766,-0.020371850473316855,0.0004357011671168946,0.0029233740498517033,-0.04074775346881814,0.0008120154337197347,0.06575863805021705,0.00645743946063392,0.0004589609740217618,0.0020283311339302085,-0.04114382586187648,-0.00039222858521412336,0.0,0.0,0.0,0.0,0.0,0.0,0.0,0.0,0.0,0.46076946607463626,0.5084821997743484,-0.515766427139079,-0.4534870296535452,-0.6081043014876981,-0.5570746980443476,0.0
10.264000000000097,-0.016366361341142072,-0.008827938414297146,0.004922866820050368,0.99978269938904,0.0014895571410554228,-0.020788193094959106,0.00043156660578975135,0.002963089415496722,-0.04158061805261952,0.000801708291106831,0.06703758255849206,0.006362204185344095,0.00048561265066594106,0.0018686245471469598,-0.04239043394630909,-0.00039233556726579353,0.0,0.0,0.0,0.0,0.0,0.0,0.0,0.0,0.0,0.4612424535301835,0.5089500866550614,-0.5163595553334331,-0.4538347775339605,-0.6092267324367994,-0.5580856540237297,0.0
10.284000000000104,-0.015014152657581476,-0.00870154850445366,0.0049328216369846625,0.999773668088005,0.001507862600290942,-0.021216886961869578,0.00042738259453618035,0.002999612429886804,-0.042438196063241035,0.0007912999691254057,0.06830924189327559,0.006267370481197756,0.0005126307199127903,0.0017075542000745164,-0.04360960685398722,-0.00039158907644632835,0.0,0.0,0.0,0.0,0.0,0.0,0.0,0.0,0.0,0.4616860379416934,0.5093813681377745,-0.5169106790168683,-0.45415852136128987,-0.6103702184791029,-0.5591293576521907,0.0
10.30400000000011,-0.013636577041444269,-0.008577051584117626,0.004943320057234052,0.99976419353544,0.0015245574590454086,-0.02165765424190553,0.00042315685586812035,0.0030329167586179407,-0.04331993258714073,0.0007808100741071387,0.06957352286515997,0.006172947916389236,0.0005400074061987083,0.0015452894762413173,-0.04480056508937444,-0.0003899988141787545,0.0,0.0,0.0,0.0,0.0,0.0,0.0,0.0,0.0,0.46210061689801996,0.5097767403548353,-0.5174202927430155,-0.4544588603051247,-0.6115344057530152,-0.5602053650974708,0.0
10.324000000000117,-0.012233782875405455,-0.008454439345361813,0.004954369169447188,0.9997542661589479,0.0015396300934620677,-0.022110209438632962,0.0004188970519537187,0.003062979401870922,-0.044225257407828795,0.0007702583591353464,0.07083033545227783,0.006078945926537249,0.0005677330727360168,0.0013820002820558635,-0.0459625648027084,-0.00038757695978219105,0.0,0.0,0.0,0.0,0.0,0.0,0.0,0.0,0.0,0.4624865991444139,0.510136894173166,-0.5178889047772537,-0.4547363857142909,-0.6127189032761499,-0.5613131930354853,0.0
10.344000000000124,-0.010805920314125689,-0.008333703292750275,0.00496597585307848,0.9997438766336426,0.001553070574941408,-0.022574259749615987,0.0004146107615992535,0.0030897807025680587,-0.04515358572078884,0.0007596646642237864,0.07207959279261764,0.005985373813248547,0.0005957962617230399,0.0012178568828733515,-0.0470948980969913,-0.0003843379819423726,0.0,0.0,0.0,0.0,0.0,0.0,0.0,0.0,0.0,0.46284440406928734,0.5104625154036342,-0.5183170365239929,-0.45499168138570023,-0.6139232837895093,-0.5624523195496989,0.0
10.36400000000013,-0.009353141221126257,-0.008214834746032228,0.004978146742356265,0.9997330159241262,0.0015648706739015091,-0.02304950542759072,0.00041030545906903747,0.003113304351502566,-0.046104318854008654,0.000749048859078072,0.0733212111759331,0.005892240742585621,0.0006241837381484995,0.0010530297396856231,-0.048196893268897895,-0.0003802984581054177,0.0,0.0,0.0,0.0,0.0,0.0,0.0,0.0,0.0,0.4631744612067666,0.5107542849967512,-0.5187052219736759,-0.45522532381559955,-0.6151470846581388,-0.5636221850833206,0.0
10.384000000000137,-0.007875599105829904,-0.008097824842867356,0.0049908881911581784,0.999721675325786,0.001575023861910609,-0.023535640143867845,0.0004059884946652083,0.0031335373894693717,-0.04707684499281088,0.0007384307883461464,0.07455511003519508,0.005799555743448858,0.0006528805370236773,0.0008876893465276996,-0.04926791498469975,-0.0003754769015107579,0.0,0.0,0.0,0.0,0.0,0.0,0.0,0.0,0.0,0.46347720975410606,0.5110128792248859,-0.5190540071684837,-0.45543788243349215,-0.6163898088252361,-0.5648221934413937,0.0
10.404000000000144,-0.0063734490607771505,-0.007982664541584188,0.005004206238860782,0.9997098465052631,0.0015835253121974,-0.024032351353319048,0.00040166707699202937,0.003150470206425451,-0.04807053990769757,0.000727830219272884,0.07578121193753082,0.005707327705883457,0.0006818700138697146,0.0007220060686926244,-0.050307364392478446,-0.00036989359558732907,0.0,0.0,0.0,0.0,0.0,0.0,0.0,0.0,0.0,0.46375309810302645,0.5112389698511892,-0.5193639496857033,-0.45562991981903256,-0.6176509258166255,-0.5660517128397792,0.0
10.42400000000015,-0.004846847699028842,-0.007869344623972914,0.0050181065772268935,0.9996975215399502,0.0015903718985453342,-0.024539320660315143,0.0003973482568319409,0.0031640965377071908,-0.0490847676839485,0.0007172667916819778,0.07699944257459401,0.005615565379321345,0.0007111338982817754,0.0005561499818451082,-0.051314679172064226,-0.000363570435445244,0.0,0.0,0.0,0.0,0.0,0.0,0.0,0.0,0.0,0.46400258338403405,0.5114332242854274,-0.5196356181376869,-0.4558019919022189,-0.6189298727924455,-0.5673100769980025,0.0
10.444000000000157,-0.0032959530917668644,-0.007757855698113897,0.00503259451839058,0.9996846929563811,0.001595562192578024,-0.025056224184998387,0.0003930389125631225,0.0031744134573317255,-0.0501188814517436,0.0007067599702158667,0.0782097307523059,0.005524277370768219,0.0007406523503869382,0.00039029071212348416,-0.05228933352428794,-0.00035653077620397314,0.0,0.0,0.0,0.0,0.0,0.0,0.0,0.0,0.0,0.4642261310227411,0.5115963057269656,-0.5198695916872765,-0.4559546481472719,-0.6202260556428383,-0.568596586272889,0.0
10.464000000000164,-0.001720924706106144,-0.007648188201242838,0.005047674963995964,0.9996713537673937,0.0015990964594436601,-0.025582732929287175,0.000388745737050752,0.003181421368408598,-0.05117222411561261,0.0006963289987715313,0.07941200837990639,0.005433472142945673,0.0007704040200083872,0.00022459727731868537,-0.05323083810127398,-0.00034879928790711536,0.0,0.0,0.0,0.0,0.0,0.0,0.0,0.0,0.0,0.4644242143072619,0.5117288732951354,-0.5200664595776063,-0.4560884317205958,-0.6215388501244161,-0.5699105088299128,0.0
10.48400000000017,-0.00012192334313228202,-0.007540332402653455,0.005063352375542261,0.9996574975079264,0.00160097665190715,-0.026118513142028205,0.0003844752259464455,0.0031851239906876237,-0.05224412908204848,0.0006859928570765166,0.08060621045825442,0.0053431580123984405,0.0008003661083450045,5.923792921849692e-05,-0.054138739879630735,-0.00034040181678262943,0.0,0.0,0.0,0.0,0.0,0.0,0.0,0.0,0.0,0.46459731396572596,0.5118315821472013,-0.5202268206751396,-0.45620387964322007,-0.6228676030342035,-0.5712510818491269,0.0
10.504000000000177,0.0015008889238195989,-0.007434278406638251,0.005079630745983638,0.9996431182693536,0.0016012064031177527,-0.02666322668273049,0.0003802336673394688,0.0031855283457848196,-0.05333392098416267,0.0006757702193555629,0.08179227506731448,0.0052533431475745435,0.0008305144319699939,-0.00010561965929428044,-0.05501262197851005,-0.00033136525258599706,0.0,0.0,0.0,0.0,0.0,0.0,0.0,0.0,0.0,0.4647459177526491,0.5119050835845594,-0.5203512830249108,-0.4563015229281272,-0.6242116334179403,-0.5726175127623491,0.0
10.524000000000184,0.003147348810627976,-0.007330016155468153,0.005096513572628185,0.9996282107322193,0.001599791035515304,-0.027216531383327674,0.0003760271331715345,0.0031826447750298924,-0.054440916402297,0.0006656794150373836,0.08297014335276963,0.005164035566839569,0.0008608234889152098,-0.0002698042142222355,-0.05585210342461809,-0.0003217174006588232,0.0,0.0,0.0,0.0,0.0,0.0,0.0,0.0,0.0,0.46487052002333823,0.5119500251673628,-0.5204404634261315,-0.4563818866936752,-0.6255702338211956,-0.5740089805031621,0.0
10.54400000000019,0.004817291883571952,-0.007227535432412103,0.005114003831376655,0.9996127701972435,0.0015967375986982262,-0.027778081407438444,0.0003718614727619867,0.0031764870155985255,-0.0555644245795495,0.0006557383914228684,0.08413975951169328,0.005075243136509655,0.0008912665267684051,-0.00043314285993386177,-0.05665683886635102,-0.0003114868585441411,0.0,0.0,0.0,0.0,0.0,0.0,0.0,0.0,0.0,0.46497162128420455,0.5119670508490103,-0.5204949870386918,-0.45644549024189884,-0.6269426715909755,-0.5754246367563833,0.0
10.564000000000197,0.006510552620222808,-0.007126825864795144,0.005132103952339675,0.9995967926146436,0.0015920548681244515,-0.028347527606647115,0.00036774230657632114,0.0031670721986240694,-0.05670374813121842,0.0006459646782757281,0.08530107077722195,0.004986973568943105,0.0009218156125145927,-0.000595464332515918,-0.05742651823927927,-0.0003007029002247565,0.0,0.0,0.0,0.0,0.0,0.0,0.0,0.0,0.0,0.46504972779156256,0.5119568010574381,-0.5205154869778827,-0.4564928471438766,-0.6283281901758192,-0.5768636072619437,0.0
10.584000000000204,0.008226964470019636,-0.00702787692709499,0.005150815796865063,0.9995802746116265,0.001585753329206137,-0.028924517873311715,0.000363675020765783,0.003154420818420508,-0.057858183747209226,0.0006363753543400146,0.0864540274021761,0.004899234420608713,0.0009524417038379111,-0.0007565991160933638,-0.058160866385298146,-0.0002893953660229649,0.0,0.0,0.0,0.0,0.0,0.0,0.0,0.0,0.0,0.4651053511694896,0.5119199127521209,-0.5205026039078466,-0.45652446532114055,-0.6297260104368563,-0.578324993148593,0.0
10.60400000000021,0.009966359914507473,-0.006930677944077047,0.0051701406360034514,0.9995632135179783,0.0015778451597913841,-0.029508697489435826,0.0003596647627584118,0.00313855669880721,-0.059027022886500184,0.0006269870157647104,0.08759858264156861,0.004812033090175101,0.000983114721752607,-0.0009163796277223658,-0.05885964262781404,-0.00027759455758864446,0.0,0.0,0.0,0.0,0.0,0.0,0.0,0.0,0.0,0.4651390080328687,0.5118570194701947,-0.5204569856417987,-0.45654084711461934,-0.6311353319766126,-0.5798078722838799,0.0
10.624000000000217,0.011728570527215206,-0.006835218093967401,0.005190079130437052,0.9995456073896799,0.00156834421077784,-0.030099709471168388,0.00035571643784088357,0.0031195069560188103,-0.0602095524628071,0.0006178157464139135,0.08873469273394685,0.00472537681663079,0.0010138036243648974,-0.0010746404001102218,-0.059522640305378335,-0.0002653311378164274,0.0,0.0,0.0,0.0,0.0,0.0,0.0,0.0,0.0,0.4651512196152407,0.5117687513616387,-0.5203792867479184,-0.45654248934178154,-0.632555334482157,-0.5813113006376749,0.0
10.644000000000224,0.013513427033149415,-0.006741486411663049,0.005210631311892372,0.9995274550304959,0.0015572659848858117,-0.030697194908519597,0.0003518347066794737,0.003097301958247325,-0.06140505552063661,0.0006088770900438471,0.0898623168815173,0.004639272677443842,0.001044476481568478,-0.001231218260905441,-0.06014968626621295,-0.00025263603552072827,0.0,0.0,0.0,0.0,0.0,0.0,0.0,0.0,0.0,0.46514251140076196,0.5116557352138796,-0.5202701681599471,-0.45652988334259775,-0.6339851790794334,-0.5828343136563223,0.0
10.66400000000023,0.015320759367879438,-0.006649471791978528,0.005231796566053812,0.9995087560114911,0.0015446276136242799,-0.03130079329990514,0.00034802398373010696,0.0030719752818733253,-0.06261281190096615,0.0006001860243301251,0.09098141722900523,0.004553727586769715,0.0010751005504785157,-0.0013859525083233979,-0.06074064032609343,-0.0002395403547067851,0.0,0.0,0.0,0.0,0.0,0.0,0.0,0.0,0.0,0.4651134127596033,0.5115185944661649,-0.5201302967915724,-0.4565035150149288,-0.6354240096956817,-0.5843759276445585,0.0
10.684000000000237,0.017150396736187876,-0.0065591629929278895,0.005253573616991167,0.9994895106884356,0.0015304478324855962,-0.031910142881155935,0.0003442884364889461,0.003043563664446078,-0.06383209889583873,0.0005917569367304368,0.0920919588412049,0.004468748293715712,0.0011056423514113221,-0.0015386850828848146,-0.061295394692067046,-0.00022607528828345343,0.0,0.0,0.0,0.0,0.0,0.0,0.0,0.0,0.0,0.46506445658625034,0.5113579492140082,-0.5199603451538043,-0.4564638648398943,-0.6368709544269059,-0.5859351411523944,0.0
10.704000000000244,0.019002167670260056,-0.006470548639040804,0.005275960513110241,0.9994697202170711,0.0015147469544070044,-0.03252488094865424,0.0003406319855363853,0.0030121069544756067,-0.0650621918912086,0.0005836036021691262,0.09319390967918058,0.004384341380670218,0.0011360677442199124,-0.0016892607350521291,-0.06181387335448406,-0.00021227203607192448,0.0,0.0,0.0,0.0,0.0,0.0,0.0,0.0,0.0,0.46499617894015516,0.5111744162040804,-0.519760990974538,-0.4564114078978521,-0.6383251269074278,-0.5875109363642376,0.0
10.72400000000025,0.02087590008738506,-0.00638361722471146,0.005298954614631996,0.999449386566215,0.0014975468415393562,-0.03314464417628243,0.0003370583053286696,0.002977648058102625,-0.06630236499742448,0.000575739162531063,0.0942872405750822,0.0043005132617045345,0.0011663420047991757,-0.0018375271885570088,-0.062296031449813036,-0.00019816172697182007,0.0,0.0,0.0,0.0,0.0,0.0,0.0,0.0,0.0,0.4649091186882283,0.5109686088199241,-0.5195329168195414,-0.4563466138756167,-0.6397856276786292,-0.5891022804875856,0.0
10.744000000000257,0.022771421347140424,-0.006298357117578702,0.0053225525826019965,0.9994285125286935,0.0014788708753656029,-0.0337690689258948,0.00033357082569265763,0.0029402328827152183,-0.06755189166678574,0.0005681761079527255,0.09537192520554433,0.004217270181054885,0.001196429901578287,-0.001983335299220891,-0.0627418545966931,-0.00018377534515409916,0.0,0.0,0.0,0.0,0.0,0.0,0.0,0.0,0.0,0.46480381714885866,0.5107411370587639,-0.5192768097143097,-0.4562699470654336,-0.6412515455540836,-0.5907081271387256,0.0
10.764000000000264,0.024688558308031804,-0.006214756561935752,0.005346750369428261,0.9994071017300895,0.001458743925213723,-0.03439779155104711,0.0003301727339804835,0.00289991027758409,-0.0688100452976551,0.000560926259898603,0.0964479400636424,0.0041346182116918494,0.0012262957718224413,-0.00212653920907942,-0.06315135820765169,-0.0001691436601563948,0.0,0.0,0.0,0.0,0.0,0.0,0.0,0.0,0.0,0.4646808177369512,0.5104926074998942,-0.5189933607660319,-0.4561818663564383,-0.6427219589783382,-0.5923274177229209,0.0
10.78400000000027,0.026627137383558656,-0.0061328036821677165,0.0053715432109421694,0.9993851586353203,0.0014371923152107801,-0.035030448693742666,0.00032686697784206837,0.002856731971590959,-0.07007609982465998,0.0005540007560108513,0.0975152644293834,0.004052563253984035,0.0012559035975708258,-0.0022669964956309415,-0.06352458677888156,-0.00015429716076399637,0.0,0.0,0.0,0.0,0.0,0.0,0.0,0.0,0.0,0.4645406656098477,0.510223623264887,-0.5186832647853024,-0.4560828252190715,-0.6441959373767461,-0.5939590828067082,0.0
10.804000000000277,0.02858698459767642,-0.006052486486214913,0.005396925619973613,0.9993626885530391,0.0014142437897267002,-0.03566667757397812,0.00032365626857457265,0.0028107525081275445,-0.07134933029456278,0.0005474100367196814,0.09857388033871535,0.003971111034462558,0.0012852170810429948,-0.0024045683160389066,-0.06386161316043165,-0.00013926599256532682,0.0,0.0,0.0,0.0,0.0,0.0,0.0,0.0,0.0,0.46438390731374535,0.5099347839700802,-0.5183472199069635,-0.45597327168314417,-0.6456725424937921,-0.5956020434799519,0.0
10.824000000000284,0.030567925639625446,-0.005973792869059964,0.005422891381428287,0.9993396976378904,0.0013899274773582144,-0.03630611627189418,0.0003205430850089862,0.0027620291772452203,-0.07262901342742457,0.000541163833601199,0.09962377255104367,0.003890267104692428,0.0013141997193513498,-0.002539119546127885,-0.06416253780911826,-0.0001240798990772171,0.0,0.0,0.0,0.0,0.0,0.0,0.0,0.0,0.0,0.46421109043052555,0.509626685671662,-0.5179859272097722,-0.4558536483100822,-0.6471508297175071,-0.5972552127054623,0.0
10.84400000000029,0.032569785918096755,-0.00589671061623645,0.005449433548851845,0.999316192890636,0.001364273853505111,-0.03694840400236121,0.0003175296778951185,0.002710621945138108,-0.07391442816273586,0.000535271159468398,0.10066492851524778,0.0038100368402564995,0.0013428148783635031,-0.0026705189140231417,-0.06442748802640927,-0.00010876816634068504,0.0,0.0,0.0,0.0,0.0,0.0,0.0,0.0,0.0,0.46402276322481323,0.509299920803751,-0.517600090334503,-0.45572439215996186,-0.6486298493876423,-0.5989174966540366,0.0
10.864000000000297,0.03459239061470467,-0.005821227407356832,0.005476544442462521,0.9992921821561735,0.0013373147015925803,-0.037593181381850256,0.0003146180747472763,0.0026565933810449318,-0.07520485619022771,0.0005297403001797553,0.10169733833419796,0.0037304254398573774,0.001371025865564423,-0.002798639128294076,-0.06465661718347643,-9.33595708930814e-05,0.0,0.0,0.0,0.0,0.0,0.0,0.0,0.0,0.0,0.46381947429122505,0.5089550781098018,-0.5171904151002479,-0.4555859347538644,-0.6501086480853878,-0.6005877960228934,0.0
10.884000000000304,0.036635564736736265,-0.005747330819657248,0.005504215648630954,0.9992676741194991,0.0013090830729949464,-0.03824009068746353,0.0003118100851139302,0.002600008581657422,-0.07649958246512563,0.0005245788081484233,0.10272099472777557,0.003651437924542016,0.0013987960017749677,-0.0029233570004723497,-0.06485010393554497,-7.788233102755366e-05,0.0,0.0,0.0,0.0,0.0,0.0,0.0,0.0,0.0,0.4636017722017425,0.508592742567783,-0.5167576091186596,-0.4554387020321816,-0.6515862699025534,-0.602265007335593,0.0
10.90400000000031,0.03869913316914782,-0.0056750083315566646,0.00553243802078307,0.9992426782996388,0.0012796132457175088,-0.038888776108018296,0.0003091073062356322,0.0025409350931255258,-0.0777978957076446,0.0005197934975333375,0.1037358929944072,0.003573079137053466,0.0014260886915900288,-0.0030445535618264063,-0.06500815142760291,-6.236406125517894e-05,0.0,0.0,0.0,0.0,0.0,0.0,0.0,0.0,0.0,0.46337020515330474,0.5082134953094076,-0.516302381406063,-0.4552831143093272,-0.6530617576882174,-0.6039480242216082,0.0
10.924000000000317,0.04078292072577875,-0.005604247326227834,0.005561201681699246,0.9992172050416045,0.0012489406818944734,-0.039538883987099614,0.00030651112905640655,0.002479442830751915,-0.0790990888865689,0.0005153904410917585,0.10474203097112686,0.0034953537413136685,0.0014528674924066856,-0.0031621141742847526,-0.06513098649345911,-4.683172988913298e-05,0.0,0.0,0.0,0.0,0.0,0.0,0.0,0.0,0.0,0.4631253206156218,0.5078179135338821,-0.5158254419932696,-0.45511958622548465,-0.6545341542709863,-0.6056357386738415,0.0
10.944000000000324,0.04288675219975355,-0.005535035095177391,0.005590496027180434,0.9991912655064213,0.0012171019841621888,-0.04019006305801676,0.0003040227445547678,0.002415603996470596,-0.0804024596867967,0.000511374968670793,0.10573940899218652,0.0034182662220407643,0.0014790961819199004,-0.003275928635411455,-0.06521885885006443,-3.1311619674248884e-05,0.0,0.0,0.0,0.0,0.0,0.0,0.0,0.0,0.0,0.4628676649794357,0.5074065704164434,-0.5153275015331777,-0.4549485266958032,-0.6560025036551157,-0.6073270422824736,0.0
10.96400000000033,0.045010452413043196,-0.005467358841832356,0.005620309731049569,0.9991648716592815,0.001184134850967941,-0.04084196467061716,0.00030164315036145873,0.0023494929942064822,-0.0817073109607675,0.0005077516673134122,0.10672802984623993,0.0033418208845038596,0.001504738823970649,-0.003385891277346812,-0.06527204028892075,-1.5829291353601706e-05,0.0,0.0,0.0,0.0,0.0,0.0,0.0,0.0,0.0,0.4625977832051249,0.5069800350123206,-0.5148092709059191,-0.454770338857817,-0.6574658521888701,-0.6090208274436462,0.0
10.984000000000337,0.047153846265157555,-0.005401205685130295,0.005650630751454308,0.9991380362558858,0.0011500780308755342,-0.04149424300993055,0.00029937315763229716,0.0022811863432148478,-0.08301295116372717,0.0005045243829530895,0.1077078987321297,0.003266021854417793,0.0015297598326389566,-0.0034919010596454318,-0.06529082386636503,-4.095502732697552e-07,0.0,0.0,0.0,0.0,0.0,0.0,0.0,0.0,0.0,0.4623162184727484,0.5065388721556148,-0.5142714608225313,-0.454585420016696,-0.658923249703618,-0.6107159885415836,0.0
11.004000000000344,0.04931675878094112,-0.005336562663110317,0.0056814463384350835,0.9991107728270349,0.0011149712759301114,-0.042146555306633755,0.0002972133981334344,0.0022107625895032516,-0.08431869477282024,0.0005016962236448706,0.10867902321331196,0.0031908730779797467,0.0015541240344818868,-0.0035938616559375576,-0.06527552309439713,1.4923578283022944e-05,0.0,0.0,0.0,0.0,0.0,0.0,0.0,0.0,0.0,0.46202351185912705,0.5060836423281115,-0.5137147814526257,-0.45439416156347057,-0.6603737506222653,-0.6124114231028754,0.0
11.02400000000035,0.051499015157445434,-0.005273416736502076,0.005712743042720553,0.9990830956615355,0.0010788552941509493,-0.042798562039341785,0.0002951643313736638,0.0021383022154622447,-0.08562386269002814,0.0004992695640301093,0.10964141317095781,0.003116378322042871,0.0015777967288240794,-0.0036916815343570517,-0.06522647113355046,3.0146856529178166e-05,0.0,0.0,0.0,0.0,0.0,0.0,0.0,0.0,0.0,0.46172020208214687,0.5056149014584995,-0.513139942115831,-0.4541969488271095,-0.6618164150356187,-0.6141060329218868,0.0
11.044000000000358,0.05370044080985178,-0.0052117547923101176,0.005744506725710694,0.9990550197874971,0.0010417717012110807,-0.04344992712874884,0.00029322625186840623,0.002063887547791495,-0.08692778262900835,0.0004972460512300507,0.11059508075577547,0.0030425411744250033,0.001600743746016428,-0.003785274031719806,-0.06514401998942182,4.523788285753358e-05,0.0,0.0,0.0,0.0,0.0,0.0,0.0,0.0,0.0,0.46140682505419783,0.5051332009107629,-0.512547650779049,-0.45399416111909385,-0.6632503097456325,-0.6157987251561342,0.0
11.064000000000364,0.055920861416419325,-0.005151563647390637,0.005776722570606217,0.9990265609520803,0.001003762971357275,-0.04410031812365653,0.0002913992967456774,0.0019876026637856902,-0.08822978948591487,0.000495626612612138,0.11154004033860211,0.0029693650443765674,0.0016229315035860645,-0.003874557421406893,-0.06502853971422934,6.0175121783573906e-05,0.0,0.0,0.0,0.0,0.0,0.0,0.0,0.0,0.0,0.46108391350497324,0.5046390874021622,-0.5119386136203568,-0.45378617171029545,-0.664674509274813,-0.6174884133903403,0.0
11.084000000000371,0.058160102962434235,-0.005092830052017516,0.005809375094641487,0.9989977355997888,0.0009648723876421006,-0.04474940637894224,0.00028968345348591185,0.0019095332961168172,-0.089529225694312,0.0004944114650282515,0.11247630845981517,0.002896853163197293,0.0016443270602086004,-0.0039594549749184926,-0.06488041761478139,7.493792385349371e-05,0.0,0.0,0.0,0.0,0.0,0.0,0.0,0.0,0.0,0.4607519966389424,0.5041331028862811,-0.511313534624388,-0.45357334777611225,-0.6660880968406941,-0.6191740186685213,0.0
11.104000000000378,0.06041799178313687,-0.005035540693434714,0.00584244816237683,0.9989685608493606,0.0009251439915336945,-0.04539686722553258,0.0002880785677415789,0.0018297667362260576,-0.09082544156431398,0.0004936001254293434,0.11340390377762004,0.002825008584997556,0.0016648981674411878,-0.004039895017109113,-0.06470005746801266,8.950654292151426e-05,0.0,0.0,0.0,0.0,0.0,0.0,0.0,0.0,0.0,0.46041159979609125,0.5036157844332376,-0.5106731151776785,-0.4533560503420756,-0.6674901652945328,-0.6208544704933595,0.0
11.124000000000384,0.06269435460560514,-0.0049796821993921625,0.005875925000004953,0.998939054469353,0.0008846225319679684,-0.04604238013246006,0.00028658435121063245,0.0017483917364353098,-0.09211779560611136,0.0004931914228133031,0.11432284701527229,0.002753834187603294,0.0016846133191626995,-0.004115810975092903,-0.06448787874531742,0.00010386215100302144,0.0,0.0,0.0,0.0,0.0,0.0,0.0,0.0,0.0,0.4600632441156727,0.5030876641081046,-0.5100180536637074,-0.4531346342309787,-0.6688798180235651,-0.6225287077922148,0.0
11.144000000000391,0.064989018589573,-0.004925241141662249,0.005909788210625184,0.9989092348524976,0.0008433534139080192,-0.04668562886109281,0.00028520038953881445,0.0016654984108894677,-0.09340565483806612,0.0004931835114608294,0.11523316090729635,0.002683332673603132,0.0017034417986747583,-0.00418714142083171,-0.06424431584674256,0.00011798685069778942,0.0,0.0,0.0,0.0,0.0,0.0,0.0,0.0,0.0,0.45970744620368764,0.5025492688475777,-0.50934904505836,-0.4529094480115606,-0.6702561698162682,-0.6241956798492068,0.0
11.164000000000398,0.0673018113671648,-0.004872204039534112,0.005944019790438375,0.9988791209889014,0.0008013826464754713,-0.0473263016116385,0.0002839261502264887,0.0015811781354415986,-0.09468839507957903,0.000493573885411451,0.11613487014476649,0.0026135065715358397,0.0017213537234249815,-0.004253830107425959,-0.06396981734603821,0.00013186368524337622,0.0,0.0,0.0,0.0,0.0,0.0,0.0,0.0,0.0,0.45934471780457503,0.5020011203351674,-0.5086667805263143,-0.4526808339490022,-0.6716183476901622,-0.6258543472028913,0.0
11.184000000000404,0.06963256108152752,-0.004820557363282934,0.005978601145814659,0.9988487324381785,0.0007587567907183124,-0.04796409116203304,0.0002827609905165861,0.0014955234465939672,-0.09596540122895128,0.000494359394129743,0.11702800131971718,0.002544358237215846,0.0017383200873209153,-0.00431582599913804,-0.06366484524748228,0.00014547664625695888,0.0,0.0,0.0,0.0,0.0,0.0,0.0,0.0,0.0,0.45897556547751095,0.5014437348752913,-0.5079719470187862,-0.4524491279575714,-0.6729654916818194,-0.6275036825091559,0.0
11.204000000000411,0.07198000930512541,-0.0047610519150819534,0.006013974822323549,0.9988181175465896,0.0007155243846483259,-0.04859811455894389,0.0002816857444540515,0.0014086329136862887,-0.09723490524743778,0.0004954999367225698,0.1176610670525314,0.0037981307200828708,0.0018100431315925022,-0.004372622369799788,-0.0629782118140653,0.0001466510336188607,0.0,0.0,0.0,0.0,0.0,0.0,0.0,0.0,0.0,0.9469114891201345,-0.3243296625290138,0.2859949671783677,-0.9085779441507585,-0.022795629928103134,-1.1667823083662783,0.0
11.224000000000418,0.07433357813778209,-0.004672088877643769,0.006050389721418066,0.9987876650717716,0.0006717523502075903,-0.049220627719760754,0.00028045700558000566,0.0013206668914474576,-0.09848139967388533,0.0004965116562985917,0.11756974195046391,0.0052436872012591295,0.0018208865400087839,-0.004423288115442079,-0.061115142620027194,0.00011233924575895061,0.0,0.0,0.0,0.0,0.0,0.0,0.0,0.0,0.0,0.7425305003970885,-0.5419938643182247,0.5030720833858016,-0.7036090900080709,-0.016954031954916182,-1.1727207996298183,0.0
11.244000000000424,0.07667986346024866,-0.004554157911543462,0.006086471459983081,0.9987579609162847,0.0006275150750883069,-0.0498203174209248,0.00027875303492552,0.0012318114442375113,-0.09968222797438664,0.0004967536101424514,0.11699605860828365,0.006695715417767205,0.0017825437330547386,-0.00446782722285401,-0.05839979949159789,4.765479869282703e-05,0.0,0.0,0.0,0.0,0.0,0.0,0.0,0.0,0.0,0.6981381193621573,-0.5997024779117901,0.5599212136100049,-0.6583570369457299,-0.010895942446848772,-1.178220960138347,0.0
11.264000000000431,0.07901467528738453,-0.004407127254026643,0.006121765124863288,0.9987292778827488,0.0005828875559271909,-0.0503925927782928,0.0002762878615336741,0.0011422495819717567,-0.10082819288189217,0.0004956444500035729,0.1164282916732798,0.008154239761260867,0.001742414810973098,-0.0045061867473348005,-0.05564096584993551,-4.43610903711197e-05,0.0,0.0,0.0,0.0,0.0,0.0,0.0,0.0,0.0,0.7022192915990793,-0.6089510470716187,0.5680563111185923,-0.6613247279833058,-0.004919398059772262,-1.1835796136259469,0.0
11.284000000000438,0.0813381250563748,-0.00423087072438874,0.006156234519616619,0.9987016764716475,0.0005379453705126255,-0.050937192766858416,0.000272801267042101,0.0010521625247585733,-0.10191876727191015,0.0004926477906402682,0.11585965038798081,0.0096188425153167,0.0016998771571474897,-0.004538327434912136,-0.05285552904751377,-0.0001609996842462674,0.0,0.0,0.0,0.0,0.0,0.0,0.0,0.0,0.0,0.7063349083906396,-0.6181645805991627,0.575918323172485,-0.6640888138814924,0.0009925940735682204,-1.1887813901185638,0.0
11.304000000000444,0.08365019281377929,-0.004025270443159296,0.006189831914473496,0.9986752155526833,0.0004927633713466717,-0.051453854754385096,0.00026805965220083887,0.0009617282489604512,-0.10295342099208588,0.0004872800909472698,0.11528999670756916,0.011089114915974233,0.0016549935728739334,-0.004564222737163446,-0.05004410357927923,-0.00029968697860383004,0.0,0.0,0.0,0.0,0.0,0.0,0.0,0.0,0.0,0.7104785486966514,-0.6273358107837316,0.5835154066556976,-0.6666582981963727,0.006839792005892353,-1.1938281422013446,0.0
11.324000000000451,0.08595085871964117,-0.003790216654452015,0.006222511119950665,0.9986499517022971,0.00044741557968509154,-0.051942325866886886,0.0002618546120866383,0.0008711211271975752,-0.10393164362820899,0.00047910788011217947,0.11471937584443896,0.012564653861412634,0.0016078451228625607,-0.004583858533708246,-0.04720785539304226,-0.000457991364962042,0.0,0.0,0.0,0.0,0.0,0.0,0.0,0.0,0.0,0.7146435351881909,-0.6364582638551896,0.5908559811182121,-0.6690413969187646,0.012621813823769479,-1.1987218683424292,0.0
11.344000000000458,0.08824010382308607,-0.0035256076148250564,0.006254227569251271,0.9986259390065824,0.0004019750859202501,-0.052402364855784686,0.00025400152318196087,0.0007805116109060303,-0.10485294825060967,0.00046774501837038615,0.1141478309961149,0.014045061747305097,0.0015585129824564506,-0.004597232835006904,-0.04434794757070841,-0.000633618400163986,0.0,0.0,0.0,0.0,0.0,0.0,0.0,0.0,0.0,0.718823461415504,-0.645525727883448,0.5979482038819676,-0.671246072850582,0.018338263610227612,-1.2034645890411422,0.0
11.364000000000464,0.09051791001571599,-0.003231349483929801,0.00628493831924621,0.9986032289660606,0.0003565139558632417,-0.05283374201407716,0.00024433818367248047,0.0006900659464610895,-0.105716871253235,0.0004528500641296422,0.11357540299748238,0.015529946401814395,0.0015070783342803174,-0.0046043554696028905,-0.04146553421769282,-0.000824405687391846,0.0,0.0,0.0,0.0,0.0,0.0,0.0,0.0,0.0,0.7230121901031352,-0.6545322483660274,0.6047999733515209,-0.6732800416230682,0.023988734102451503,-1.2080583456602647,0.0
11.384000000000471,0.09278425998550806,-0.0029073562163917667,0.006314602050110297,0.9985818704061081,0.0003111031432203278,-0.05323623907493877,0.00023272350457487076,0.000599945923661557,-0.10652297215707908,0.0004341237399688309,0.11300213044827917,0.017018921027875823,0.0014536223122603653,-0.004605247757741682,-0.0385617609110976,-0.001028317873743862,0.0,0.0,0.0,0.0,0.0,0.0,0.0,0.0,0.0,0.7272038497432842,-0.6634721249791625,0.6114189338410663,-0.6751507763660662,0.02957280894090497,-1.2125051994948417,0.0
11.404000000000478,0.09503913717321631,-0.0025535494547857225,0.006343179063867329,0.9985619093919752,0.0002658124080210728,-0.053609649115981095,0.00021903625058137922,0.0005103086548956133,-0.10727083342453907,0.0004113064949604108,0.11242804983454954,0.018511604152083135,0.00139822594871496,-0.004599942173234879,-0.03563776523613742,-0.001243441759208045,0.0,0.0,0.0,0.0,0.0,0.0,0.0,0.0,0.0,0.731392830853899,-0.6723399081256526,0.6178124805614984,-0.6768655124053238,0.0350900647992739,-1.2168072307975835,0.0
11.424000000000484,0.09728252573113971,-0.002169858423576839,0.006370631281902581,0.9985433891484414,0.00022071024074794124,-0.05395377646957999,0.00020317382955383704,0.000421306383314017,-0.10796006028553136,0.0003841761609259979,0.11185319564316026,0.020007619579744618,0.0013409701242619722,-0.0045884819953274664,-0.03269467733219959,-0.0014679815145982227,0.0,0.0,0.0,0.0,0.0,0.0,0.0,0.0,0.0,0.73557378192217,-0.6811303952784103,0.6239877647555938,-0.6784312519976198,0.04054007340001087,-1.2209665377641905,0.0
11.444000000000491,0.09951441048412044,-0.0017562198239083225,0.006396922241497564,0.9985263499841778,0.00017586379191738213,-0.05426843663938223,0.00018505112961834176,0.0003330863183549438,-0.10859028057561637,0.00035254570031156596,0.11127760046972757,0.021506596355684856,0.0012819355203741935,-0.004570920952216425,-0.02973362044645156,-0.0017002540067614998,0.0,0.0,0.0,0.0,0.0,0.0,0.0,0.0,0.0,0.7397416050531376,-0.6898386271252829,0.6299516989702209,-0.67985476910676,0.04592240341984455,-1.2249852354822433,0.0
11.464000000000498,0.1017347768926441,-0.0013125777291243485,0.006422017091438546,0.9985108292208312,0.00013133880686397277,-0.05455345622308707,0.0001645994028236216,0.0002457904969891888,-0.10916114458633022,0.000316261043429772,0.11070129512030567,0.02300816873037718,0.0012212025744240212,-0.004547322857761275,-0.026755711493906695,-0.001938684229943516,0.0,0.0,0.0,0.0,0.0,0.0,0.0,0.0,0.0,0.7438914513445044,-0.698459883523022,0.6357109624527724,-0.6811426142208503,0.05123662228945658,-1.2288654548471367,0.0
11.484000000000504,0.10394361101792016,-0.0008388834809253735,0.00644588258674726,0.9984968611268688,8.719956548188892e-05,-0.054808672841585394,0.00014176519433263808,0.0001595556690843408,-0.10967232492789095,0.0002751990128652699,0.11012430870718323,0.02451197613100081,0.0011588514370688776,-0.004517761242821291,-0.02376206162294619,-0.0021818008426521787,0.0,0.0,0.0,0.0,0.0,0.0,0.0,0.0,0.0,0.7480187160099605,-0.7069896792703854,0.6412720066577091,-0.6823011192090627,0.0564822978914028,-1.232609341448592,0.0
11.504000000000511,0.10614089948882764,-0.00033509558606089273,0.006468487082579375,0.9984844768561872,4.3508826681695806e-05,-0.05503393507452587,0.00011650931611948305,7.45132053213154e-05,-0.11012351640440977,0.00022926533287692273,0.10954666873912997,0.02601766313702696,0.0010949619318382975,-0.004482318982551092,-0.02075377678536506,-0.002428231809705909,0.0,0.0,0.0,0.0,0.0,0.0,0.0,0.0,0.0,0.7521190332740401,-0.7154237597119238,0.6466410608481072,-0.6833364022142514,0.061659000160208866,-1.2362190544311527,0.0
11.524000000000518,0.10832662947061848,0.00019882038652744888,0.006489800527333547,0.9984737043914779,3.27777325127761e-07,-0.05522910240236484,8.880586414312328e-05,-9.210973864234553e-06,-0.11051443590170432,0.00017839272166058075,0.10896840120643228,0.02752487945994938,0.0010296135167931716,-0.004441087920886107,-0.017731958310075395,-0.0026767001494043233,0.0,0.0,0.0,0.0,0.0,0.0,0.0,0.0,0.0,0.7561882710619003,-0.7237580961852327,0.6518241377764995,-0.6842543725763199,0.06676630258843852,-1.2396967653319972,0.0
11.544000000000525,0.11050078863527694,0.000762891908191894,0.0065097944550114245,0.9984645684923602,-4.2284014593959556e-05,-0.05539404515494796,5.864127796693085e-05,-9.149644980016683e-05,-0.11084482228778983,0.00012253906435933764,0.10838953066104841,0.02903327992678498,0.0009628852481369288,-0.004394168493352162,-0.014697703479658066,-0.0029260197859312556,0.0,0.0,0.0,0.0,0.0,0.0,0.0,0.0,0.0,0.7602225255074989,-0.7319888813253328,0.656827039429086,-0.6850607357802269,0.07180378364240547,-1.243044656899404,0.0
11.564000000000531,0.11266336513344079,0.0013571395927658846,0.006528441976866611,0.9984570906482626,-8.426864274801208e-05,-0.05552864446665845,2.6013441788961974e-05,-0.00017222833899400796,-0.11111443632608914,6.168566472645425e-05,0.10781008029220943,0.030542524466982624,0.0008948557456669151,-0.004341669349239817,-0.011652106109007323,-0.0031750915072023514,0.0,0.0,0.0,0.0,0.0,0.0,0.0,0.0,0.0,0.7642181153035761,-0.7401125242405845,0.6616553628171646,-0.685760998421483,0.07677102809107283,-1.2462649218950537,0.0
11.584000000000538,0.11481434756779567,0.001981577298517638,0.006545717772378457,0.9984512890360433,-0.00012556990147220183,-0.055632792238159215,-9.069174156715996e-06,-0.00025129730983619223,-0.11132306060138392,-4.164426639218402e-06,0.10723007199778388,0.03205227810238974,0.000825603159962592,-0.004283706974093778,-0.00859625712536085,-0.0034228990284141483,0.0,0.0,0.0,0.0,0.0,0.0,0.0,0.0,0.0,0.7681715759163172,-0.7481256455747562,0.6663145057999855,-0.6863604731815981,0.08166762825156826,-1.2493597618833179,0.0
11.604000000000545,0.11695372496786113,0.002636212229928081,0.006561598079584526,0.9984471784823331,-0.00016613332116999227,-0.05570639110474571,-4.6588332872172536e-05,-0.00032859958392811577,-0.1114704994585038,-7.498800955334552e-05,0.1066495264517162,0.03356221093993883,0.000755205141214895,-0.004220405313381449,-0.005531245149049952,-0.0036685051615475864,0.0,0.0,0.0,0.0,0.0,0.0,0.0,0.0,0.0,0.7720796536872057,-0.7560250724702492,0.6708096729233668,-0.6868642838053229,0.08649318515462368,-1.2523313860105685,0.0
11.624000000000551,0.11908148676609216,0.00332104503934459,0.006576060684803777,0.9984447704305927,-0.0002059062003310246,-0.05574935441131861,-8.651681159027705e-05,-0.00040403692331942074,-0.11155657895373249,-0.00015074325905916225,0.10606846316784027,0.03507199816672828,0.0006837388096083932,-0.00415189539812192,-0.0024581570743422397,-0.003911048091034736,0.0,0.0,0.0,0.0,0.0,0.0,0.0,0.0,0.0,0.7759392998436868,-0.7638078334472922,0.675145881259109,-0.687277370071532,0.09124730963314465,-1.255182009777492,0.0
11.644000000000558,0.12119762277522657,0.004036069928555587,0.00658908491178075,0.9984440729128639,-0.0002448376343561516,-0.05576160619397701,-0.0001288191455447609,-0.00047751660488413745,-0.11158114681888956,-0.00023137117984099866,0.10548690056036035,0.03658132004718491,0.0006112807271746532,-0.0040783149731775745,0.0006219203757374884,-0.004149737755722603,0.0,0.0,0.0,0.0,0.0,0.0,0.0,0.0,0.0,0.779747664439598,-0.7714711532139308,0.6793279662306516,-0.6876044927493185,0.09592962333699862,-1.257913853807246,0.0
11.664000000000565,0.12330212316673336,0.004781274750324957,0.0066006516102966074,0.9984450904758951,-0.00028287854151154917,-0.055743082069428525,-0.00017345233533878166,-0.0005489513830761404,-0.11154407424324428,-0.0003167969913266754,0.10490485597815775,0.038089861922028255,0.0005379068882846526,-0.003999808127075715,0.0037074651175015515,-0.004383852342352383,0.0,0.0,0.0,0.0,0.0,0.0,0.0,0.0,0.0,0.7835020895745812,-0.7790124481236057,0.6833605880819696,-0.6878502378287213,0.10053975947259008,-1.2605291428166636,0.0
11.684000000000571,0.12539497844866304,0.005556641109921976,0.0066107431473962286,0.9984478237132735,-0.0003199816874303687,-0.0556937372829764,-0.00022036651715762442,-0.0006182594422233718,-0.1114452719941346,-0.0004069314377398211,0.10432234558426597,0.039597314209082454,0.00046369313868245576,-0.003916524914102333,0.0067959255030218425,-0.00461273491058474,0.0,0.0,0.0,0.0,0.0,0.0,0.0,0.0,0.0,0.7872000968619353,-0.7864293274078882,0.6872482440272685,-0.6880190149055123,0.10507735872831014,-1.2630301093359122,0.0
11.704000000000578,0.12747617944108824,0.006362144466682628,0.006619343410344952,0.9984522688908661,-0.00035610170782618547,-0.05561355324906531,-0.0002695055985840118,-0.0006853643374298636,-0.11128470351683104,-0.0005016720312866509,0.1037393843023688,0.041103372405575114,0.000388715719696265,-0.0038286209788964713,0.009884631212431843,-0.004835790103089306,0.0,0.0,0.0,0.0,0.0,0.0,0.0,0.0,0.0,0.7908393757756512,-0.7937195932683666,0.6909952794559395,-0.6881150566412761,0.10954206392958588,-1.2654189986377267,0.0
11.724000000000585,0.12954571725186564,0.007197754235623663,0.006626437814769349,0.9984584179322168,-0.0003911951283200884,-0.05550253786072581,-0.00032080786265289383,-0.0007501949250160844,-0.11106238555125032,-0.0006009042380941739,0.10315598588012405,0.04260773709115528,0.00031305125029862347,-0.003736257189175412,0.012970917017598267,-0.005052480940846338,0.0,0.0,0.0,0.0,0.0,0.0,0.0,0.0,0.0,0.7944177772347962,-0.8008812356126984,0.694605893837325,-0.6881424235165086,0.11393352091064313,-1.2676980673916292,0.0
11.744000000000591,0.13160358325369112,0.008063433889123181,0.00663201331148571,0.998466258436488,-0.0004252203819314091,-0.05536072543719543,-0.000374206540020135,-0.0008126852843918057,-0.11077838802229048,-0.0007045026047731525,0.10257216295325362,0.04411011393156796,0.00023677664720640277,-0.003639599272996877,0.01605212490964166,-0.005262325723994791,0.0,0.0,0.0,0.0,0.0,0.0,0.0,0.0,0.0,0.797933307576393,-0.8079124264357403,0.6980841461803828,-0.6881050088820274,0.11825138000549329,-1.2698695816464043,0.0
11.764000000000598,0.1336497690624451,0.008959141058679065,0.006636058391741024,0.9984757737105424,-0.00045813782438355053,-0.05518817663802062,-0.0004296303502412985,-0.0008727746323459437,-0.11043283386140514,-0.0008123318273688708,0.1019879271106533,0.04561021368277181,0.00015996904544642393,-0.0035388174610554686,0.01912560827568642,-0.005464895037530825,0.0,0.0,0.0,0.0,0.0,0.0,0.0,0.0,0.0,0.8013841226052247,-0.8148115141809467,0.7014339603652392,-0.6880065439789317,0.12249529747416021,-1.2719358148298352,0.0
11.784000000000605,0.1356842665168508,0.00988482763675208,0.006638563090859875,0.9984869428154063,-0.000489909747333564,-0.054984978336582314,-0.0004870040132224329,-0.0009304072306636758,-0.11002589874528118,-0.0009242477647155003,0.10140328896067577,0.04710775219527224,8.270571833166083e-05,-0.003434086134429256,0.022188736063844153,-0.005659808861020684,0.0,0.0,0.0,0.0,0.0,0.0,0.0,0.0,0.0,0.8047685217391664,-0.8215770180890289,0.7046591303330422,-0.6878506029251268,0.12666493687678337,-1.2738990457577275,0.0
