t,px,py,pz,qw,qx,qy,qz,roll,pitch,yaw,vx,vy,vz,wx,wy,wz,cur_x,cur_y,cur_z,wav_x,wav_y,wav_z,kick_x,kick_y,kick_z,u0,u1,u2,u3,u4,u5,dist_on
28.969999999994823,0.028344322391651813,-0.05971201601630641,0.001095510427326619,0.9991320321599709,0.0010237806608657768,0.041641784634158255,-0.00030977012067345117,0.0020270166744247534,0.08330824618335866,-0.0005355959321510599,-0.002738163284140374,0.051007911862298465,0.022321524155453583,-0.006273569658502192,0.12067939089184596,0.00416612923636234,0.2,0.0,0.0,0.02787375766234007,0.010101939851903526,0.041546074841966416,0.0,0.0,0.0,-0.09028328060784474,-1.1559783225065678,1.3391299407510302,-0.09286603484533029,-0.6425090760779496,-1.801284518454025,1.0
29.003999999994804,0.028244365629985394,-0.05793517626923367,0.0018565353260386831,0.9990432783607112,0.0009215789808141491,0.04372211830510885,-0.00023457489237963718,0.0018278718330288146,0.08747251497060402,-0.00038960374323667975,-0.003163631301455062,0.05355333015688723,0.022431867686375694,-0.006151315763021423,0.12474374924468515,0.0038878606668971433,0.2,0.0,0.0,0.026385964626556464,0.011181398992667693,0.04377507423326042,0.0,0.0,0.0,-0.21593884531497387,-0.988985479978393,1.1869598570171993,0.017966694686121554,-0.8067053698461386,-1.707692677777186,1.0
29.037999999994785,0.028130540532962475,-0.056081472718660035,0.0026196069103074583,0.9989470861294866,0.0008215659580716039,0.04586956590600015,-0.00016451863421859317,0.0016331822886930612,0.0917715715216425,-0.0002543915695326845,-0.0035706425171850294,0.05560896830490299,0.02245625108632011,-0.0059863106239059025,0.12860308304319065,0.0035705983349398705,0.2,0.0,0.0,0.02478375409365626,0.012210825728316438,0.04592994391058481,0.0,0.0,0.0,-0.21593884531497387,-0.988985479978393,1.1869598570171993,0.017966694686121554,-0.8067053698461386,-1.707692677777186,1.0
29.071999999994766,0.028002437615787773,-0.05416256510338896,0.003382615803127998,0.9988431557063276,0.0007244389952458505,0.04808134310184521,-9.966087955294976e-05,0.0014442966174875837,0.09619989574128181,-0.00013002838021005026,-0.00397600096390648,0.05725147936355998,0.022401499186870875,-0.005780249709559008,0.13227595580404358,0.003268002969931319,0.2,0.0,0.0,0.023068838719124192,0.013185992279318897,0.04800108352680868,0.0,0.0,0.0,-0.325159084970958,-0.8360520616167932,1.0436464758989654,0.1175668163273133,-0.9556500134269322,-1.6223170958154118,1.0
29.105999999994747,0.02786029345757003,-0.052192550916770115,0.0041427808809308565,0.9987312380003334,0.0006308515154125348,0.050353894148658034,-4.015910502601034e-05,0.0012624602055726253,0.10075042528526641,-1.6769684110219247e-05,-0.004401220418648163,0.05860392233804349,0.022285447588705667,-0.005535832728027972,0.1357775402912281,0.0029688789346652665,0.2,0.0,0.0,0.021243597076070323,0.014102964146856528,0.0499789581864184,0.0,0.0,0.0,-0.4188082578451944,-0.6964251038954083,0.9090925805771899,0.20614284184606774,-1.0893985732114981,-1.544321207238712,1.0
29.13999999999473,0.02770430805703221,-0.05018422939169592,0.004897368796759693,0.9986111129062042,0.0005414284046104816,0.05268350629805659,1.4130028021126786e-05,0.0010888864140226133,0.1054157845611858,8.57454814256718e-05,-0.0048140991769783665,0.05958651169058438,0.022087100619304727,-0.00525617537224808,0.13903261768046063,0.00266888161702448,0.2,0.0,0.0,0.0193110885567828,0.014958126540019332,0.051854167304708765,0.0,0.0,0.0,-0.4188082578451944,-0.6964251038954083,0.9090925805771899,0.20614284184606774,-1.0893985732114981,-1.544321207238712,1.0
29.17399999999471,0.027534033811800637,-0.048147088045794546,0.005644084582481496,0.9984825771231924,0.00045673385921978,0.05506660134740974,6.317953932445285e-05,0.0009246475646720393,0.11018886896854847,0.00017754565498981578,-0.005214862793772631,0.06020299527987311,0.021802369674324282,-0.004944097056112184,0.1420364253787534,0.0023897995753578453,0.2,0.0,0.0,0.017275058363637314,0.015748208361059935,0.05361751411876851,0.0,0.0,0.0,-0.49777108182308516,-0.5693951719005753,0.783217563262784,0.28395066232709254,-1.2080229548532098,-1.4728812130756075,1.0
29.20799999999469,0.0273497563624255,-0.04609245886923536,0.006380104001251646,0.998345501925069,0.00037728317086431197,0.057498738852596,0.00010711559707082832,0.0007707322478978626,0.11506084750356121,0.00025897576438812034,-0.005634543100458958,0.06058414608103707,0.021450687336627163,-0.004603212551296372,0.14481925049238661,0.0021071222152486656,0.2,0.0,0.0,0.01513992417681356,0.016470296192623395,0.05526006127772267,0.0,0.0,0.0,-0.5629551613834658,-0.4542931603688398,0.6659528362314405,0.35129736515076515,-1.3116187436484272,-1.407186911160671,1.0
29.241999999994672,0.027151843244851717,-0.044030823908842484,0.0071026270168171955,0.9981998076544946,0.0003035446366646922,0.059975248844132516,0.00014623702357099622,0.0006280559058411973,0.12002242897769838,0.00033073721368567446,-0.0060476098557724015,0.06068998587232397,0.021018999664533394,-0.004237439339370069,0.1473159839637561,0.001836880590248272,0.2,0.0,0.0,0.0129107710793595,0.017121854600895624,0.05677319987610438,0.0,0.0,0.0,-0.5629551613834658,-0.4542931603688398,0.6659528362314405,0.35129736515076515,-1.3116187436484272,-1.407186911160671,1.0
29.275999999994653,0.026939892615592227,-0.041969819275725975,0.007809213488821747,0.9980454367524826,0.0002359018893343505,0.06249174308256932,0.00018048364661760942,0.0004973234109904713,0.12506488602328303,0.0003928136517476709,-0.0064357543658739805,0.060483948654562456,0.020499297502599823,-0.0038502684623119704,0.1494958988639982,0.001602106217292364,0.2,0.0,0.0,0.010593337452503342,0.017700743450887606,0.05814871675833552,0.0,0.0,0.0,-0.6152897925005897,-0.3504882909079522,0.5572352212009518,0.40854464673288604,-1.4003190332158844,-1.3464504998773292,1.0
29.309999999994634,0.02671425350534813,-0.03991827356608475,0.00849707089184084,0.9978824277104318,0.00017469271845074069,0.06504295341815494,0.00021014240767012628,0.0003791905551200247,0.13017772620522644,0.00044589267708573127,-0.0068406565586768804,0.06009293205742813,0.01990923824147378,-0.003445714376455273,0.1514076047072376,0.0013577407653686197,0.2,0.0,0.0,0.008193986838689726,0.018205225970058858,0.05937884680289171,0.0,0.0,0.0,-0.6557233735981762,-0.25738650919234457,0.4570006777200395,0.4561108922776276,-1.4743000985731884,-1.2899088342726965,1.0
29.343999999994615,0.026475482043181554,-0.03788448070211897,0.009163447669330027,0.9977108877013381,0.0001202013503795559,0.06762332873882185,0.0002356355750127814,0.0002742293719886928,0.1353498867852548,0.0004909392502599242,-0.007244549584292968,0.05950255015962893,0.01924110971422755,-0.0030279716758964638,0.15300002238459157,0.0011236993808105963,0.2,0.0,0.0,0.005719683123428236,0.018633981170220637,0.060456335272664787,0.0,0.0,0.0,-0.6557233735981762,-0.25738650919234457,0.4570006777200395,0.4561108922776276,-1.4743000985731884,-1.2899088342726965,1.0
29.377999999994596,0.026223302571512976,-0.03587445600577584,0.009805845221158953,0.9975309491683219,7.261109893589524e-05,0.0702277309711045,0.0002568688846116819,0.00018274484575113746,0.14057112903787197,0.0005278748592533306,-0.007609225828107537,0.058657849565582565,0.01848973022202364,-0.0026007356836297594,0.15421534520940486,0.0009421353863054906,0.2,0.0,0.0,0.003177957871940456,0.01898611260009552,0.061374495611023025,0.0,0.0,0.0,-0.6852201836029608,-0.1744273009664704,0.36517866865028886,0.49447040434065276,-1.5337960614928905,-1.2368358528504113,1.0
29.411999999994578,0.025958124786399802,-0.033894804873124525,0.010421587303522963,0.9973428550801493,3.2066510179242366e-05,0.0728502108093987,0.0002741848655636213,0.00010502624067903347,0.1458295827225593,0.000557502263876393,-0.007987529520520923,0.05767357796039305,0.017667421085224316,-0.0021679355475134913,0.15512250086522147,0.0007461469586543105,0.2,0.0,0.0,0.0005768686875989921,0.019261149888839972,0.062127254126216634,0.0,0.0,0.0,-0.7047552897916217,-0.10108137093240771,0.2816862581176745,0.5241518915984228,-1.5790994792750837,-1.186542414868972,1.0
29.44599999999456,0.025680693317119977,-0.03195179804002487,0.011008098831493307,0.9971469332693155,-1.3373297444293464e-06,0.07548450489931503,0.00028807970259860473,4.129466552945075e-05,0.15111274106263836,0.0005809339396005752,-0.008370286654165893,0.05655056155799334,0.016769034169893414,-0.001733564429077308,0.1556874674996697,0.0005502312930444505,0.2,0.0,0.0,-0.002075042762710985,0.019459052122137555,0.06270919986495847,0.0,0.0,0.0,-0.7047552897916217,-0.10108137093240771,0.2816862581176745,0.5241518915984228,-1.5790994792750837,-1.186542414868972,1.0
29.47999999999454,0.025390931479877612,-0.030049998039275473,0.01156295260141491,0.9969435370695101,-2.7611620461859544e-05,0.07812486197053778,0.0002984543792070089,-8.525104638639195e-06,0.15640911652248646,0.0005980706988689162,-0.008699126322892822,0.05523198066463614,0.015799320398824927,-0.0013011004728342773,0.155826452939235,0.0004219730760743805,0.2,0.0,0.0,-0.004768798987762402,0.01958020666086843,0.06311562654677026,0.0,0.0,0.0,-0.7153090778950356,-0.03684718025814798,0.2064230891394206,0.5457345588173756,-1.6105732354699456,-1.138388606319412,1.0
29.51399999999452,0.025089294582574802,-0.02819407508119712,0.012083676795069062,0.9967331334078481,-4.6798885985181875e-05,0.08076487584029092,0.00030562614244008325,-4.4504893547481455e-05,0.16170589912098715,0.0006096494767306884,-0.009037742186473015,0.05381428169705565,0.01476145011291403,-0.0008739929313376646,0.15562882752142007,0.00027571231156724044,0.2,0.0,0.0,-0.007495039511224148,0.019625423277226113,0.06334256522046233,0.0,0.0,0.0,-0.7178597731992864,0.01875152633047683,0.13926567311829846,0.5598438655341752,-1.6286463146514725,-1.091781155562614,1.0
29.547999999994502,0.02477669752692686,-0.026388467122224646,0.012568005477990097,0.9965162840115356,-5.8978677177423345e-05,0.08339781802861003,0.000310111951494801,-6.674961796023223e-05,0.1669896217572428,0.000616805886322079,-0.009385847649986593,0.052305342869302024,0.013649756041809045,-0.0004556561881041136,0.15507909901295006,0.00011654813558308454,0.2,0.0,0.0,-0.010244075604955464,0.019595928175855915,0.06338681800256886,0.0,0.0,0.0,-0.7178597731992864,0.01875152633047683,0.13926567311829846,0.5598438655341752,-1.6286463146514725,-1.091781155562614,1.0
29.581999999994483,0.024453322336319663,-0.02463640825895592,0.013013749573409958,0.996293573102365,-6.433050350777179e-05,0.08601752618092906,0.00031184326346174555,-7.565571828424597e-05,0.17224794200504032,0.0006194748261057222,-0.009666127150453223,0.050659093572898176,0.01248621209365975,-4.902033206926919e-05,0.15407119283475054,3.569947885970532e-05,0.2,0.0,0.0,-0.013005949152338367,0.01949335236439617,0.0632459798155123,0.0,0.0,0.0,-0.7133774685761504,0.06617028954207216,0.08006419801941195,0.5671441768976571,-1.633829259992241,-1.046191470547016,1.0
29.615999999994465,0.02411964888859954,-0.02294092292652399,0.013418724926179872,0.996065687209914,-6.30599314484025e-05,0.08861741380058431,0.000311059128616315,-7.161799616280688e-05,0.1774676541749646,0.0006182038419034006,-0.009951850974329626,0.04894932970044704,0.011260881615319369,0.0003432011874304437,0.1527127369783988,-6.545145012265781e-05,0.2,0.0,0.0,-0.015770493048985038,0.019319717431232446,0.06291845460523206,0.0,0.0,0.0,-0.7028181734292733,0.10584918554114298,0.02864067338788101,0.5683294175551625,-1.626709949165999,-1.0011552153703231,1.0
29.649999999994446,0.02377673083756206,-0.021304826199124494,0.013781099745285848,0.9958334093444585,-5.539241503628656e-05,0.09119058474879026,0.0003082502956059469,-5.501923532060667e-05,0.1826349175640234,0.0006140417956282149,-0.010251200614318026,0.047184589655924335,0.009964308771953522,0.0007183578594387001,0.15100625781279922,-0.0001915239743016292,0.2,0.0,0.0,-0.018527393434921404,0.019077420888142772,0.06240347208587373,0.0,0.0,0.0,-0.7028181734292733,0.10584918554114298,0.02864067338788101,0.5683294175551625,-1.626709949165999,-1.0011552153703231,1.0
29.683999999994427,0.023425049244355657,-0.019730121467147737,0.014099113612746276,0.9955975390278037,-4.1638050360210106e-05,0.09373071265328052,0.0003034032969497725,-2.649867186158756e-05,0.18773702164415557,0.0006069951078844778,-0.010470819183228465,0.045338657713644155,0.00864264996593217,0.0010742183178943292,0.14882978170147557,-0.00023458196224112032,0.2,0.0,0.0,-0.021266253124715265,0.018769214662012923,0.061701087690854015,0.0,0.0,0.0,-0.6871147964907036,0.1382151531952272,-0.015215134754561321,0.5641157922843794,-1.6079472272246222,-0.9562705381097107,1.0
29.717999999994408,0.023065088046722027,-0.018218472871457156,0.014370937278686496,0.9953589521471118,-2.2131838622870758e-05,0.09623132488092168,0.0002966520625481904,1.3282193274700847e-05,0.19276094818746412,0.000597354621945414,-0.01069128832636954,0.04346005578955031,0.007269083560725015,0.001408891774893625,0.14630457536823008,-0.0002988946087513264,0.2,0.0,0.0,-0.023976654269019862,0.01839818199238287,0.06081217843246627,0.0,0.0,0.0,-0.6671578144323849,0.1636733096548248,-0.05175933469602395,0.5552447697916878,-1.5782740056130085,-0.9112064593251321,1.0
29.75199999999439,0.022698000815077883,-0.016771296875257777,0.014595277693838076,0.9951186137784244,2.790963843980765e-06,0.09868566923498803,0.00028842946952629543,6.372358074445883e-05,0.19769310260433515,0.0005860080581873894,-0.010914587670762217,0.04155168492583459,0.00583997964799312,0.0017206652524101842,0.14343402863491764,-0.00038426427134433274,0.2,0.0,0.0,-0.026648223142855386,0.01796771570750212,0.05973844468189472,0.0,0.0,0.0,-0.6438043179539555,0.18262669503493872,-0.08127859728095985,0.5424570723451521,-1.5384672109379318,-0.8656786345772671,1.0
29.78599999999437,0.022324583011427084,-0.015389453214121239,0.014771002584497074,0.9948774971565413,3.2734777507260386e-05,0.10108752075999991,0.00027879484822929194,0.00012403448583133474,0.20252093500869733,0.0005730635379728596,-0.011076272458398418,0.03961757623123536,0.004393307246380669,0.002008199785744182,0.14013265575102737,-0.0004121901279412718,0.2,0.0,0.0,-0.029270692079796323,0.017481488519349903,0.05848238965104616,0.0,0.0,0.0,-0.6438043179539555,0.18262669503493872,-0.08127859728095985,0.5424570723451521,-1.5384672109379318,-0.8656786345772671,1.0
29.81999999999435,0.02194530904750949,-0.014073522028537245,0.014896681478785997,0.9946366142870597,6.727926773014879e-05,0.10343079466546237,0.00026778339139132815,0.00019336822260823309,0.20723216315635468,0.0005585627813358412,-0.011220667836289474,0.03767538189586622,0.002920547602837512,0.0022704963994438585,0.13648493403358927,-0.0004480323925325704,0.2,0.0,0.0,-0.03183395731433292,0.016943421555744145,0.057047292232701205,0.0,0.0,0.0,-0.617871912083616,0.19547927373004195,-0.10408923634771747,0.5264826551811564,-1.4893940831218928,-0.8195021656004288,1.0
29.853999999994333,0.021561417685869243,-0.012823748656469292,0.014971667054603167,0.994397051442245,0.00010602416094377153,0.10570916433949208,0.00025576647864039874,0.0002709902692962311,0.2118140045522683,0.0005432227403498194,-0.01135982476731987,0.03572858379648016,0.0014081740448051833,0.002506765533722077,0.13251032187107872,-0.0005015213539960397,0.2,0.0,0.0,-0.03432814305463193,0.016357657964871444,0.05543719858624545,0.0,0.0,0.0,-0.5901296273249497,0.202635914350164,-0.12053890690844302,0.5080333358782848,-1.4321876737444472,-0.7727739562922871,1.0
29.887999999994314,0.02117392629181673,-0.011639956785281753,0.014995530356530796,0.9941598901895996,0.0001485333769364543,0.10791678133795579,0.00024286147008411668,0.0003560424725907201,0.21625462474260881,0.000527224923602177,-0.011450134604497219,0.03379050584769237,-0.0001102821836822576,0.0027165446639563105,0.1281549547744715,-0.0005180129157220761,0.2,0.0,0.0,-0.03674365564033348,0.01572852693206853,0.053656882215457405,0.0,0.0,0.0,-0.5901296273249497,0.202635914350164,-0.12053890690844302,0.5080333358782848,-1.4321876737444472,-0.7727739562922871,1.0
29.921999999994295,0.020783367065679036,-0.010521886900545242,0.014967324959435408,0.993926211506416,0.0001943476741110531,0.11004815242071361,0.0002290377077160483,0.00044758591697121133,0.2205428915884303,0.0005104316400732874,-0.011510164953456919,0.03187208610909223,-0.0016281293849791298,0.0028996027309290615,0.1234737115241489,-0.0005327523490246881,0.2,0.0,0.0,-0.03907123027052741,0.015060507217872004,0.0517117983608437,0.0,0.0,0.0,-0.5612910946868219,0.20450527623378198,-0.13100589632494708,0.48779237403224995,-1.3681509083456698,-0.7257837654604417,1.0
29.955999999994276,0.0203910027569086,-0.009468833155109022,0.014887029818199777,0.9936971471596084,0.00024304324380906983,0.1120976119401863,0.0002146022929002026,0.0005448280590740218,0.224667314638795,0.0004933882223980929,-0.011558858192822893,0.029970358797236172,-0.0031700524615030498,0.0030559483580675515,0.11849695934874246,-0.0005621192157134879,0.2,0.0,0.0,-0.04130199105213797,0.014358197322925407,0.0496080659697396,0.0,0.0,0.0,-0.5320118394192982,0.20150022851381202,-0.1358943113800543,0.4664065329913957,-1.2982967604993225,-0.6785613577832433,1.0
29.989999999994257,0.0199979779759361,-0.008479751667604285,0.01475490709061042,0.9934738066693073,0.0002941810516291038,0.11405993617440904,0.00019969825551097352,0.0006469096643188036,0.22861728249970378,0.0004762913034798267,-0.011568157470029098,0.028100140433395468,-0.004707460554585218,0.003185854614338776,0.11319662509438072,-0.000569745053298208,0.2,0.0,0.0,-0.043427492924443624,0.013626277071880173,0.047352414647469886,0.0,0.0,0.0,-0.5320118394192982,0.20150022851381202,-0.1358943113800543,0.4664065329913957,-1.2982967604993225,-0.6785613577832433,1.0
30.02399999999424,0.01960492010880572,-0.00755371988018076,0.014570540604710625,0.993257267075958,0.0003473045171665887,0.11593035333583672,0.00018427099173585923,0.0007528881186682308,0.23238308508982367,0.0004589188726066543,-0.011538804929627295,0.026275199078499765,-0.0062164388593978544,0.003289694465066469,0.10760619445413594,-0.0005694252905536713,0.2,0.0,0.0,-0.04543975309014325,0.012869470047217758,0.044952126841885987,0.0,0.0,0.0,-0.5028874458174253,0.19403647379607786,-0.13562817579686912,0.4444797185004279,-1.2236144444232668,-0.631149876032758,1.0
30.05799999999422,0.019213068922504507,-0.006689310426343062,0.014334500393780406,0.993048625149781,0.000402000037604167,0.11770402742011596,0.00016856210404049112,0.0008619761633235422,0.23595487585659916,0.00044165228728012347,-0.011493250648070748,0.024483638644058538,-0.007733681398575946,0.0033680718296454333,0.10176056718645854,-0.0005809804511659701,0.2,0.0,0.0,-0.04733130384856604,0.012092512258724044,0.04241501142227453,0.0,0.0,0.0,-0.47445170549856186,0.18253147982794596,-0.1306464380055692,0.42256720307445494,-1.14509076380913,-0.5836335402541443,1.0
30.0919999999942,0.01882362281994228,-0.005884802974760001,0.014047738646590197,0.992848936801599,0.0004578547234252828,0.11937652926080217,0.00015271748562884312,0.0009733654124365872,0.23932362199890733,0.0004246686967947074,-0.011414850170994778,0.02273791784419405,-0.009236791300705614,0.0034217894678313125,0.09565067790708459,-0.0005813755657870312,0.2,0.0,0.0,-0.04909522041352384,0.011300115138903331,0.03974934436918249,0.0,0.0,0.0,-0.47445170549856186,0.18253147982794596,-0.1306464380055692,0.42256720307445494,-1.14509076380913,-0.5836335402541443,1.0
30.125999999994182,0.018437323865041415,-0.005138759557257356,0.013710422169614237,0.9926592039454809,0.000514445474765806,0.12094387742009567,0.00013668493096621512,0.0010861765671603813,0.24248118916585,0.0004077292179551701,-0.011293699017518153,0.021058967455766,-0.010682957369374883,0.003451638223910955,0.08929774145232203,-0.0005705360618662072,0.2,0.0,0.0,-0.05072513473796196,0.010496930694653569,0.03696380504621839,0.0,0.0,0.0,-0.44717542362088075,0.16740283901471717,-0.1213974829654727,0.4011705845239912,-1.0636990149585601,-0.5361327509377727,1.0
30.159999999994163,0.018055359412706275,-0.004449254270198122,0.01332366198342718,0.9924804147389591,0.0005713932088293237,0.12240214587147924,0.00012064593490240596,0.0011996757749681347,0.24541955266249874,0.00039107536216662417,-0.011152397456478228,0.01942550862850784,-0.01212175455422245,0.0034585945479323026,0.08273437007658746,-0.0005690734167304752,0.2,0.0,0.0,-0.05221527805686989,0.00968752126951022,0.03406744330689568,0.0,0.0,0.0,-0.4214667910543607,0.1490653083216473,-0.10833283819383316,0.3807348242588805,-0.980386000613803,-0.4887965975490334,1.0
30.193999999994144,0.017678919472366824,-0.0038140868809604205,0.012889054611977398,0.9923134989278425,0.0006283304813698911,0.1237477841294382,0.000104735102898513,0.001313141022995666,0.2481314444210017,0.0003748496441871027,-0.010982231430596784,0.017845558902020428,-0.013538777675468587,0.0034437776574971525,0.07596353736853187,-0.0005632203785522524,0.2,0.0,0.0,-0.05356049495868095,0.008876327319837458,0.031069620230776706,0.0,0.0,0.0,-0.4214667910543607,0.1490653083216473,-0.10833283819383316,0.3807348242588805,-0.980386000613803,-0.4887965975490334,1.0
30.227999999994125,0.01730885550382752,-0.003231436493251671,0.012407370078051745,0.9921593215170779,0.0006848868725374421,0.12497761299832803,8.891559131320078e-05,0.001425799380252889,0.2506103467052686,0.000358837566937532,-0.01076936487014611,0.016348764278156087,-0.014871353504179046,0.003408220262957889,0.06900358320071426,-0.00054504231884929,0.2,0.0,0.0,-0.05475623974402152,0.0080676387438424,0.027979944956142606,0.0,0.0,0.0,-0.3976721179173922,0.1279279452963605,-0.09190152285600336,0.36164619389929975,-0.8960636887968002,-0.44179908008174773,1.0
30.261999999994107,0.016946285752077066,-0.002699084269170311,0.011880173718572515,0.9920187032194653,0.0007407325055159305,0.12608861329489976,7.331776780739669e-05,0.0015370021457497055,0.25285006768813595,0.0003431728082922772,-0.01053323834309116,0.014905260602176486,-0.016182058036776664,0.0033530717584998636,0.06187829062559111,-0.0005340387069279089,0.2,0.0,0.0,-0.0557986059648585,0.0072655685877377335,0.024808237788254743,0.0,0.0,0.0,-0.37607802865835077,0.10438991645062501,-0.07254378446855514,0.3442323986904778,-0.8115985647659563,-0.3953322358129707,1.0
30.295999999994088,0.016592341137997596,-0.002214539966844757,0.01130961743700975,0.991892391186654,0.0007955554533174119,0.12707811781300335,5.8057276849941135e-05,0.0016461333812245037,0.25484513032980755,0.0003279608936611767,-0.010269851540028376,0.013517751929306786,-0.017465742327353668,0.003279582484168506,0.054595994562378194,-0.000522564829973984,0.2,0.0,0.0,-0.05668432907932215,0.006474028012559312,0.021564475915218075,0.0,0.0,0.0,-0.37607802865835077,0.10438991645062501,-0.07254378446855514,0.3442323986904778,-0.8115985647659563,-0.3953322358129707,1.0
30.32999999999407,0.01624795350727627,-0.0017757226637819137,0.010697060172906333,0.9917810660568295,0.0008490468008608258,0.12794371524907988,4.311579723368854e-05,0.0017525476523973787,0.2565905806291073,0.00031303166076965185,-0.009967783975684383,0.012224208293445891,-0.018640280242492844,0.003188882266977197,0.04718122488325385,-0.0004992171585845001,0.2,0.0,0.0,-0.057410767542498284,0.00569670623857422,0.018258736151481842,0.0,0.0,0.0,-0.3569139878320151,0.07883653673417643,-0.05068553391092703,0.32876349882892203,-0.7278040202822391,-0.3496013485784099,1.0
30.36399999999405,0.01591416724568977,-0.0013803005843460458,0.010044408523895793,0.9916853412752781,0.0009009322232566754,0.12868322114366101,2.8582461472146627e-05,0.0018556980648369466,0.2580819301509961,0.0002984433992639286,-0.009640194231097238,0.010987846019888428,-0.019780425216265028,0.003082141346416414,0.03964323677471586,-0.0004811874684328033,0.2,0.0,0.0,-0.05797591732669485,0.004937050850618634,0.01490115705583987,0.0,0.0,0.0,-0.3403559448139325,0.051634815367070264,-0.026732899607010863,0.3154545625409836,-0.645433206617542,-0.3048194729768432,1.0
30.39799999999403,0.015592015058501475,-0.0010256666546882892,0.009354248338278524,0.9916057443671425,0.0009509579385449336,0.12929479187254875,1.4550582059811392e-05,0.0019550812114956847,0.2593153874610186,0.00028426902367054737,-0.009284772013561891,0.009806130346137499,-0.020890711520643385,0.0029606034775080687,0.031989767451597095,-0.0004646318166447106,0.2,0.0,0.0,-0.05837840666708297,0.004198251103265016,0.011501892555553775,0.0,0.0,0.0,-0.3403559448139325,0.051634815367070264,-0.026732899607010863,0.3154545625409836,-0.645433206617542,-0.3048194729768432,1.0
30.431999999994012,0.015282458559450323,-0.0007095949928946774,0.008628480192444478,0.9915427401661752,0.0009988774614888226,0.1297767185073483,1.0174582635699101e-06,0.0020501831461716114,0.26028744385075536,0.0002703875097026619,-0.008898389839868466,0.008723573407846573,-0.02187150771817682,0.0028253919694481234,0.024259755555411912,-0.00043765925492408853,0.2,0.0,0.0,-0.058617465466802195,0.003483227576082779,0.008071064206204768,0.0,0.0,0.0,-0.32653022384759334,0.023129330978570034,-0.0010675094710175248,0.3044689629518185,-0.565172941688856,-0.2612021097859089,1.0
30.465999999993993,0.014986473311368445,-0.000429789295296423,0.007869225943703631,0.991496714369886,0.0010444722016776885,0.1301275310167158,-1.1959772716082079e-05,0.002140563502678775,0.2609950842367028,0.0002568102469142927,-0.008485119605865158,0.007698694763485341,-0.022807970355969914,0.0026776019904928344,0.016443430905183708,-0.0004145173133427083,0.2,0.0,0.0,-0.05869292389851011,0.0027946210410666954,0.0046187257512430606,0.0,0.0,0.0,-0.3155178471878422,-0.006361499651963809,0.025957404725283184,0.295922536870033,-0.4876400811366179,-0.21896318035590845,1.0
30.499999999993975,0.014704965272384653,-0.00018367413974239413,0.007079365807315063,0.9914679567938252,0.001087544088128987,0.13034610584102566,-2.431078164976346e-05,0.0022258284409432333,0.2614360051604411,0.00024358460438350101,-0.008041541398223408,0.00672449425406901,-0.02371385816656401,0.002518386239991696,0.008542964779752284,-0.00039351290963906453,0.2,0.0,0.0,-0.0586052030025451,0.0021347839808285632,0.0011548254840109855,0.0,0.0,0.0,-0.3155178471878422,-0.006361499651963809,0.025957404725283184,0.295922536870033,-0.4876400811366179,-0.21896318035590845,1.0
30.533999999993956,0.014438856671617964,3.101467971206545e-05,0.006261266136318563,0.991456699947306,0.0011279049796120604,0.13043135612997137,-3.6028482871697754e-05,0.002305588225433498,0.2616079908533085,0.00023063424303665394,-0.007578085736673746,0.005849373441344024,-0.02447538603519587,0.002348799043593982,0.0006187439514382012,-0.0003641375887662152,0.2,0.0,0.0,-0.05835527656170606,0.0015057796826414209,-0.0023108302758073594,0.0,0.0,0.0,-0.3073590140970127,-0.03654869825148013,0.05402009870498972,0.2898882491021274,-0.41337884754179016,-0.17831106825707965,1.0
30.567999999993937,0.014189066355400043,0.00021642452233037275,0.005417139231028748,0.9914630970207966,0.0011653884788651707,0.130382387227443,-4.707968993253448e-05,0.002379505880131875,0.2615092272131075,0.0002179467104718461,-0.00708733092650188,0.005029638049551146,-0.02518551666611533,0.0021698168178674515,-0.007358902472539864,-0.0003374555462151111,0.2,0.0,0.0,-0.05794465434184705,0.0009093805282428204,-0.0057686066301648985,0.0,0.0,0.0,-0.30205783122018287,-0.06717492547654424,0.08283265817080938,0.2864007807791245,-0.342857406495908,-0.1394429796737918,1.0
30.601999999993918,0.013956354302620506,0.000374980701791371,0.004550016959234061,0.9914871806398328,0.001199847145235241,0.13019880067473444,-5.741572513333964e-05,0.0024472890921828547,0.2611389154393792,0.00020555234091124562,-0.006564363001102668,0.004263017592902601,-0.02584628847954187,0.00198246465577262,-0.015374444018678282,-0.0003119225180587635,0.2,0.0,0.0,-0.057375371754010966,0.00034706657617830487,-0.009209069884426426,0.0,0.0,0.0,-0.29958560777793375,-0.09801368991154605,0.1121410270188905,0.2854590053383319,-0.27646883710470926,-0.10254288254921645,1.0
30.6359999999939,0.013741520753439653,0.0005088895629408142,0.003662634216423724,0.9915288922272621,0.0012311447395407656,0.12988046684826698,-6.702600614877655e-05,0.0025086597823097165,0.26049681364121113,0.0001934121784019075,-0.00603120965137054,0.0035748302946300896,-0.026393241091041103,0.0017877001988764172,-0.02334769542896891,-0.0002821138263940729,0.2,0.0,0.0,-0.056649948215036695,-0.00017996731017386758,-0.012623012814041693,0.0,0.0,0.0,-0.29958560777793375,-0.09801368991154605,0.1121410270188905,0.2854590053383319,-0.27646883710470926,-0.10254288254921645,1.0
30.66999999999388,0.013545447488140615,0.0006200715017300497,0.0027571848689866064,0.9915880696353937,0.0012591619490434102,0.129427620344413,-7.589415502807167e-05,0.0025633779315131955,0.25958342899716425,0.0001815103362165173,-0.005473370693659032,0.002945579703389209,-0.026864827633935086,0.0015863777227190993,-0.03129144880761283,-0.00025334689637841756,0.2,0.0,0.0,-0.05577135717605404,-0.0006708041893779207,-0.016001474920036687,0.0,0.0,0.0,-0.2998827791134134,-0.12886765423608254,0.14172291564241485,0.28702830993461975,-0.21453346687003483,-0.0677801158134568,1.0
30.70399999999386,0.013368733974318687,0.0007107290539775321,0.0018367596214201593,0.991664401440685,0.0012837961409845411,0.12884121905779064,-8.399082638685184e-05,0.0026112433635147904,0.2584007415039869,0.00016986999959715186,-0.004884360094602899,0.0023663054211957566,-0.027279527653943883,0.0013793975730549482,-0.039196240549111146,-0.00022523672267721941,0.2,0.0,0.0,-0.05474301747391757,-0.0011248012791576808,-0.01933576642572082,0.0,0.0,0.0,-0.3028637732444928,-0.15957101404093654,0.17138806802022377,0.29104757373331774,-0.15730349513863612,-0.035309745089412904,1.0
30.737999999993843,0.013211996766319721,0.0007828874013577427,0.0009042493863289427,0.9917574889525669,0.0013049560262624884,0.12812248771717483,-9.130953390001959e-05,0.0026520748219676427,0.2569512825257163,0.00015847753342046982,-0.004288510568860131,0.0018508113332482128,-0.027596090300942594,0.0011676092346132524,-0.046985980997246136,-0.00019538815053963778,0.2,0.0,0.0,-0.053568749257187395,-0.001541576345113975,-0.0226174826190114,0.0,0.0,0.0,-0.3028637732444928,-0.15957101404093654,0.17138806802022377,0.29104757373331774,-0.15730349513863612,-0.035309745089412904,1.0
30.771999999993824,0.013076082903124375,0.0008382354257800182,-3.81444942209239e-05,0.9918668600665858,0.0013225642771436444,0.1272728295889607,-9.784581870608151e-05,0.002685720890884895,0.25523795574081565,0.0001473258249539166,-0.0036756922975385666,0.0013914765056747777,-0.027826140453582705,0.0009517761988025904,-0.05466533095613511,-0.0001661321560462979,0.2,0.0,0.0,-0.052252738915977294,-0.001920994243623355,-0.025838514177860813,0.0,0.0,0.0,-0.30841924925002817,-0.18998670520050245,0.2009754181725167,0.2974314572121795,-0.10496733279084805,-0.005272186973147429,1.0
30.805999999993805,0.01296142354607271,0.0008786870536116082,-0.0009874014089066062,0.991991897782786,0.0013365577613399459,0.12629440849071347,-0.00010358879485898806,0.002712063141606731,0.25326520950314896,0.00013643335525512356,-0.003033956031758378,0.0009764349167709555,-0.027996635775773295,0.0007326915732675959,-0.06223882461449081,-0.00013740427635707447,0.2,0.0,0.0,-0.050799528563902546,-0.0022631587924910983,-0.028991066164674967,0.0,0.0,0.0,-0.3164298731100227,-0.22001465512253263,0.23036147553128328,0.30608404392156063,-0.05765490953716075,0.02220648538390488,1.0
30.839999999993786,0.012868416453164394,0.000906013573606084,-0.0019406187198637707,0.9921319114245178,0.0013468843639662,0.12518963397304975,-0.00010854186778974153,0.002731003620490706,0.25103799709846425,0.0001257993897562989,-0.0023861474513359624,0.000612775014632546,-0.028080768104571892,0.0005111142432924095,-0.06963926904481005,-0.00010848085397024987,0.2,0.0,0.0,-0.04921397412307944,-0.0025683954897419326,-0.032067662886987265,0.0,0.0,0.0,-0.3164298731100227,-0.22001465512253263,0.23036147553128328,0.30608404392156063,-0.05765490953716075,0.02220648538390488,1.0
30.873999999993767,0.012797842981822474,0.0009216617498003717,-0.002895606583403801,0.9922861743318891,0.0013535045133958989,0.1239608952523987,-0.00011270998716612405,0.0027424710382337133,0.24856123887303122,0.00011542959324236049,-0.001732173330150516,0.00029917100087681266,-0.028074017193636978,0.0002877452939718864,-0.07685784986423375,-8.042211622718843e-05,0.2,0.0,0.0,-0.04750120966664057,-0.0028372345952247325,-0.035061149287639586,0.0,0.0,0.0,-0.3267540668019533,-0.24957449305571638,0.2594425328555669,0.31688709191847586,-0.015443842073029134,0.04701351563138703,1.0
30.90799999999375,0.012749966187507835,0.0009272258025939188,-0.0038495051404111246,0.9924538302305063,0.0013563906834897312,0.12261134362715105,-0.00011609933634352173,0.0027464203233529823,0.24584139773069486,0.0001053385311278271,-0.001052356004117785,2.3045679832672782e-05,-0.028007705916870754,6.330038124223615e-05,-0.08391601011448804,-5.3006301493568894e-05,0.2,0.0,0.0,-0.04566663444639639,-0.0030704000237015525,-0.03796470469594744,0.0,0.0,0.0,-0.3392467068914474,-0.2786183658764431,0.28814765401515774,0.329718560418578,0.021634488077863286,0.06904868533300157,1.0
30.94199999999373,0.012724942167244457,0.0009241854686086313,-0.004799507790378898,0.9926339665737217,0.0013555260303281613,0.12114436370511665,-0.00011872566005018279,0.0027428270991470705,0.24288541111200515,9.553043460502638e-05,-0.0003659080672177103,-0.00021271453994123603,-0.0278654278362803,-0.00016152366465795365,-0.09075876671457364,-2.6308807211418238e-05,0.2,0.0,0.0,-0.043715875861680624,-0.0032687909825625133,-0.04077184046366027,0.0,0.0,0.0,-0.3392467068914474,-0.2786183658764431,0.28814765401515774,0.329718560418578,0.021634488077863286,0.06904868533300157,1.0
30.97599999999371,0.012723438169056737,0.0009137401047163995,-0.005743465212908358,0.9928256731925047,0.0013509058142544487,0.1195631346118607,-0.00012060313560387439,0.0027316929162154308,0.23969980515377895,8.602068146187069e-05,0.0003136383666266669,-0.00040634894289603697,-0.02763269839073039,-0.0003860469320096086,-0.09735959347588774,-1.09401870159899e-06,0.2,0.0,0.0,-0.04165475647417538,-0.0034334641127845926,-0.04347639421574465,0.0,0.0,0.0,-0.3537488844700249,-0.30711134657476336,0.3164188904080787,0.3444425617472521,0.05358748943867736,0.08822572403318586,1.0
31.009999999993692,0.012745555434426858,0.0008971601386690789,-0.0066787379681208636,0.9930279343575104,0.0013425363141860533,0.11787155873302355,-0.00012175281438885744,0.0027130414374474097,0.2362925642158622,7.682044777885383e-05,0.0010152502661257836,-0.0005696669188388167,-0.02734210002804596,-0.0006095771435192697,-0.1037585783406641,2.3215151384187596e-05,0.2,0.0,0.0,-0.039489279361589955,-0.003565620971827783,-0.04607253800960887,0.0,0.0,0.0,-0.37008764827055063,-0.33503491619210596,0.3442146513250618,0.3609092160342691,0.08045947152226812,0.10446705456001859,1.0
31.043999999993673,0.012791196782287463,0.0008756226174872979,-0.007602695759872917,0.9932396964787182,0.0013304347181029449,0.1160737711493275,-0.00012220269160256192,0.0026869176464476402,0.23267214017867227,6.7934605523425e-05,0.0017249569375709889,-0.000702314927841867,-0.026984765674404283,-0.000831433983244671,-0.10991507959813365,4.6275183578294324e-05,0.2,0.0,0.0,-0.037225597467985407,-0.003666590629759819,-0.04855477114296777,0.0,0.0,0.0,-0.37008764827055063,-0.33503491619210596,0.3442146513250618,0.3609092160342691,0.08045947152226812,0.10446705456001859,1.0
31.077999999993654,0.012860860085386608,0.0008500820161619392,-0.008513261422712205,0.9934599425197609,0.0013146303575422083,0.11417354981491638,-0.00012197670893043013,0.002653392399067571,0.22884626307598294,5.938224886819963e-05,0.0024130550169603948,-0.000801621991187106,-0.026541409727779706,-0.0010509532397430777,-0.11578157458938215,6.721302092887495e-05,0.2,0.0,0.0,-0.03486998553662737,-0.0037378128653027137,-0.050917909496399204,0.0,0.0,0.0,-0.3880901110212748,-0.3623928887866411,0.37151623500080894,0.37896815151894087,0.10232533855350275,0.11770451571793458,1.0
31.111999999993635,0.012954499381655868,0.0008215016858195824,-0.00940804904826308,0.9936875800197051,0.0012951629788060346,0.11217531457646551,-0.00012110785678543339,0.0026125562431225,0.22482395132848546,5.117170223150378e-05,0.003118857226584699,-0.0008775998797616839,-0.026043008157092908,-0.0012674729679004008,-0.12141746937892983,8.69160200057978e-05,0.2,0.0,0.0,-0.0324288253199431,-0.003780825683554996,-0.05315708813592433,0.0,0.0,0.0,-0.40757282802676126,-0.38919183627229964,0.39830858783096473,0.39845754869729944,0.11928400155522811,0.12788077206163373,1.0
31.145999999993617,0.013071763896800382,0.0007907663195234584,-0.010284661066160366,0.9939214955050563,0.0012720831389770692,0.11008373297235165,-0.00011963424462723108,0.002564520718001594,0.22061471578992778,4.3306849626948564e-05,0.003834925532196595,-0.0009311828720187549,-0.025485615308700825,-0.0014803399343506773,-0.1267976062982449,0.00010503184670529564,0.2,0.0,0.0,-0.029908581915398018,-0.003797250175482459,-0.05526775150065488,0.0,0.0,0.0,-0.40757282802676126,-0.38919183627229964,0.39830858783096473,0.39845754869729944,0.11928400155522811,0.12788077206163373,1.0
31.179999999993598,0.013212925349181559,0.0007585957740091333,-0.011141126598173873,0.9941606384852644,0.0012454531951282166,0.10790301156879628,-0.00011758952219239939,0.0025094218994214184,0.2162271323013826,3.580429622760511e-05,0.004513591752405571,-0.0009603272021652355,-0.024850136789980777,-0.001688909989529855,-0.13185097796816656,0.00012061783314753252,0.2,0.0,0.0,-0.027315781946329228,-0.0037887760397098996,-0.057245640233133936,0.0,0.0,0.0,-0.42835478506323366,-0.4154501872132571,0.42458945246333224,0.41921707896152155,0.13145360401028564,0.13494810244477634,1.0
31.21399999999358,0.0133778115758519,0.0007256773508177765,-0.011975323016143732,0.9944039164080953,0.0012153457397457712,0.10563787549180927,-0.0001150154461661159,0.0024474147731906926,0.2116708118796456,2.8669327117194236e-05,0.005205167061357483,-0.0009726194840683689,-0.02416317404749691,-0.0018925458550302678,-0.13665618369681895,0.000134632926369006,0.2,0.0,0.0,-0.024657000461563206,-0.0037571502365615016,-0.05908678900862131,0.0,0.0,0.0,-0.4502487281782075,-0.44118539753689945,0.45035716209782045,0.4410786107728539,0.13896764692913077,0.1388678055801769,1.0
31.24799999999356,0.013565829629049463,0.0006926282380128793,-0.012785121286087492,0.9946502294858355,0.0011818440856412274,0.10329332840988509,-0.00011195686827504434,0.0023786750435949083,0.20695591589896345,2.190479660297836e-05,0.005909734175915732,-0.0009693718993533138,-0.023423167740846976,-0.0020906199824396858,-0.14120393554508723,0.00014675841119710055,0.2,0.0,0.0,-0.021938844199205075,-0.0037041646485888036,-0.060787515931221066,0.0,0.0,0.0,-0.4502487281782075,-0.44118539753689945,0.45035716209782045,0.4410786107728539,0.13896764692913077,0.1388678055801769,1.0
31.28199999999354,0.0137769698700746,0.0006599497940684413,-0.013568705831281336,0.9948985577954789,0.0011450427346782158,0.10087386584708898,-0.00010845587087173682,0.002303400731935723,0.20209157314123155,1.552045364338587e-05,0.006560478620067109,-0.0009501477172540574,-0.02261695659038788,-0.0022825144084315237,-0.14539808614471852,0.00015636668285053687,0.2,0.0,0.0,-0.019167936489781632,-0.003631644421583638,-0.062344409085987686,0.0,0.0,0.0,-0.4730720286744531,-0.46642172279089966,0.4756183179322277,0.4638771694913059,0.14197274976925847,0.13961091861995686,1.0
31.315999999993522,0.01401095091010738,0.0006280922005050392,-0.014324256743992222,0.9951478733036371,0.0011050463191940923,0.09838433919623343,-0.00010456003731034145,0.0022218085851291856,0.19708761688373108,9.517352486035071e-06,0.007218636492170234,-0.0009198273214201874,-0.02176539554749117,-0.0024676228741173528,-0.1493354834146258,0.00016410690835350685,0.2,0.0,0.0,-0.016350907444176555,-0.0035414383468176176,-0.06375432095276709,0.0,0.0,0.0,-0.4966438588220792,-0.49118399559547843,0.5003821140241327,0.487447565661387,0.14066800104412341,0.13720021299681567,1.0
31.349999999993504,0.014266940382040587,0.0005974393910441517,-0.015050023433724118,0.9953971504542237,0.001061969997930235,0.0958299276000288,-0.00010031703831140141,0.0021341358433642453,0.1919545269804856,3.898021949016032e-06,0.007892217917891414,-0.0008794904114029714,-0.020868032540837484,-0.002645352527928632,-0.15302225204984096,0.00016957656630946954,0.2,0.0,0.0,-0.013494383731003898,-0.003435409234423689,-0.06501435826784523,0.0,0.0,0.0,-0.4966438588220792,-0.49118399559547843,0.5003821140241327,0.487447565661387,0.14066800104412341,0.13720021299681567,1.0
31.383999999993485,0.014544579855815053,0.0005682953345563863,-0.015744499048817424,0.9956454504226258,0.0010159392133574803,0.09321531927479626,-9.577442156576248e-05,0.0020406392739734753,0.18670178415176122,-1.335750882952045e-06,0.008495243310023213,-0.0008307684347604916,-0.01992167096151505,-0.0028151255018655295,-0.1563361411193058,0.00017307438478711878,0.2,0.0,0.0,-0.01060498022433299,-0.0033154250017682955,-0.06612187077833255,0.0,0.0,0.0,-0.5207834794729288,-0.5154932732501296,0.5246561272956893,0.5116225402172265,0.13531651126039265,0.13172406483186117,1.0
31.417999999993466,0.014843498365502554,0.0005409149482453492,-0.01640620585865927,0.9958918585644786,0.0009670890843888358,0.09054536159161548,-9.098316199407326e-05,0.0019415934793838995,0.18133917650766732,-6.189406250669615e-06,0.009100012912142233,-0.0007758785123684836,-0.01893722855764411,-0.0029763838324373937,-0.1593907718779534,0.0001744799196424005,0.2,0.0,0.0,-0.007689294772728328,-0.003183350992260194,-0.06707444579588533,0.0,0.0,0.0,-0.5453128689321579,-0.5393671207024835,0.5484467906883113,0.5362352031737118,0.12617172600552995,0.12326476826596991,1.0
31.451999999993447,0.01516265755899394,0.0005154875405072492,-0.017033773433884777,0.9961354688530621,0.0009155648083339418,0.08782529271067928,-8.598985755511716e-05,0.001837293155808175,0.17587726409394772,-1.0660047634673264e-05,0.009710268936805577,-0.0007156977156720088,-0.0179136280065301,-0.0031285893956252667,-0.16219092458435744,0.00017330126743096778,0.2,0.0,0.0,-0.004753903588001327,-0.0030410424902884464,-0.06786989973756814,0.0,0.0,0.0,-0.5700577010148139,-0.5628184785467415,0.5717585341945365,0.5611197386493518,0.11347258103150752,0.1118953950774291,1.0
31.485999999993428,0.015501327061203083,0.0004921443540517804,-0.01762601173715958,0.9963754606297517,0.0008615206652562929,0.08505993593598073,-8.084281584761265e-05,0.0017280495427733967,0.1703257608279879,-1.4751267283630917e-05,0.010260028871056776,-0.0006528480465897942,-0.016854479957179876,-0.0032712270675819455,-0.1646366589450264,0.00017083610545405505,0.2,0.0,0.0,-0.001805358550875816,-0.002890337874213763,-0.06850627067830213,0.0,0.0,0.0,-0.5700577010148139,-0.5628184785467415,0.5717585341945365,0.5611197386493518,0.11347258103150752,0.1118953950774291,1.0
31.51999999999341,0.015859091496523325,0.0004709856906724975,-0.01818169699762536,0.9966110668798176,0.0008051194332334627,0.08225404209411262,-7.559464461082024e-05,0.0016141889795092657,0.1646942227441781,-1.847830184485238e-05,0.010793570962377933,-0.0005882526892916822,-0.01576531608357722,-0.00340381314960094,-0.1668086507348118,0.0001663594224420814,0.2,0.0,0.0,0.0011498136889957736,-0.0027330524442011335,-0.0689818162001925,0.0,0.0,0.0,-0.5948471892991902,-0.5858540102620262,0.5945920690887432,0.5861113121239248,0.09744065948337224,0.09767839941874112,1.0
31.55399999999339,0.016234729301924565,0.00045204459135141025,-0.01869978545286368,0.9968415320274174,0.0007465331468183362,0.07941283128810377,-7.02872673077464e-05,0.001496057097529967,0.15899313532847945,-2.1837342925560643e-05,0.011324834211385559,-0.0005223976118226703,-0.01464280977574266,-0.0035258904987697666,-0.16872649817119148,0.0001591736894606705,0.2,0.0,0.0,0.004105111757264992,-0.0025709723226819917,-0.0692950066471292,0.0,0.0,0.0,-0.619516765245357,-0.6084751953960514,0.6169457573137522,0.6110484723610445,0.07827835635210081,0.08066499661580818,1.0
31.58799999999337,0.016627204392585013,0.00043531110787764184,-0.019179384213594646,0.9970661808677943,0.0006859414089459586,0.07654120611630214,-6.496427743544184e-05,0.0013740129765620673,0.15323233463479435,-2.4832771034760024e-05,0.011803494027210374,-0.0004577253231978365,-0.013493425240149797,-0.003637033965749888,-0.17031026794848428,0.00015121520447532107,0.2,0.0,0.0,0.007054057903884608,-0.002405848905916062,-0.06944452334475441,0.0,0.0,0.0,-0.619516765245357,-0.6084751953960514,0.6169457573137522,0.6110484723610445,0.07827835635210081,0.08066499661580818,1.0
31.621999999993353,0.01703601903268112,0.00042076455394797697,-0.01961946023232538,0.997284413134548,0.0006235303576149887,0.0736437843085801,-5.967817677142725e-05,0.0012484261351754758,0.1474210739385039,-2.749216323298702e-05,0.012250432741463663,-0.00039512698460237715,-0.012323405842465801,-0.0037368615638627843,-0.17160937688958702,0.00014176841241483597,0.2,0.0,0.0,0.00999019585721789,-0.0022393935199684404,-0.06942926244605988,0.0,0.0,0.0,-0.6439062393065031,-0.6306755305096604,0.6388126834324239,0.6357714415038744,0.05617076551386417,0.06089806080988825,1.0
31.655999999993334,0.017459820307396887,0.0004083196145361338,-0.020019239600631875,0.9974956425226145,0.0005594940814008252,0.0707257177308375,-5.446308156660906e-05,0.001119683774338322,0.14156966697370132,-2.981036275341462e-05,0.01268882190480173,-0.000334434321568113,-0.01112458873556734,-0.0038250249426954688,-0.1726569494840091,0.00012967698516653256,0.2,0.0,0.0,0.01290708731090281,-0.0020732721010276738,-0.0692483306250458,0.0,0.0,0.0,-0.6678610145788392,-0.6524409724458152,0.6601809519990096,0.6601234746257295,0.03128251066049388,0.03840980608357215,1.0
31.689999999993315,0.01789732774480547,0.0003978597474179881,-0.020378098452612094,0.9976993572656788,0.0004940323343411006,0.06779193173197764,-4.935332093773744e-05,0.000988183010877063,0.1356879626387755,-3.1788928416920526e-05,0.01308123386999052,-0.00027757140576432346,-0.009904242601813124,-0.003901216223199859,-0.17339113198514364,0.00011712906151238806,0.2,0.0,0.0,0.01579830786152333,-0.0019091001753333467,-0.0689010500993078,0.0,0.0,0.0,-0.6678610145788392,-0.6524409724458152,0.6601809519990096,0.6601234746257295,0.03128251066049388,0.03840980608357215,1.0
31.723999999993296,0.01834792992756355,0.0003892718355544237,-0.02069515652451084,0.997895130743059,0.00042734891713136285,0.0648469231419483,-4.4398404355917155e-05,0.0008543258041123417,0.12978494132980853,-3.3466842800904235e-05,0.013428629741333844,-0.0002256523483914961,-0.008673463753726008,-0.003965179946157027,-0.17383215685157224,0.0001040029615238626,0.2,0.0,0.0,0.0186574439667017,-0.0017484376570328394,-0.06838697019297266,0.0,0.0,0.0,-0.6912321363755629,-0.6737487591275524,0.681032976471202,0.6839504411878602,0.0037628306437181664,0.013227577605498926,1.0
31.757999999993277,0.018810190123408947,0.00038238794134784265,-0.020969853720991635,0.9980825549261253,0.0003596536440137119,0.06189574001048805,-3.962257507905627e-05,0.0007185286671711925,0.1238706797049239,-3.483808027180495e-05,0.0137622169124646,-0.00017796803308235213,-0.007417396948441762,-0.004016701269837239,-0.17402504037890557,8.848065459044917e-05,0.2,0.0,0.0,0.021478087311359154,-0.0015927838869229873,-0.06770586652082339,0.0,0.0,0.0,-0.7138762473464039,-0.6945676826664218,0.7013447866382384,0.7071017458397544,-0.026255253445103537,-0.014626380312251256,1.0
31.79199999999326,0.019282640595017764,0.00037701891904828096,-0.021201808430432914,0.9982612894914454,0.00029115972735946664,0.05894329394037906,-3.504778496096381e-05,0.000581213976806459,0.1179549727270029,-3.589931816069495e-05,0.014055609949648449,-0.00013585054714941014,-0.006142253932910834,-0.0040556124073157455,-0.17392421165725488,7.264647301892426e-05,0.2,0.0,0.0,0.024253830607312465,-0.001443572602736064,-0.06685775289353191,0.0,0.0,0.0,-0.7138762473464039,-0.6945676826664218,0.7013447866382384,0.7071017458397544,-0.026255253445103537,-0.014626380312251256,1.0
31.82599999999324,0.019764530905627797,0.0003729855101234014,-0.02139027752387126,0.9984310806988042,0.00022208169371786538,0.055993989238252155,-3.071685007488188e-05,0.0004428032939951107,0.11204659190801633,-3.669694961007541e-05,0.01429285266326506,-0.00010048368028641315,-0.004867867036720747,-0.004081803057598652,-0.17352343595137562,5.739890390995732e-05,0.2,0.0,0.0,0.026978266347440626,-0.0013021664231100244,-0.06584290126595271,0.0,0.0,0.0,-0.7356575745674883,-0.7148589077201064,0.7210874662995399,0.7294316961931653,-0.05864756490352852,-0.04512704105347814,1.0
31.85999999999322,0.02025438138729884,0.00037006908939099834,-0.021534863975801552,0.9985916990011665,0.00015263753027874462,0.0530527537257652,-2.664320943590029e-05,0.00030372789683689343,0.10615535149575432,-3.7225240914176524e-05,0.014511723638998907,-7.090719150028483e-05,-0.003571013286886425,-0.004095209207735108,-0.1728775993262536,4.0174948743752694e-05,0.2,0.0,0.0,0.02964498106757647,-0.0011698520545186763,-0.06466184530876,0.0,0.0,0.0,-0.7564459919283186,-0.7345743485738487,0.7402247390499728,0.7507983564986799,-0.09329994307652395,-0.07824732513209028,1.0
31.893999999993202,0.020750589716848216,0.0003680396942556717,-0.021635405735091717,0.9987429752700001,8.3046082022002e-05,0.05012446439351779,-2.283503161836822e-05,0.00016442039538958316,0.10029095836003554,-3.747568656845091e-05,0.014695351833381621,-4.79401901264939e-05,-0.0022550273541693078,-0.00409581761972851,-0.17195554521282216,2.2695091423718163e-05,0.2,0.0,0.0,0.03224755328876786,-0.001047835102384982,-0.0633153981328519,0.0,0.0,0.0,-0.7564459919283186,-0.7345743485738487,0.7402247390499728,0.7507983564986799,-0.09329994307652395,-0.07824732513209028,1.0
31.927999999993183,0.02125224764706282,0.0003666772830897388,-0.02169130362522278,0.9988848219906699,1.352478452049876e-05,0.04721347096234915,-1.932446161000906e-05,2.5307480555254854e-05,0.09446205902928695,-3.749588379587297e-05,0.014813993298791829,-3.2430020380993035e-05,-0.0009521928477004861,-0.004083672687969612,-0.17072815101673863,7.024546962012101e-06,0.2,0.0,0.0,0.03477955694369907,-0.0009372341507736742,-0.06180467999128824,0.0,0.0,0.0,-0.7761178296890818,-0.7536571091291965,0.7587133729839625,0.7710643924899651,-0.13009739729540307,-0.11394687847584938,1.0
31.961999999993164,0.02175786516503622,0.00036574004921083363,-0.021702280045289467,0.9990171811677858,-5.570845701839789e-05,0.044324579732605104,-1.611418611023076e-05,-0.00011318064553913903,0.08867821090631091,-3.728169780605801e-05,0.014910203091648306,-2.355546453012614e-05,0.0003705738592818928,-0.004058867851016647,-0.16925774345126857,-1.0052562262747943e-05,0.2,0.0,0.0,0.03723455810103081,-0.0008390761947518285,-0.06013112670735898,0.0,0.0,0.0,-0.7945555736758244,-0.7720409545756923,0.7765025338854555,0.7900968890591396,-0.1689621683697441,-0.1522098128686608,1.0
31.995999999993145,0.02226575381118276,0.00036498589985301346,-0.02166837693596002,0.9991400478606215,-0.00012443754593948012,0.041462622953212964,-1.3198965115536625e-05,-0.0002506172981779737,0.08294902050189779,-3.682084441098554e-05,0.014975086820394955,-2.181413084393601e-05,0.0017145122327710497,-0.004021547627667953,-0.16752551349920666,-2.7294591874951753e-05,0.2,0.0,0.0,0.039606116944445616,-0.0007542915803534414,-0.05829651091361601,0.0,0.0,0.0,-0.7945555736758244,-0.7720409545756923,0.7765025338854555,0.7900968890591396,-0.1689621683697441,-0.1522098128686608,1.0
32.02999999999318,0.02277483782722022,0.00036417922153875236,-0.021589174144842817,0.9992534895433821,-0.00019245031649225757,0.038631936088633856,-1.0596889935143942e-05,-0.00038658596910071883,0.0772830980057497,-3.615533349297181e-05,0.014968705625090045,-2.7148416606581133e-05,0.0030311835696851504,-0.003971909612116501,-0.1654840120970116,-4.169049474622507e-05,0.2,0.0,0.0,0.0418877984676239,-0.0006837079968094649,-0.056302975428291664,0.0,0.0,0.0,-0.8116483156172549,-0.7896514879548611,0.7935339606067249,0.8077688017817639,-0.20984792805150743,-0.19303865028682793,1.0
32.06399999999322,0.023283640196429742,0.0003630779331849033,-0.02146448709818955,0.9993576069971346,-0.0002595372516621379,0.035837214016661754,-8.30061504930906e-06,-0.0005206734264612262,0.07168977214475594,-3.528337894514682e-05,0.01493623860612162,-3.931385285742512e-05,0.004364855252520365,-0.003910198721519468,-0.16320012510693568,-5.6804012802611476e-05,0.2,0.0,0.0,0.04407317465847662,-0.0006280463991624107,-0.05415304638125,0.0,0.0,0.0,-0.8272859822220006,-0.806399544797271,0.809735985263853,0.8239525604128083,-0.25270041363265067,-0.23641476369004916,1.0
32.09799999999326,0.023790430623335877,0.00036145278644027587,-0.0212945662574946,0.9994525467323221,-0.0003254932442232242,0.033083241147405434,-6.2934429640764136e-06,-0.0006524748331261674,0.0661785504999762,-3.419158360098548e-05,0.014875031839108203,-5.8751349426114366e-05,0.005722885749588754,-0.0038367077228707537,-0.1606649848572926,-7.180853890163621e-05,0.2,0.0,0.0,0.04615583157580792,-0.0005879167462694475,-0.05184965452634175,0.0,0.0,0.0,-0.8272859822220006,-0.806399544797271,0.809735985263853,0.8239525604128083,-0.25270041363265067,-0.23641476369004916,1.0
32.131999999993305,0.024293970604000424,0.00035907787428110613,-0.021079237085080405,0.9995385160920673,-0.0003901193069911332,0.030374374634570028,-4.577621986596297e-06,-0.0007815989207173336,0.06075808609647263,-3.2911006492984675e-05,0.014739286050060916,-8.386283958430076e-05,0.0070372993146640105,-0.0037517742300506654,-0.15781856771309963,-8.337932009160772e-05,0.2,0.0,0.0,0.04812938924366198,-0.00056381255126266,-0.04939617101036839,0.0,0.0,0.0,-0.8413690071313878,-0.822192370744733,0.8250330895770159,0.8385313621598718,-0.29746209020267605,-0.282302931988253,1.0
32.165999999993346,0.024792811876757467,0.0003557291911713959,-0.02081839827604919,0.9996157568790602,-0.00045322197630949865,0.027715215660445464,-3.1367113906786695e-06,-0.0009076640648072057,0.055437521548661384,-3.144160456236209e-05,0.014574206608533183,-0.00011541470350313494,0.008364890750003,-0.003655775992471362,-0.15472884749201163,-9.489946498324365e-05,0.2,0.0,0.0,0.049987512557277985,-0.0005561076847139121,-0.04679642419072645,0.0,0.0,0.0,-0.8538104012988215,-0.836935110903644,0.8393479535289572,0.8514006827640084,-0.3440689864080625,-0.33064815564316186,1.0
32.19999999999339,0.025285223114752436,0.00035121111428465724,-0.020512522831369985,0.9996845491752843,-0.000514614523500997,0.02511050195266962,-1.945656898239539e-06,-0.0010303015574375934,0.05022627444056256,-2.9772089090096258e-05,0.014381342074893728,-0.00015408397185230163,0.009720532437941598,-0.003549132144535879,-0.1513940968167322,-0.00010570603234226608,0.2,0.0,0.0,0.05172392332518685,-0.0005650538017917491,-0.04405471682438661,0.0,0.0,0.0,-0.8538104012988215,-0.836935110903644,0.8393479535289572,0.8514006827640084,-0.3440689864080625,-0.33064815564316186,1.0
32.23399999999343,0.025741970882875775,0.0003302474318615666,-0.02015395747460027,0.9997452214407885,-0.000574117566625424,0.022564631491060295,-1.0002808260199395e-06,-0.0011491581984532876,0.04513308495184744,-2.7938004565282518e-05,0.0013076899769465236,-0.006422126919879274,0.014226570065598434,-0.0034284886817611947,-0.14778804801130815,-0.0001588453498533039,0.2,0.0,0.0,0.05333252307816403,-0.0005907646869409795,-0.04117595080361677,-27.335924475090216,-15.886475847534658,8.269813899912588,-0.864523991983466,-0.8505202830426499,0.8525897952566612,0.862457648758216,-0.39244567808868364,-0.38137073394575927,1.0
32.26799999999347,0.024902695815307622,-0.00024448021961341734,-0.01946463090021052,0.9997985568090813,-0.0006309639928983757,0.02006109634269565,-1.0022303042358966e-05,-0.0012630928876789704,0.040124863698511884,-4.5392763530138815e-05,-0.05218241022827434,-0.028221876490823535,0.02677322829646466,-0.0031700302063264194,-0.14860590114401537,-0.0017096181878644525,0.2,0.0,0.0,0.054810698337058185,-0.0006328282813903198,-0.038168541328026946,-27.335924475090216,-15.886475847534658,8.269813899912588,0.0638222154344214,-0.5734914941883407,0.5374333501274386,-0.027763129627443373,-0.3349053308547114,-0.8927964122191769,1.0
32.30199999999351,0.02232635227550857,-0.0015409479853641548,-0.018362676352884726,0.9998466395538839,-0.0006827643967680997,0.017499348039261904,-6.343331052812786e-05,-0.0013683779498664045,0.03500038767596145,-0.0001508354082249867,-0.10137645455632015,-0.048919642709191226,0.03852675623882228,-0.002699448500744303,-0.15458271372984958,-0.005651626992827155,0.2,0.0,0.0,0.056154003284237045,-0.0006910148034122869,-0.03503873536447641,-27.335924475090216,-15.886475847534658,8.269813899912588,2.0834557274720487,-0.04344292313824605,-0.22449391097321103,-1.8155226628129282,-0.1751488436350901,-1.9000395918256057,1.0
32.335999999993554,0.018228067925990875,-0.003494021960840648,-0.01688903564424121,0.9998912199410173,-0.0007259275576626152,0.014730526440071516,-0.00018139692049143024,-0.0014576744279402168,0.02946184670722966,-0.00038430775344661875,-0.14203654862236087,-0.06707926399630847,0.04875384778276139,-0.001988798487730939,-0.17350604316469884,-0.009580344153438116,0.2,0.0,0.0,0.057356638493525285,-0.0007651696805488306,-0.031791829638337064,-27.335924475090216,-15.886475847534658,8.269813899912588,2.0834557274720487,-0.04344292313824605,-0.22449391097321103,-1.8155226628129282,-0.1751488436350901,-1.9000395918256057,1.0
32.369999999993595,0.012804347899483096,-0.006047250279236828,-0.015079781964863927,0.9999323004432219,-0.0007562727323141644,0.011605128372297636,-0.0003789160088333963,-0.0015216482384708516,0.02321019617654658,-0.0007755429630243852,-0.1773129019952045,-0.08348911902043854,0.057862939619715004,-0.0010134970637782404,-0.1999466316582493,-0.013762507605805467,0.2,0.0,0.0,0.05841294153250542,-0.000855019752557909,-0.0284337343510232,-27.335924475090216,-15.886475847534658,8.269813899912588,3.919740667248948,0.3011665984590759,-0.9070533901864479,-3.3138616747416214,-0.056498446346522346,-2.8519072044242213,1.0
32.40399999999364,0.0068476510854598,-0.00887384300853022,-0.013107468650478892,0.9999676848204552,-0.0007695161814278041,0.007976664196432942,-0.0006403030232002126,-0.0015493953557205713,0.01595250400771939,-0.0012930058880961008,-0.16321862201924017,-0.07926648595277436,0.05642925355557189,8.387068523281493e-05,-0.23053076315539953,-0.016849894786353868,0.2,0.0,0.0,0.05931539742884401,-0.0009603559919244227,-0.0249697824744557,0.0,0.0,0.0,4.703747227265252,0.3041815751667576,-1.208525996879862,-3.7994120589984437,-0.05176590062857511,-3.294907968508544,1.0
32.43799999999368,0.0024284858728760086,-0.011717739522925257,-0.011188522104178254,0.9999919920122913,-0.0007650401613197819,0.003822304662817847,-0.000905876318489664,-0.0015370386414759601,0.007643236462403998,-0.0018176406546416967,-0.08137665590837141,-0.0920419876474126,0.057126950113247345,0.00117508408864421,-0.2611009558935736,-0.014450152835865194,0.2,0.0,0.0,0.060055751640020236,-0.0010808689557522126,-0.02140600407636806,34.43465522144168,-16.762796613536064,3.5431984334418596,4.703747227265252,0.3041815751667576,-1.208525996879862,-3.7994120589984437,-0.05176590062857511,-3.294907968508544,1.0
