t,px,py,pz,qw,qx,qy,qz,roll,pitch,yaw,vx,vy,vz,wx,wy,wz,cur_x,cur_y,cur_z,wav_x,wav_y,wav_z,kick_x,kick_y,kick_z,u0,u1,u2,u3,u4,u5,dist_on
3.671999999999817,0.1736519943178677,-0.025858965391581314,0.03196966250288464,0.9983707083990423,-2.499316216248014e-05,0.05578424060687292,0.012001936762474493,0.0012972057538882611,0.11161893195011047,0.02411436017801523,-0.030175152664264696,0.2200466059265375,0.038293720453677,0.00430858692750889,0.09698274120324404,0.06850726812324609,0.2,0.0,0.0,-0.009641824537557096,-0.001122458129220418,0.04926804227320342,0.0,0.0,0.0,-1.7397496383692395,1.1155071969635832,-0.3479739729170175,0.9722175677723608,-2.2169114659409703,-0.27975858989924085,1.0
3.7059999999998134,0.1726376568793388,-0.018503763770884474,0.03324034832669207,0.998262512903691,0.00010287015887578912,0.057428571063720464,0.01318726561942696,0.0017314536151672932,0.1149075677341922,0.026518487880287177,-0.02946478645838457,0.21217951596780235,0.03632955780803509,0.005369505572890339,0.09662604138472858,0.0717754558964318,0.2,0.0,0.0,-0.01237334631530088,-0.0012966452308911895,0.04851834282527337,0.0,0.0,0.0,-1.771588900783181,1.1431596156243367,-0.3096999546592731,0.9381304010040836,-2.207348366720184,-0.27616609548620485,1.0
3.7399999999998097,0.17164605191035862,-0.011413158658686588,0.03444356318554076,0.9981499758544969,0.0002509255039524711,0.05906632966547676,0.014412891379167956,0.002219036106518613,0.11818179213341246,0.029008480835743325,-0.028842852294502737,0.20449258752979874,0.03432312917512877,0.006392319955130823,0.09619962389560441,0.07321929452681625,0.2,0.0,0.0,-0.015062259625729553,-0.0014589214364101836,0.04763422200698509,0.0,0.0,0.0,-1.7958065940725931,1.1632002373956996,-0.27857947628028185,0.9111870018613635,-2.1963884751676326,-0.27161109519539706,1.0
3.773999999999806,0.17067420999673188,-0.004581039173652871,0.03557794468822116,0.9980334980095529,0.00041684263168219863,0.06069626700189131,0.015650120289356473,0.002752125501635909,0.12143903384102404,0.031526657178785826,-0.028306742491305083,0.1969847934606387,0.03227909979970325,0.0073667805762754205,0.09569427333855379,0.07313455019077975,0.2,0.0,0.0,-0.01769966364127357,-0.0016065387533970655,0.046618438678087196,0.0,0.0,0.0,-1.8132656706470138,1.1765997628890952,-0.2538164291435886,0.8904835133067679,-2.184099229577903,-0.2660990030687498,1.0
3.807999999999802,0.16971927374283446,0.0019986609106643067,0.036642289080992665,0.9979135571676898,0.0005983278805278842,0.06231698983837298,0.016875046730554573,0.0033231638769812078,0.12467649340840274,0.03402486427076952,-0.027852450429367542,0.18965451866213665,0.03020213833608754,0.008283845596302172,0.09510153852325168,0.0717839666747131,0.2,0.0,0.0,-0.020276829697669006,-0.0017368574633721857,0.04547424644670785,0.0,0.0,0.0,-1.8247613608119106,1.184232097862117,-0.2346712275052204,0.8752016739988249,-2.1705452987683724,-0.2596428552735053,1.0
3.8419999999997985,0.16877854009311488,0.008331944961686974,0.037635551553280855,0.9977906896057109,0.0007931344561611135,0.06392697304005138,0.01806800464438521,0.003924894393289409,0.12789116583075444,0.036463386718770904,-0.02747488893321301,0.18249966976073156,0.028096928321210687,0.00913564443848586,0.09441381779713046,0.06939916911063199,0.2,0.0,0.0,-0.02278524098025745,-0.0018473703909605889,0.04420538907238846,0.0,0.0,0.0,-1.8310201110054278,1.1868775221181431,-0.22046312771964177,0.8646069068272935,-2.155789226973856,-0.25226278824702253,1.0
3.8759999999997947,0.1678494926336968,0.014424738819143893,0.03855684689609777,0.9976654703717907,0.0009990705141503151,0.06552457254789522,0.019213054893902307,0.004550382532238702,0.13107986175044978,0.03880992618004148,-0.027168159520852886,0.17551777223869075,0.02596817724353636,0.009915437230865683,0.09362441408188155,0.06618300994585605,0.2,0.0,0.0,-0.025216632116186882,-0.0019357260623243135,0.04281609320434707,0.0,0.0,0.0,-1.8327011745122812,1.18522815411774,-0.21056982596645546,0.8580440427351985,-2.139892022667466,-0.24398552478867608,1.0
3.909999999999791,0.16692982543931476,0.020282879205342514,0.03940545042599187,0.997538494592251,0.001214005631440652,0.06710803912981078,0.020297514160670802,0.0051930300012455665,0.13423922791962853,0.04103866420810162,-0.026925779017645507,0.1687060534874046,0.023820622893150328,0.010617570632099928,0.0927275646507417,0.06231211429068642,0.2,0.0,0.0,-0.02756302842468897,-0.001999750472430717,0.04131105828747612,0.0,0.0,0.0,-1.8303998564564627,1.1798946939494264,-0.20442531924509927,0.8549316837290062,-2.1229136812573484,-0.23484387053120614,1.0
3.9439999999997872,0.16601745981821506,0.025912104732922648,0.040180799078805035,0.9974103610216694,0.0014358760985316644,0.06867553264429298,0.021311527455237393,0.005846583332058325,0.13736576734436254,0.04312941231052953,-0.02674086949004457,0.1620615118216927,0.021659036807713063,0.011237430516602025,0.09171845008402205,0.05793945746716489,0.2,0.0,0.0,-0.029816784554903587,-0.0020374672013309344,0.03969544348544705,0.0,0.0,0.0,-1.824651692436114,1.1714137258264703,-0.20151674351617582,0.8547559171522537,-2.1049136358375122,-0.22487622124152795,1.0
3.9779999999997835,0.16511055511505202,0.03131804904643929,0.04088249257287065,0.9972816584181053,0.001662689337305433,0.070225136572869,0.022247683931661107,0.006505138647664447,0.14045585935447,0.04506684859538471,-0.026606316829086096,0.15558097243027955,0.01948822472803755,0.0117713919586463,0.09059318627417506,0.053196865153522205,0.2,0.0,0.0,-0.03197062221965984,-0.002047115644645877,0.03797485149357258,0.0,0.0,0.0,-1.8159370571212485,1.1602550915237309,-0.20138069045308787,0.8570638675929616,-2.08595113321215,-0.21412608022713298,1.0
4.01199999999978,0.16420751456089047,0.03650623567619017,0.041510294539646136,0.9971529548922214,0.001892527652639717,0.07175487259949823,0.02310067416820465,0.007163143642533371,0.14350577970625006,0.04683983731263249,-0.026514902671220482,0.14926113173111621,0.017313024054586252,0.012216766943179833,0.08934880283225882,0.04819736896916202,0.2,0.0,0.0,-0.03401766671509926,-0.0020271671523420204,0.036155309143743736,0.0,0.0,0.0,-1.8046858636198204,1.1468290183808716,-0.2035993428061788,0.8614574036061373,-2.0660855346177454,-0.20264158452351,1.0
4.045999999999776,0.16330698701005328,0.041482074236489044,0.04206413352051215,0.9970247901057117,0.0021235514542691926,0.0732627150392298,0.023866986172627416,0.007815397495580658,0.14651172072575552,0.04844082578184297,-0.02645941372531294,0.14309859179963358,0.015138298358718561,0.012571750231310446,0.08798321078163318,0.0430373807163294,0.2,0.0,0.0,-0.03595148190091907,-0.0019763389019522228,0.03424324473955611,0.0,0.0,0.0,-1.7912821358050692,1.1314928107229718,-0.20779664896196315,0.8675871931758279,-2.0453765421910757,-0.19047503833572776,1.0
4.079999999999773,0.16240786527453427,0.04625085765791282,0.04254410373116059,0.9968976700358065,0.0023540020339943854,0.07474660494376206,0.024544636908839148,0.008457049195269161,0.14946981143188517,0.049865312270146095,-0.026432732001129996,0.1370898865509479,0.012968929054710695,0.012835363813002224,0.08649516201302576,0.037798669543109675,0.2,0.0,0.0,-0.037766103305175096,-0.0018936053668930318,0.03224546210120217,0.0,0.0,0.0,-1.7760683231167735,1.1145570020938718,-0.21363467120704743,0.8751472145435499,-2.023884353456667,-0.17768245227583013,1.0
4.113999999999769,0.16150928165630896,0.05081776019886801,0.04295046549933529,0.9967720639435104,0.0025822039479313588,0.0762044637371713,0.0251329359824278,0.009083594585011224,0.15237613753529047,0.051111378064465446,-0.026427908916747123,0.13123150125910493,0.010809804383582495,0.013007400383118956,0.08488420261508961,0.03255014034765445,0.2,0.0,0.0,-0.039456069011782315,-0.0017782072766555164,0.030169111346157854,0.0,0.0,0.0,-1.7593492885288597,1.096290926434301,-0.22081018178820938,0.8838697690549282,-2.0016697470601117,-0.16432308718369237,1.0
4.147999999999765,0.16061060118415083,0.05518783603324184,0.04328364528747455,0.9966484031573354,0.0028065670303203563,0.07763420626025347,0.02563227816211147,0.009690872319574667,0.15522676118516202,0.05217927706117495,-0.02643822580326665,0.1255198868390714,0.008665805899643188,0.013088366276321563,0.08315062188159425,0.02734942068436559,0.2,0.0,0.0,-0.0410164479887763,-0.0016296580025648233,0.028021656482246395,0.0,0.0,0.0,-1.7413959419865717,1.076927706514187,-0.22905153969019199,0.893521002939843,-1.9787941037389731,-0.15045900167516424,1.0
4.1819999999997615,0.15971141298251731,0.059366018256485555,0.04354423521888115,0.9965270812923787,0.003025588051384513,0.0790337531260821,0.02604396157732162,0.010275058846858146,0.15801774032646584,0.053071076523622834,-0.02645724292400253,0.11995147013418686,0.006541792686591545,0.013079424289663053,0.08129539852492415,0.02224426872300988,0.2,0.0,0.0,-0.04244286552159,-0.0014477473396913836,0.025810839943265437,0.0,0.0,0.0,-1.722448518890898,1.0566686832502823,-0.2381158540096232,0.9038969198510265,-1.9553193671552391,-0.13615460297888304,1.0
4.215999999999758,0.1588115201337814,0.06335711819172474,0.04373299203428686,0.9964084555530239,0.0032378520243615877,0.08040104231212147,0.02637002866570025,0.010832662483730866,0.16074514753114594,0.05379034312672738,-0.026478838778471365,0.1145226612645176,0.004442583562515892,0.012982336808336967,0.07932014538992713,0.01727381756117543,0.2,0.0,0.0,-0.04373152542846335,-0.0012325426915409518,0.02354464425279115,0.0,0.0,0.0,-1.70271952019058,1.035687324366828,-0.24778642291655106,0.9148198512551506,-1.9313079497453793,-0.12147620106637602,1.0
4.249999999999754,0.15791092833977874,0.06716582491047857,0.04385083541497302,0.9962928488068036,0.003442033164153271,0.08173403993526308,0.026613127211583477,0.011360516631175958,0.16340508817499774,0.05434186894451618,-0.026497241164537208,0.10922985891272709,0.0023729375623145472,0.012799409629998523,0.07722705375698183,0.012469672221502155,0.2,0.0,0.0,-0.04487922875485891,-0.0009843876986054172,0.021231251057694793,0.0,0.0,0.0,-1.6823963403852709,1.0141326584438362,-0.257870427458861,0.9261353441906328,-1.9068225891934234,-0.1064915665229118,1.0
4.28399999999975,0.1570098336427028,0.07079670490971035,0.04389884561883843,0.9961805521608937,0.0036368955005168318,0.08303075017530573,0.026776389092992736,0.011855772166020963,0.1659937178449544,0.05473143259187502,-0.026507051219816773,0.1040694542606012,0.0003375330116688831,0.012533436856976651,0.07501883814362212,0.007856875574841087,0.2,0.0,0.0,-0.04588338867043955,-0.0007038983840217492,0.018878997827901593,0.0,0.0,0.0,-1.6616436145076285,0.9921322831268022,-0.26819685464837034,0.9377094231248895,-1.8819261615072223,-0.09126949302978371,1.0
4.3179999999997465,0.15610860942736635,0.07425420190880416,0.0438782603868447,0.9960718278169968,0.0038212931511898557,0.08428922432956748,0.026863324624463895,0.012315889048835965,0.1685072588774987,0.05496559127428383,-0.026503261450914743,0.09903783414440655,-0.0016590544716850427,0.012187647194434829,0.07269868235604485,0.0034547586442148764,0.2,0.0,0.0,-0.046742041325608705,-0.0003919569188787384,0.016496332571534655,0.0,0.0,0.0,-1.6406053165811794,0.9697949958532566,-0.2786146227429407,0.9494261829667762,-1.8566814569784447,-0.07587936571762177,1.0
4.351999999999743,0.1552077928954937,0.07754263674731585,0.04379047108897096,0.9959669120226949,0.0039941702639344195,0.0855075689964775,0.02687773063694723,0.01273862719619856,0.17094201594649552,0.05505150001038532,-0.02648126858123143,0.09413138387163877,-0.0036123746965594223,0.011765651957238703,0.07027018740193708,-0.0007223073453887841,0.2,0.0,0.0,-0.04745385246445661,-4.970313562550347e-05,0.014091766963373298,0.0,0.0,0.0,-1.6194066441091381,0.947213095877161,-0.2889908794513896,0.9611856697351504,-1.8311509255310705,-0.060390736994414884,1.0
4.385999999999739,0.15430807118220186,0.08066620737668477,0.04363701809008807,0.9958660178381473,0.004154561083950145,0.086683953378377,0.02682361579068522,0.013122038473002272,0.17329439050322792,0.05499676520280114,-0.026436881176632204,0.08934648981985784,-0.005518126098931769,0.011271395120238472,0.0677373218246862,-0.004663017759560247,0.2,0.0,0.0,-0.048018119636620914,0.0003214760597931447,0.011673828328125207,0.0,0.0,0.0,-1.598160483792263,0.9244691463969666,-0.29920467577924675,0.9728972579938804,-1.8053963940463875,-0.04487291436161167,1.0
4.419999999999735,0.1534102673246782,0.08362898890543051,0.04341958531777162,0.9957693368916873,0.0043015925349417046,0.08781661561469416,0.02670516859962514,0.01346446954471277,0.17556089329424138,0.054809384599762596,-0.026366320755289073,0.08467953934669034,-0.0073721793975669355,0.01070910538004691,0.06510437532590774,-0.00835744703497213,0.2,0.0,0.0,-0.0484347699011946,0.0007199592083021246,0.009251010957084933,0.0,0.0,0.0,-1.576975692077891,0.9016443279024566,-0.3091387262143655,0.9844713382395114,-1.7794787316667982,-0.029394587907006664,1.0
4.4539999999997315,0.15251532619642658,0.0864349336345582,0.043139994039907474,0.9956770415722115,0.0044344845815233154,0.08890386840626845,0.02652671134738247,0.013764556554771077,0.17773815636106702,0.05449765795128174,-0.02626622380844911,0.08012692202172213,-0.009170600110699104,0.010083249041775377,0.062375915594759065,-0.011799790652314616,0.2,0.0,0.0,-0.048704352970935554,0.0011439045676903108,0.006831727266231406,0.0,0.0,0.0,-1.5559442983959797,0.8788057333334411,-0.31869224828901105,0.9958320645405334,-1.753457522571729,-0.014023463391204527,1.0
4.487999999999728,0.15162430037590072,0.08908787122090406,0.04280019589664258,0.9955892878739935,0.004552547373162982,0.08994410402836553,0.02629262888160742,0.014021207396391976,0.1798229449018949,0.054070045751302136,-0.026133642493919713,0.07568503542909163,-0.010909669970631463,0.009398485250839455,0.05955674796384554,-0.014988166159523836,0.2,0.0,0.0,-0.04882802980342103,0.0015912659393780997,0.004424259324578445,0.0,0.0,0.0,-1.5351408147981584,0.8560058487664828,-0.3277817600097427,1.0069179809192703,-1.7273907775240849,0.0011741255515004267,1.0
4.521999999999724,0.1507383360531164,0.09159150905144656,0.04240226521862009,0.9955062178891032,0.004655178175575331,0.09093579863407372,0.02600730641708429,0.014233583645974527,0.18181216810428968,0.05353504559709268,-0.025966041569953257,0.07135029157243582,-0.012585907376098892,0.008659624507511302,0.056651878102832565,-0.017923997013938608,0.2,0.0,0.0,-0.048807556705483854,0.0020598098532415886,0.0020367112929805596,0.0,0.0,0.0,-1.514624043736301,0.8332844598483797,-0.336339361865817,1.0176802047051932,-1.701334646808077,0.016133587789627812,1.0
4.55599999999972,0.14985865909372054,0.09394943283943799,0.04194839067003286,0.9954279618607712,0.004741858315985279,0.09187751588032032,0.02567507743091484,0.01440108307827751,0.18370288886822442,0.05290108844042155,-0.02576129207785309,0.06711912354140598,-0.01419608652196947,0.007871590467922948,0.0536664778391204,-0.020611451825761924,0.2,0.0,0.0,-0.048645265077934256,0.0025471339096153995,-0.0003230366847644428,0.0,0.0,0.0,-1.494438809061742,0.8106704093097781,-0.3443110747439952,1.0280807379352805,-1.6753431372651453,0.030792421605269515,1.0
4.5899999999997165,0.14898656136454785,0.09616510745180717,0.04144086626680906,0.9953546397917781,0.004812150184782134,0.09276790992173986,0.02530018071733663,0.014523322941600062,0.18549233241205634,0.05217645289707465,-0.02551766217295704,0.06298799246878405,-0.015737254876642643,0.007039384974104954,0.050605854124558425,-0.02305693779676374,0.2,0.0,0.0,-0.04834403698777099,0.0030506860788506143,-0.0026473726051111524,0.0,0.0,0.0,-1.474617602048138,0.7881832071337187,-0.35165524611735116,1.038090909397209,-1.6494678394758353,0.04509053596101964,1.0
4.623999999999713,0.14812338741175854,0.0982418779778145,0.04088208183102303,0.9952863626225591,0.004865694324831239,0.09360572782129371,0.024886725685351312,0.014600124123852134,0.18717789377512659,0.05136919580968564,-0.025233805463569785,0.058953394780418375,-0.0172067487055212,0.006168056218042532,0.047475421111784974,-0.02526864716848839,0.2,0.0,0.0,-0.04790727681345968,0.0035677847630899394,-0.004928994227382139,0.0,0.0,0.0,-1.4551821318979024,0.7658344922952547,-0.35834103896685887,1.0476899523179193,-1.6237576707285042,0.058970544118265855,1.0
4.657999999999709,0.1472705215710068,0.10018297104867521,0.04027451295234732,0.9952232330091285,0.004902206629714759,0.09438981142884355,0.02443866500945062,0.01463149629747416,0.18875714424906315,0.050487097309997085,-0.02490874718226915,0.05501186971984732,-0.01860220637315444,0.005262669914779174,0.04428067525693928,-0.02725615471286619,0.2,0.0,0.0,-0.047338879264163275,0.004095639431767484,-0.007160947709257975,0.0,0.0,0.0,-1.43614477403347,0.7436293484303069,-0.36434701374600315,1.056863718950885,-1.5982586389126556,0.07237802782005887,1.0
4.691999999999705,0.14642937557854746,0.10199149641698846,0.03962071053583706,0.9951653457415396,0.004921475663695986,0.09511909877991118,0.023959773782537396,0.014617624093921597,0.19022783678515842,0.04953761870125103,-0.02454186848406336,0.05116000711385215,-0.019921579196059774,0.00432828333649779,0.041027173326891944,-0.029030063704542444,0.2,0.0,0.0,-0.046643194124874346,0.004631371651250052,-0.00933666280622202,0.0,0.0,0.0,-1.4175099126796615,0.7215674785128894,-0.369659810131847,1.065603530232624,-1.5730136318861514,0.08526177050462047,1.0
4.7259999999997016,0.14560137674259513,0.10367044880346495,0.03892329002240233,0.9951127878502052,0.0049233601091522305,0.09579262506676059,0.023453634367563696,0.01455885432669448,0.19158791043729378,0.048527871573334054,-0.02413288914089577,0.04739445533352546,-0.02116313966176523,0.0033699220424279076,0.03772051315844968,-0.030601697392921904,0.2,0.0,0.0,-0.04582498812515257,0.005172036339477176,-0.011449984232200963,0.0,0.0,0.0,-1.399275176834208,0.699644245658535,-0.3742729323179482,1.0739051562430806,-1.5480622362117251,0.09757395830080351,1.0
4.759999999999698,0.1447879567254202,0.10522271001675985,0.03818492037385865,0.9950656384506433,0.004907786341474567,0.09640952323286646,0.02292362619768419,0.014455684255348433,0.19283549390885107,0.047464596667108394,-0.023681848881615727,0.043711929397083626,-0.022325486876155976,0.00239255912754837,0.03436631699381358,-0.03198283272199644,0.2,0.0,0.0,-0.04488940436867095,0.005714643087912732,-0.013495198832381355,0.0,0.0,0.0,-1.3814325707514268,0.6778515885958525,-0.37818563916036463,1.0817679213641411,-1.5234405884583428,0.10927034787046275,1.0
4.793999999999694,0.14399054097847097,0.10665105135029196,0.037408312918363266,0.9950239683778289,0.004874746126846124,0.0969690242399601,0.022372919831471185,0.014308750861163707,0.19396890827810442,0.046354151115321034,-0.02318908761025199,0.04010921915496052,-0.023407549149614723,0.0014010968056126036,0.030970217200451892,-0.03318547290433681,0.2,0.0,0.0,-0.04384191979323964,0.006256177405079619,-0.015467058279375943,0.0,0.0,0.0,-1.363969501595704,0.6561788212389772,-0.3814019385353754,1.0891939267188127,-1.4991812615357767,0.12031040049932895,1.0
4.82799999999969,0.14321053886510673,0.10795813625784513,0.03659621015430351,0.9949878396598758,0.004824294434736485,0.0974704570543169,0.02180447462797349,0.01411882108772242,0.1949866689799693,0.0452025028016587,-0.02265522472265624,0.03658319749415215,-0.024408583681592374,0.00040035013832368015,0.02753784417394601,-0.034221655418793906,0.2,0.0,0.0,-0.04268830115579336,0.006793621747948294,-0.017360797069290435,0.0,0.0,0.0,-1.3468697080295702,0.6346133262376213,-0.383929683745111,1.096187381615311,-1.47531318779316,0.13065738219111667,1.0
4.861999999999687,0.14244933449820948,0.10914652330756532,0.03575137461128784,0.9949573048777368,0.004756547385049789,0.0979132483966145,0.021221039461508114,0.013886783048008345,0.19588748712311455,0.04401523069374561,-0.022081137731785508,0.03313082849504921,-0.025328173353032554,-0.0006049485109312801,0.024074816217329383,-0.03510329204843894,0.2,0.0,0.0,-0.04143456005356083,0.007323976219066323,-0.019172145663442483,0.0,0.0,0.0,-1.3301140942691745,0.6131411524728166,-0.38577976866620056,1.102754035255876,-1.4518616198376568,0.14027842994810813,1.0
4.895999999999683,0.14170827831291177,0.1102186694111873,0.03487657786564353,0.9949324064450479,0.004671682179057256,0.09829692233463473,0.020625155772080926,0.013613641870555207,0.19667027022154893,0.04279753011814798,-0.02146794040411485,0.02974917543499655,-0.026166220691592065,-0.0016099011917776501,0.020586731138964906,-0.03584203772774806,0.2,0.0,0.0,-0.040086907501042164,0.007844278818195022,-0.020897338693086888,0.0,0.0,0.0,-1.3136814757991293,0.591747527435371,-0.3869654189357668,1.1089007012595884,-1.4288481265144863,0.1491445900318331,1.0
4.929999999999679,0.1409886793880262,0.11117693332258487,0.03397458980574103,0.9949131758416689,0.004569940283853512,0.09862109977614322,0.02001916235484824,0.013300522688789056,0.197334122422021,0.04155422205409002,-0.020816960595779446,0.02643540863718379,-0.02692293905838353,-0.0026095399151995647,0.01707915936071256,-0.0364491850524587,0.2,0.0,0.0,-0.03865170858244617,0.008351625147076429,-0.02253311821707156,0.0,0.0,0.0,-1.2975492435937246,0.5704172955180516,-0.38750157590318496,1.1146348675435727,-1.406290621631725,0.157230833937978,1.0
4.963999999999675,0.14029179852316628,0.11202357940073486,0.03304816823895027,0.9948996328693669,0.004451626797101936,0.09888549774347867,0.01940520217061497,0.0129486665023191,0.19787834429955284,0.04028976561912349,-0.02012971799284108,0.02318681313055013,-0.02759884126173129,-0.003599045317143371,0.013557638511356489,-0.03693558135941419,0.2,0.0,0.0,-0.03713543769099659,0.00884318747458041,-0.024076732094464932,0.0,0.0,0.0,-1.281693946324727,0.5491352850537966,-0.3874043611456934,1.1199643760085976,-1.3842034353001207,0.1645160304111306,1.0
4.997999999999672,0.13961884207174452,0.11276078162799706,0.03210004892414316,0.9948917849466096,0.0043171082854941275,0.09908992851658455,0.01878523059155467,0.012559423464808275,0.19830243228308084,0.03900827301505892,-0.019407901941239106,0.020000795982429983,-0.028194725793081188,-0.004573767428728583,0.010027669248543414,-0.03731156574284557,0.2,0.0,0.0,-0.03554463485027102,0.00931623307674091,-0.025525927604454414,0.0,0.0,0.0,-1.2660917973311996,0.5278866136590242,-0.38669061838068014,1.1248971660782427,-1.362597422759422,0.17098288197588318,1.0
5.031999999999668,0.1389709565240279,0.11339062787198097,0.03113293610798715,0.9948896264591416,0.004166810486717637,0.09923429870238425,0.018161024624255624,0.01213424633809726,0.19860607777161995,0.037713526296050286,-0.01865334954073088,0.016874893263526404,-0.02871166086459834,-0.005529242284904614,0.006494712119385817,-0.03758692350520268,0.2,0.0,0.0,-0.03388586358897962,0.009768141772039336,-0.026878940512990394,0.0,0.0,0.0,-1.2507191131230175,0.5066569409484986,-0.3853775290416456,1.1294410760638558,-1.3414801064973552,0.17661783299768807,1.0
5.065999999999664,0.1383492238284737,0.11391512437755485,0.030149493635972028,0.994893138185115,0.004001215874592871,0.09931860825408018,0.017534192829158322,0.01167468405905881,0.19878916599680374,0.036408995404011914,-0.017868024176813685,0.01380677658569616,-0.02915096649128123,-0.0064612067139816105,0.0029641853130495987,-0.03777085571935801,0.2,0.0,0.0,-0.03216567080985886,0.010196422576753184,-0.028134479848527752,0.0,0.0,0.0,-1.2355526885263386,0.48543267540067436,-0.383482295909229,1.1336036950760155,-1.320855849021887,0.18141095144857633,1.0
5.09999999999966,0.13775465743376103,0.11433620047352848,0.029152336700438465,0.9949022868092422,0.0038208610882448065,0.0993429494609228,0.016906185693087383,0.011182375369876171,0.19885177468257062,0.035097856992494555,-0.017053994657572655,0.010794259153841607,-0.02951419488499764,-0.0073656113302224425,-0.0005585354056350589,-0.03787196178331752,0.2,0.0,0.0,-0.030390549056338197,0.010598729408354745,-0.029291708706746997,0.0,0.0,0.0,-1.2205701133741662,0.46420114142687036,-0.3810218891746706,1.1373922587096597,-1.300726053230395,0.18535578676652076,1.0
5.133999999999657,0.13718819903017818,0.11465571347661968,0.028144024279480186,0.9949170241871086,0.003626334170196748,0.09930750942650779,0.016278306258904293,0.010659042482734235,0.19879417958368775,0.033783013706606135,-0.01621341484568488,0.007835301281304012,-0.02980310923679231,-0.008238631808492266,-0.00406723362265657,-0.03789823301442366,0.2,0.0,0.0,-0.028566901538120817,0.010972875766972983,-0.030350221455428754,0.0,0.0,0.0,-1.2057500342060556,0.4429507143989291,-0.378012850622136,1.1408135798986898,-1.2810893919408313,0.18844920145511668,1.0
5.167999999999653,0.13665071599451226,0.11487545377500002,0.027127052352131545,0.9949372840966646,0.0034182712553543315,0.09921259883889373,0.015651720915304406,0.010106484792229963,0.19861691274946675,0.03246711402908883,-0.015348502568219928,0.004928017262333768,-0.03001965851277819,-0.009076678686299813,-0.007553498630987076,-0.037857055426370426,0.2,0.0,0.0,-0.026701010229791967,0.011316848326151178,-0.031310017755295814,0.0,0.0,0.0,-1.1910723550582034,0.4216709512961873,-0.3744711654555771,1.1438739908860815,-1.2619421189404338,0.1906911274147831,1.0
5.201999999999649,0.13614299940705774,0.11499715434683605,0.026103848052028915,0.9949629797947181,0.0031973533139717436,0.09905867409058595,0.015027470087049247,0.00952657240887977,0.19832080730007223,0.031152571610267358,-0.014461533571219584,0.0020711218023501763,-0.030165946998141607,-0.009876404628096035,-0.011008718405995344,-0.037755211806741545,0.2,0.0,0.0,-0.024799007305715475,0.011628819364864046,-0.0321714738500606,0.0,0.0,0.0,-1.1765201384264388,0.4003544117572886,-0.37041375522965797,1.1465809160661362,-1.2432799667738297,0.19208581727268004,1.0
5.235999999999645,0.1356657620476047,0.11502252214531554,0.02507676485630008,0.9949940040559165,0.0029643032780413718,0.09884633609868569,0.01440647905344431,0.008921239743144578,0.19790699524810296,0.02984158439735355,-0.013554833749337154,-0.0007357098497173092,-0.03024420850263003,-0.010634706590177168,-0.014424442204156068,-0.03759885181006556,0.2,0.0,0.0,-0.022866850120135424,0.011907157972742034,-0.032935311607000264,0.0,0.0,0.0,-1.1620820269813221,0.3789989840486243,-0.36586017839293017,1.1489446682744904,-1.225100332465345,0.19264348361155392,1.0
5.269999999999642,0.1352196374221319,0.11495325580914685,0.024048078389303614,0.9950302295604372,0.0027198832170507166,0.09857632718048112,0.01378956909397819,0.008292479390335847,0.19737690130157268,0.028536154358194014,-0.012630736667690988,-0.0034926926632692064,-0.030256792295463204,-0.011348729370398606,-0.01779240866987527,-0.03739350158572792,0.2,0.0,0.0,-0.020910299884730102,0.012150439958772586,-0.033602565805331434,0.0,0.0,0.0,-1.1477486653535387,0.35760431047634467,-0.36082900746757407,1.1509748223412344,-1.2073991323224522,0.19237676248838742,1.0
5.303999999999638,0.13480517979046305,0.11479104721629962,0.023019982847015376,0.9950715094868127,0.00246489140981078,0.09824952748559562,0.0131774681495489,0.007642335894407999,0.1967322356892709,0.0272381061723108,-0.011691567732810172,-0.00620000632906886,-0.030206140640534857,-0.0120158701449593,-0.021104572879735974,-0.03714410632840705,0.2,0.0,0.0,-0.018934904141702343,0.01235745639491782,-0.03417455018562596,0.0,0.0,0.0,-1.1335122467299779,0.33617129224778414,-0.3553374590385924,1.152679886814835,-1.1901706704290165,0.19130008091311201,1.0
5.337999999999634,0.1344228646370933,0.11453758277098898,0.021994588202552616,0.9951176782991185,0.002200159288225055,0.09786695101601178,0.01257082075713996,0.006972899288202669,0.1959749860830053,0.025949104416400828,-0.01073963236474014,-0.008857789918450413,-0.03009476594183117,-0.012633781632320432,-0.02435313126563065,-0.03685507426859912,0.2,0.0,0.0,-0.016945983074011566,0.012527220727486146,-0.03465282277868791,0.0,0.0,0.0,-1.1193664883648313,0.3147020332901744,-0.3494014777100264,1.1540674196107976,-1.1734079242114048,0.18942942646078909,1.0
5.37199999999963,0.13407308952019914,0.1141945448618921,0.020973918177896362,0.9951685527114172,0.00192654826807899,0.09742974127022917,0.011970197243567474,0.006286298434268576,0.1951074086969521,0.024670669242063556,-0.00977720567336061,-0.011466137172097109,-0.029925228614546644,-0.013200373934659736,-0.02753054428876333,-0.03653032091248118,0.2,0.0,0.0,-0.014948619637959031,0.012658974390315257,-0.035039151026400255,0.0,0.0,0.0,-1.105306586118254,0.29319977928372515,-0.34303583911978,1.1551441465320966,-1.1571028265783057,0.1867821185342426,1.0
5.405999999999627,0.13375617524725356,0.11376361347017996,0.019959908952963214,0.9952239328106575,0.0016449464826522834,0.0969391665491564,0.011376102175694347,0.005584694194975309,0.19413201864661653,0.023404190567421608,-0.008806523661984039,-0.014025092446838073,-0.02970011593920967,-0.013713815137255628,-0.030629556765626093,-0.03617331291547442,0.2,0.0,0.0,-0.012947653449375488,0.01275219085657536,-0.03533547719467386,0.0,0.0,0.0,-1.0913291514399786,0.27166885365138455,-0.3362542680881905,1.1559160804116044,-1.141246541184719,0.18337658425582687,1.0
5.439999999999623,0.13347236732521023,0.11324646790408972,0.0189544085747891,0.9952836033180062,0.0013562654354472516,0.09639661496231644,0.010788982074403937,0.00487027246433267,0.19305157965147998,0.022150940824001503,-0.00782977596163868,-0.01653464737625526,-0.029422022132869416,-0.014172530749040839,-0.0336432157751796,-0.03578711105986336,0.2,0.0,0.0,-0.010947678303206343,0.012806578070155243,-0.035543884558883757,0.0,0.0,0.0,-1.077432133679242,0.2501145916397699,-0.32906956785232067,1.156388638575356,-1.1258297272718287,0.17923214145409633,1.0
5.473999999999619,0.13322183763341128,0.11264478863492546,0.017959177022039995,0.9953473349677859,0.0010614365886177,0.09580358917353617,0.01020923240814503,0.004145237096821888,0.19186909316623038,0.020912086316777045,-0.006849100080369746,-0.018994738296976867,-0.02909352984538044,-0.014575202068832973,-0.03656488610601196,-0.03537441188562128,0.2,0.0,0.0,-0.008953043158036841,0.012822079203350819,-0.035666564815537156,0.0,0.0,0.0,-1.063614730433176,0.2285432734222384,-0.3214937565804036,1.1565667566022713,-1.1108427908112726,0.17436879100230807,1.0
5.507999999999615,0.1330046862682087,0.1119602592076877,0.016975886873433554,0.995414885982813,0.0007614079037913485,0.09516170092547019,0.009637203889103314,0.0034118027706466648,0.1905877870255079,0.01968869726886288,-0.005866577132809122,-0.021405244487569308,-0.028717193260873065,-0.014920763561737622,-0.03938826323248263,-0.03493758759690936,0.2,0.0,0.0,-0.006967856372684255,0.012798871695097016,-0.03570578714102717,0.0,0.0,0.0,-1.0498772884677858,0.2069620569812327,-0.31353820762709234,1.156454996617982,-1.09627611899165,0.16880702053820523,1.0
5.541999999999612,0.13282094350977558,0.11119456819803172,0.016006124522999654,0.9954860036248933,0.0004571403519206061,0.09447266538207004,0.009073208101105542,0.0026721878241380125,0.18921110368631525,0.018481756633174487,-0.004884228996555058,-0.023765987260864412,-0.028295522955107,-0.015208399329089704,-0.042107383839053304,-0.03447872393506907,0.2,0.0,0.0,-0.004995992941974762,0.012737364533377761,-0.03566386927988578,0.0,0.0,0.0,-1.036221197559068,0.18537891137898427,-0.30521379027789414,1.1560576486096021,-1.0821202954209916,0.16256762135248853,1.0
5.575999999999608,0.13267057186368783,0.11034941118597706,0.015051391880467585,0.9955604257995608,0.00014960440858690716,0.09373829532744683,0.008517522493300341,0.001928607104626151,0.18774268815065429,0.017292167761632768,-0.003904016823924981,-0.026076729943341176,-0.027830972629060195,-0.015437538753217048,-0.04471663394147022,-0.033999655772660356,0.2,0.0,0.0,-0.0030411044436875504,0.01263819375676733,-0.035543151001743795,0.0,0.0,0.0,-1.02264877940838,0.163802550899999,-0.296531008037253,1.155378823486616,-1.0683662937761014,0.15567151998073153,1.0
5.609999999999604,0.1325534681325612,0.10942649271577987,0.014113108491468304,0.9956378826947238,-0.00016022344916213506,0.09296049525850117,0.007970394777557949,0.0011832648689678003,0.1861863756485542,0.01612076102837439,-0.0029278408207584466,-0.02833717876683022,-0.027325927808265874,-0.015607851395447892,-0.04721075468156293,-0.03350200024242404,0.2,0.0,0.0,-0.001106631378782701,0.012502216163288763,-0.03534597021905567,0.0,0.0,0.0,-1.009163173587136,0.1422423704420845,-0.28750013183588013,1.1544225368417829,-1.055005648002469,0.14813962577398898,1.0
5.6439999999996004,0.13246946547628413,0.10842752821066723,0.013192614009691335,0.9957180984337611,-0.00047136422883089645,0.09214125540723014,0.007432046770461873,0.0004383477741404849,0.18454617915851432,0.01496829950712079,-0.001957541188466516,-0.03054698468836466,-0.02678269656652721,-0.015719241222304014,-0.049584845898595305,-0.03298718727006607,0.2,0.0,0.0,0.0008041824372762871,0.012330501229853194,-0.035074642007427694,0.0,0.0,0.0,-0.9957682222642226,0.12070838244290094,-0.27813132586454403,1.1531927825856965,-1.0420305975518547,0.1399926954605109,1.0
5.677999999999597,0.1324183354231403,0.1073542458107597,0.012291170951632303,0.99580079272468,-0.000782839876311807,0.09128264572678539,0.006902677722799181,-0.0003039820050503868,0.18282627683850847,0.013835483804549341,-0.0009949001117449438,-0.03270574614354767,-0.02620350230213292,-0.015771840230881445,-0.05183436760387355,-0.03245648743050174,0.2,0.0,0.0,0.002688273792828895,0.012124321262328425,-0.03473144071798522,0.0,0.0,0.0,-0.9824683552675755,0.09921115555366616,-0.2684347640792949,1.151693595839782,-1.0294342065334194,0.1312512154482126,1.0
5.711999999999593,0.13239978979830838,0.10620838810250555,0.011409967664089285,0.9958856824881793,-0.0010936766831689444,0.09038680987319495,0.006382467180664538,-0.0010415934959900925,0.1810309994361829,0.01272295615139443,-4.1644662541209046e-05,-0.03481301272746054,-0.025590478564966983,-0.01576600154016446,-0.05395513950629887,-0.03191103709363399,0.2,0.0,0.0,0.00454274268133699,0.01188513981458729,-0.03431858531753407,0.0,0.0,0.0,-0.9692684768319462,0.07776175520899148,-0.2584207357623159,1.1499291046749778,-1.0172104560435848,0.12193530235796712,1.0
5.745999999999589,0.13241348254078836,0.10499171370834329,0.010550121435081739,0.9959724834488939,-0.0014029086337444586,0.08945595921220476,0.0058715774227480234,-0.0017723934531636686,0.1791648177417863,0.011631303851278434,0.0009005495188170108,-0.03686828978504668,-0.024945665904325554,-0.015702292010572088,-0.05594333875445893,-0.031351860867825335,0.2,0.0,0.0,0.006364833965865342,0.011614598434448944,-0.03383822803820595,0.0,0.0,0.0,-0.9561738551912138,0.05637168619033994,-0.24809973885841974,1.1479035704769898,-1.005354309325061,0.1120646220244304,1.0
5.7799999999995855,0.13245901138465616,0.10370599870612646,0.009712681680330314,0.9960609116755578,-0.0017095806792734897,0.08849236687799118,0.0053701555181508796,-0.002494332657808024,0.17723233014176978,0.010561062184131532,0.0018300539117886724,-0.03887104388026326,-0.02427101068016839,-0.01558148444951623,-0.05779549607549309,-0.03077989138691152,0.2,0.0,0.0,0.00815191848781962,0.01131450181495005,-0.03329244636470975,0.0,0.0,0.0,-0.9431900159879603,0.03505283723887087,-0.23748256013514035,1.1456214169030163,-0.993861749781936,0.10165832695667926,1.0
5.813999999999582,0.1325359193856152,0.10235303784909391,0.008898633139793015,0.9961506850573995,-0.0020127519270547534,0.08749836190758885,0.004878335048241077,-0.0032054119651265442,0.17523825032499035,0.00951271685670111,0.0027452823244948307,-0.04082070910030282,-0.023568365755254523,-0.015404549456244913,-0.059508490502234244,-0.030195986519861905,0.2,0.0,0.0,0.009901473996332117,0.010986801450511927,-0.032683238335081986,0.0,0.0,0.0,-0.9303226402980179,0.013817427740087374,-0.22658034153027945,1.1430872475691076,-0.9827297922412893,0.09073501201812367,1.0
5.847999999999578,0.1326436962790075,0.10093464555886567,0.008108899021937128,0.996241524705701,-0.0023114987336234345,0.08647632347182393,0.004396237534695841,-0.0039036880750494235,0.17318739518714266,0.008486706087271643,0.0036446857772087934,-0.04271669413808569,-0.022839492962423935,-0.015172646954834255,-0.06107954288800276,-0.029600944111016228,0.2,0.0,0.0,0.011611066264580278,0.010633577918914826,-0.03201252108074026,0.0,0.0,0.0,-0.9175774679057934,-0.007322043523014299,-0.21540463235030527,1.1403058527706533,-0.9719564681983698,0.07931268786627199,1.0
5.881999999999574,0.1327817796606874,0.09945265666608269,0.007344344037362048,0.996333156271027,-0.0026049176917974483,0.08542867522037546,0.003923973614054556,-0.004587279005803655,0.1710846729724841,0.007483422405503077,0.004526747214383692,-0.04455839008326446,-0.022086067220435206,-0.014887117459935463,-0.06250620841295884,-0.02899551438326007,0.2,0.0,0.0,0.013278330744144577,0.010257021931136421,-0.03128213248442834,0.0,0.0,0.0,-0.9049602063183604,-0.028352847571254558,-0.20396742726325867,1.1372822056906142,-0.9615407861080023,0.06740877149020319,1.0
5.9159999999995705,0.1329495559873636,0.09790892687588384,0.006605777267992513,0.9964253111682495,-0.0028921285024056127,0.0843578797553749,0.0034616439968967105,-0.0052543692528783945,0.16893507168526348,0.006503214241434075,0.005389976196748864,-0.04634517883942256,-0.021309682153461112,-0.014549473115822564,-0.06378636828721745,-0.02838041015662053,0.2,0.0,0.0,0.014900955088673031,0.009859414311608913,-0.03049383579097122,0.0,0.0,0.0,-0.8924764458746377,-0.049262072422163794,-0.1922811902874158,1.1340214486901867,-0.9514826680863551,0.05504009299896412,1.0
5.949999999999567,0.1331463613980961,0.09630533293840422,0.005893954823245702,0.996517727703012,-0.003172276722444583,0.08326643324472831,0.0030093402472356283,-0.005903214619263121,0.16674364779655032,0.00554638737035838,0.006232903720281636,-0.048076442073260776,-0.020511857053746776,-0.014161388545453266,-0.06491822085416166,-0.027756315050703882,0.2,0.0,0.0,0.01647666285407662,0.009443105090853545,-0.029649326966210143,0.0,0.0,0.0,-0.8801315811905621,-0.0700366683215764,-0.18035886520987182,1.1305288704040928,-0.9417828646610971,0.042222917649251235,1.0
5.983999999999563,0.13337148236352317,0.09464377250786073,0.005209582240244885,0.9966101520947772,-0.003444536382340318,0.08215686018316028,0.002567145414949203,-0.006532146706034597,0.16451551526551905,0.004613206272631244,0.0070540773019590695,-0.04975157059060882,-0.01969404501417244,-0.013724691542665667,-0.06590027229275802,-0.027123889851331164,0.2,0.0,0.0,0.018003198654770503,0.009010491910312807,-0.028750244564554148,0.0,0.0,0.0,-0.8679307390828167,-0.0906634910675157,-0.1682138730754285,1.126809874477026,-0.9324428494517704,0.028972981957027244,1.0
6.017999999999559,0.13362415617401308,0.09292616367752554,0.004553316591208823,0.9967023393929706,-0.003708112465898714,0.08103170830587131,0.002135134551118163,-0.007139577055417503,0.1622558348877254,0.0037038954596478615,0.00785205646327789,-0.051369974024332826,-0.018857642047616495,-0.013241353637297334,-0.06673132711041493,-0.02648377722987453,0.2,0.0,0.0,0.019478315024658303,0.008563997955077242,-0.027798181835658294,0.0,0.0,0.0,-0.8558787130317727,-0.11112934348415854,-0.1558600975647707,1.1228699408786917,-0.9234646958733854,0.015305542616261547,1.0
6.0519999999995555,0.13390357128222063,0.09115444418193454,0.0039257682674905744,0.9967940542840701,-0.003962243247410174,0.0798935436567181,0.0017133751330720742,-0.007724000941295078,0.15996980397663843,0.0028186408093923486,0.008625408731824281,-0.052931090710868364,-0.018003997003111647,-0.012713480559929359,-0.06741047860828775,-0.025836605008411014,0.2,0.0,0.0,0.020899761198239396,0.008106049643689332,-0.0267947007760969,0.0,0.0,0.0,-0.8439799041787277,-0.13142101510603266,-0.1433118592310264,1.1187145808217658,-0.9148509381332259,0.001235436849449989,1.0
6.085999999999552,0.1342088675194283,0.08933057026198013,0.0033275024162711642,0.9968850717886458,-0.004206202481216062,0.07874494580999362,0.0013019274228096714,-0.008284000804762154,0.1576626463786883,0.001957590947205555,0.009372706268902083,-0.05443439762541551,-0.017134422084819186,-0.012143302630124319,-0.067937099489189,-0.025182988165173593,0.2,0.0,0.0,0.022265273992019198,0.007639054314915804,-0.025741347812727643,0.0,0.0,0.0,-0.8322382688017991,-0.1515253201343737,-0.1305838796856706,1.1143492863800217,-0.9066044189320848,-0.013222847260664361,1.0
6.119999999999548,0.13453913620850738,0.08745651519304033,0.0027590400125344157,0.9969751778484943,-0.0044393014398445415,0.07758850324224936,0.0009008447793150677,-0.008818249334663,0.15533960281648632,0.001120858699867869,0.010092523217664184,-0.055879420240968335,-0.01625020377874585,-0.01153316508943416,-0.06831083276467786,-0.02452352977319476,0.2,0.0,0.0,0.023572570929954465,0.00716537815898214,-0.024639670790798148,0.0,0.0,0.0,-0.8206572721782637,-0.1714291337289634,-0.11769123691840278,1.1097794759623696,-0.8987281263861686,-0.02805509196076933,1.0
6.153999999999544,0.13489342019931802,0.0855342674809315,0.0022208585555627187,0.9970641698049356,-0.0046608907975732045,0.07642680884817346,0.0005101739421809855,-0.009325512195120574,0.15300592154965734,0.00030852264383034037,0.01078343385159018,-0.057265742173482216,-0.015352613993792183,-0.010885518398095907,-0.068531583102759,-0.02385882106082527,0.2,0.0,0.0,0.024819345719587754,0.006687324644977473,-0.02349123693169438,0.0,0.0,0.0,-0.809239848716482,-0.1911194267008527,-0.10464931300238478,1.1050104368427296,-0.8912250227541958,-0.04324726406989088,1.0
6.1879999999995405,0.13527071385483422,0.08356582873517265,0.001713392385708268,0.9971518567702399,-0.004870362356972323,0.07526245559236545,0.0001299553009157875,-0.009804650403829699,0.15066684933802932,-0.0004793712384708644,0.011444011587813734,-0.05859301447471881,-0.014442921227994966,-0.010202908512201254,-0.06859950874117793,-0.023189440776287172,0.2,0.0,0.0,0.026003266148430956,0.00620711369674184,-0.022297651422426196,0.0,0.0,0.0,-0.7979883682268456,-0.2105832986741502,-0.0914737354768207,1.100047265975348,-0.8840978675865387,-0.0587854238147259,1.0
6.221999999999537,0.13566996301822445,0.08155321123373974,0.001237032623524421,0.9972380598948785,-0.005067150616621889,0.07409803228692795,-0.0002397768386118487,-0.010254622366350873,0.1483276226877303,-0.0012428077867532375,0.012072828913992235,-0.05986096443573312,-0.013522401577518314,-0.00948796715621596,-0.06851501407382504,-0.022515954029907782,0.2,0.0,0.0,0.027121974433617916,0.005726861866398024,-0.021060576301240034,0.0,0.0,0.0,-0.7869046081958809,-0.22980800978928956,-0.07818031371533918,1.0948948103405582,-0.877349037910323,-0.07465562978328744,1.0
6.255999999999533,0.1360900649925154,0.07949843519809574,0.0007921267394085856,0.9973226125339436,-0.005250734178776575,0.07293611948316277,-0.0005989939819175932,-0.01067448557280783,0.1459934593571324,-0.0019818007740130096,0.012668458261413116,-0.06106940376761726,-0.012592349414835682,-0.008743402104033491,-0.06827874299950204,-0.021838910777485808,0.2,0.0,0.0,0.028173090022401356,0.005248563747696541,-0.019781749310834346,0.0,0.0,0.0,-0.7759897319294089,-0.24878101102567446,-0.06478497158229235,1.0895576080668983,-0.870980348027864,-0.09084384149047459,1.0
6.289999999999529,0.13652986856532448,0.07740352580173014,0.00037897776764108217,0.9974053603166386,-0.005420636996274681,0.07177928546431908,-0.0009476731617757492,-0.011063397964271634,0.143669550096573,-0.002696390904653841,0.0132294738411096,-0.062218236031976654,-0.011654087573360021,-0.00797198748027663,-0.06789157310350433,-0.02115884409665781,0.2,0.0,0.0,0.02915421480720185,0.004774074860514815,-0.018463002402098326,0.0,0.0,0.0,-0.7652442724372466,-0.267489973228748,-0.05130367765232646,1.0840398315624786,-0.8649928714377793,-0.10733582099984906,1.0
6.323999999999526,0.13698817411146574,0.07527050993965387,-2.1568159576646765e-06,0.9974861611231602,-0.00557642945845106,0.07063008232530206,-0.001285796638588349,-0.011420618976724318,0.1413610505933879,-0.0033866437085821807,0.013754454444153812,-0.06330746320164543,-0.010708976888250257,-0.007176554092315414,-0.06735461072336288,-0.020476268395437272,0.2,0.0,0.0,0.030062940687053962,0.0043050962232509815,-0.017106279586657013,0.0,0.0,0.0,-0.7546681219416735,-0.28592281493489424,-0.03775237422316258,1.0783452338611612,-0.8593867672909146,-0.12411703498180643,1.0
6.357999999999522,0.13746373380602978,0.07310141279020393,-0.0003510665286376354,0.9975648849736944,-0.005717729316222102,0.06949104212452609,-0.0016133515838342193,-0.011745510270858264,0.13907307359205412,-0.00405264734462219,0.014241987192248154,-0.06433719124224072,-0.009758424956937746,-0.006359979802456436,-0.06666918693088125,-0.019791677678540308,0.2,0.0,0.0,0.03089685937780184,0.003843160811639268,-0.01571365385524758,0.0,0.0,0.0,-0.7442605269031365,-0.3040677290971666,-0.024146906289811754,1.072477099348248,-0.8541611136700411,-0.14117255851197985,1.0
6.391999999999518,0.13795525197983702,0.0708982542040431,-0.0006675895990792103,0.9976414138345282,-0.0058442024468667725,0.06836467309268146,-0.001930329747185539,-0.012037536156111665,0.13681068115814612,-0.004694510330427437,0.01469067221043709,-0.0653076346171861,-0.008803893997774226,-0.00552517994899022,-0.06583685444351087,-0.019105543982922045,0.2,0.0,0.0,0.03165357434655891,0.003389622080899958,-0.014287342900534034,0.0,0.0,0.0,-0.734020088467745,-0.321913208825176,-0.010502951572635255,1.066438199975974,-0.84931374983623,-0.1584869818277177,1.0
6.425999999999514,0.13846138564798754,0.06866304495833571,-0.0009516149370977168,0.9977156413465216,-0.00595556345933536,0.06725345588308164,-0.002236727109654993,-0.012296263717294907,0.13457887705437316,-0.005312359219321984,0.01509912818038975,-0.06621911963262127,-0.007846907700780809,-0.004675097824270136,-0.06485938545931622,-0.018418316079329644,0.2,0.0,0.0,0.03233071472198868,0.002945644703420735,-0.012829723406805327,0.0,0.0,0.0,-0.7239447682507671,-0.33944807226302465,0.003164047396152281,1.0602307580114965,-0.8448411294194622,-0.1760443211676579,1.0
6.459999999999511,0.13898074524061838,0.06639778291668057,-0.0012030843189380638,0.997787472481349,-0.0060515761411831905,0.06615983984846284,-0.002532543526679242,-0.012521362651963425,0.13238259919717485,-0.005906336247191833,0.015465998720404895,-0.06707208655395398,-0.0068890569804707135,-0.0038126952177518847,-0.06373877039148135,-0.01773041852181379,0.2,0.0,0.0,0.03292595101103005,0.0025121976466972633,-0.011343343694524742,0.0,0.0,0.0,-0.7140318993773547,-0.3566614867394744,0.016838948220488037,1.053856416279848,-0.8407381863501243,-0.19382793472250942,1.0
6.493999999999507,0.13951189556296723,0.06410444913743885,-0.001421994749601873,0.9978568231310992,-0.006132053748456425,0.06508623932961508,-0.00281778236635075,-0.012712604826373411,0.13022671216321063,-0.006476596974674716,0.015789959527182776,-0.06786709044245794,-0.005932004556826636,-0.0029409430319592977,-0.062477217460658596,-0.017042251112189342,0.2,0.0,0.0,0.033437012434853974,0.002090049686450286,-0.009830934534333983,0.0,0.0,0.0,-0.704278202705412,-0.3735429923337621,0.030506969821264884,1.0473162167718904,-0.8369982151354358,-0.211820444626867,1.0
6.527999999999503,0.1400533570094717,0.0617850039745695,-0.0016084009613921842,0.9979236196368929,-0.00619685914005766,0.06403502994201826,-0.0030924501490786588,-0.012869863557455712,0.1281159997165392,-0.007023307951470582,0.016069726204564212,-0.06860480067802115,-0.004977488306455344,-0.0020628119796678715,-0.061077153086631406,-0.016354188831540627,0.2,0.0,0.0,0.033861705682109534,0.00167976741814006,-0.008295417972317172,0.0,0.0,0.0,-0.694679808154592,-0.3900825250082204,0.044153749159005606,1.0406105883833396,-0.8336127668841352,-0.2300036658248275,1.0
6.561999999999499,0.14060360705395059,0.05944138321594283,-0.001762418006139447,0.9979877982622954,-0.006245904758299195,0.06300854484773315,-0.003356556195791571,-0.012993112627797353,0.12605515732935565,-0.007546644430628452,0.016304062695927695,-0.06928599915261105,-0.004027323341463628,-0.0011812633712193106,-0.059541223004889066,-0.015666582276149837,0.2,0.0,0.0,0.03419793486582953,0.0012817157970135785,-0.006739914035590292,0.0,0.0,0.0,-0.6852322810602789,-0.4062704394639123,0.057765392922357606,1.0337393444359786,-0.8305715622779093,-0.24835854254867407,1.0
6.595999999999496,0.1411610820349616,0.05707549430432543,-0.0018842238973691373,0.9980493046173764,-0.006279152457518644,0.062009071001131094,-0.003610112292393325,-0.013082425040166053,0.12404878467177657,-0.008046788161170063,0.016491790229773935,-0.06991157713795346,-0.0030834027884760187,-0.000299240001796831,-0.05787229401893501,-0.014979758620803883,0.2,0.0,0.0,0.03444372246161573,0.0008960612028671573,-0.005167745214137076,0.0,0.0,0.0,-0.6759306534607734,-0.42209753187780313,0.07132852372272336,1.0267016905074855,-0.827862422482326,-0.2668650930620254,1.0
6.629999999999492,0.14172417925225758,0.05468921268581049,-0.001974062257969834,0.9981080930390916,-0.006296613218827693,0.061038845358765574,-0.0038531323763437925,-0.013137971589890697,0.12210137804931097,-0.008523925287394245,0.01663179668194877,-0.07048253084882258,-0.0021476972564847766,0.0005803238025221529,-0.05607345628486829,-0.014294023121399442,0.2,0.0,0.0,0.03459723099873424,0.0005227769914309985,-0.0035824386408540724,0.0,0.0,0.0,-0.6667694601873604,-0.43755506270328237,0.0848303204587087,1.0194962429576822,-0.8254712187746167,-0.2855023632536535,1.0
6.663999999999488,0.14229125938686588,0.05228437832969961,-0.0020322449290664326,0.998164125923971,-0.006298348345348002,0.06010005105181323,-0.004085632157404118,-0.013160022450903266,0.1202173227700727,-0.00897824438158187,0.016723046251656853,-0.07099995572302102,-0.0012222530107706413,0.0014543057825409588,-0.05414802598510379,-0.013609661237296615,0.2,0.0,0.0,0.03465678527232126,0.00016165146023099471,-0.001987725916656803,0.0,0.0,0.0,-0.6577427782248615,-0.4526347811112273,0.09825855332604438,1.0121210577203459,-0.823381841414978,-0.30424839147187044,1.0
6.697999999999484,0.14286064925394895,0.04986279246232234,-0.0020591544950420964,0.9982173730160814,-0.006284472659143849,0.05919481351958576,-0.004307628657619638,-0.013148952818899483,0.11840088542763826,-0.009409934631612127,0.0167645893582682,-0.07146503951241852,-0.0003091887712709957,0.0023195005429885044,-0.05209954823981276,-0.01292694130065351,0.2,0.0,0.0,0.03462089484380208,-0.00018770187649347846,-0.00038754055095732,0.0,0.0,0.0,-0.6488442682583833,-0.4673289520389795,0.1116016144689741,1.0045736682476756,-0.8215761885880504,-0.32308018735638455,1.0
6.731999999999481,0.14343064489419097,0.047426214553435105,-0.002055246678796574,0.9982678106903788,-0.006255154432025839,0.05832519658035655,-0.004519139999164809,-0.013105242056679468,0.11665620609260706,-0.00981918421081908,0.016755572642590894,-0.07187905427282704,0.0005893087578186312,0.0031727730124018524,-0.04993180019229666,-0.012246117467875017,0.2,0.0,0.0,0.03448827659759184,-0.0005258318412078492,0.0012139869903504525,0.0,0.0,0.0,-0.6400672236457572,-0.48163038063595887,0.12484854135490608,0.9968511355538276,-0.8200341743038875,-0.3419737159875981,1.0
6.765999999999477,0.14399951500541008,0.04497635959190715,-0.0020210525658637883,0.9983154212247924,-0.006210614151642752,0.057493198443642146,-0.0047201853082598005,-0.0130294705542372,0.11498729041032517,-0.01020617885988355,0.016695248962534003,-0.07224334731506916,0.0014709905634552856,0.004011073285640407,-0.047648794120123614,-0.011567433085702319,0.2,0.0,0.0,0.03425787712485933,-0.0008534351423628455,0.0028125366172008478,0.0,0.0,0.0,-0.6314046246924159,-0.4955324361595347,0.13798903330177814,0.9889501098584443,-0.8187337557125484,-0.3609038901760721,1.0
6.799999999999473,0.1445655047126113,0.04251489568412098,-0.0019571806161467965,0.9983601920613794,-0.00615112305659763,0.05670074766793954,-0.004910784683243264,-0.012922316174298475,0.11339800160535678,-0.010571100703715619,0.01658298728184253,-0.07255933123627757,0.0023335522056644113,0.00483145021547459,-0.045254780418151966,-0.010891124459703392,0.2,0.0,0.0,0.03392889470939558,-0.0011713401149010022,0.004403608297515881,0.0,0.0,0.0,-0.6228491968465626,-0.5090290764654597,0.1510134619274327,0.9808669028230321,-0.8176509804126295,-0.3798445734687557,1.0
6.833999999999469,0.1451268396711564,0.04004344200440921,-0.0018643184229691055,0.9984021150627397,-0.006077001450322311,0.055949699067265296,-0.005090959232197,-0.012784550301940634,0.11189205239826741,-0.010914127322741798,0.01641828234674418,-0.07282847315535573,0.00317464185918228,0.005631064278276453,-0.04275425030210232,-0.010217424963495293,0.2,0.0,0.0,0.03350080069612812,-0.001480488872427485,0.005982534042325382,0.0,0.0,0.0,-0.6143934725239745,-0.522114873127654,0.16391287578023717,0.9725975698650926,-0.8167600535541999,-0.39876859418266897,1.0
6.867999999999466,0.14568173049418479,0.03756356712244576,-0.0017432341808518753,0.998441185769916,-0.005988616806546189,0.05524182957246838,-0.005260731184463332,-0.012617033522953925,0.11047299684558565,-0.011235431094708537,0.016200764047376266,-0.07305228328836746,0.003991869461299523,0.006407199623054157,-0.04015193807863289,-0.009546569418690715,0.2,0.0,0.0,0.03297336002930361,-0.0017819181134057609,0.007544492132255363,0.0,0.0,0.0,-0.6060298562317052,-0.534785037181644,0.1766789994874372,0.9641380018770762,-0.8160334243944165,-0.4176477707434241,1.0
6.901999999999462,0.1462283774919533,0.035076787727724934,-0.001594777825333629,0.9984774026680675,-0.00588638168059014,0.054578834055946386,-0.00542012407930913,-0.012420710958319807,0.10914422211919433,-0.011535178819480107,0.015930206363754303,-0.07323230300973636,0.004782816907077434,0.007157275221692609,-0.03745282282705706,-0.008878798668019036,0.2,0.0,0.0,0.032346650754598895,-0.002076738842149037,0.009084523510678498,0.0,0.0,0.0,-0.5977506926164571,-0.5470354454407662,0.1893042278288506,0.9554840255174404,-0.8154418918429969,-0.43645294859120853,1.0
6.935999999999458,0.14676497570741284,0.03258456776616874,-0.0014198818102236254,0.9985107664662648,-0.005770751441971458,0.053962321131055965,-0.0055691630337890465,-0.012196607284720438,0.10790894024679155,-0.011813531635389757,0.015606535799645924,-0.07337009255312131,0.005545049228581411,0.007878855046981124,-0.03466212933890722,-0.008214364257766556,0.2,0.0,0.0,0.03162108228721318,-0.0023661152799969807,0.01059755025712996,0.0,0.0,0.0,-0.5895483370185047,-0.5588626672844892,0.20178161520375598,0.9466315110861854,-0.8149547284249077,-0.45515404890459,1.0
6.969999999999454,0.14728972022911907,0.030088317998572926,-0.0012195614898985008,0.9985412793978362,-0.005642221844910285,0.053393808940139724,-0.005707875090561748,-0.011945821473327602,0.10677017984039178,-0.012070645231550074,0.015229839211952327,-0.07346721851155177,0.006276126690845302,0.008569657214470061,-0.03178532816454448,-0.007553533140701963,0.2,0.0,0.0,0.030797412256171674,-0.0026512432526479453,0.012078396044082932,0.0,0.0,0.0,-0.5814152280666988,-0.570263991764508,0.21410486100752663,0.937576486849503,-0.8145398219879043,-0.4737201293800464,1.0
7.003999999999451,0.14780081175950865,0.027589395985115592,-0.0009949150765965551,0.9985689445477112,-0.005501326454271997,0.05287472094766105,-0.00583628964503499,-0.01166952128121783,0.10573077784502535,-0.012306670356196387,0.0148003709479913,-0.0735252412997781,0.006973617733771222,0.00922756203428357,-0.02882813462097758,-0.006896592307088277,0.2,0.0,0.0,0.02987676174351593,-0.002933328346011289,0.013521808470610942,0.0,0.0,0.0,-0.5733439618048064,-0.5812374548173903,0.22626829147095706,0.9283152585396228,-0.81416383439126,-0.4921194572896075,1.0
7.037999999999447,0.14829646241367736,0.025089106494589924,-0.0007471231451240754,0.9985937652132674,-0.005348633945254016,0.05240638175740785,-0.005954438949778777,-0.011368937531589404,0.10479337134477844,-0.01252175361668462,0.014318559208373228,-0.073545702742744,0.0076351126858805705,0.009850618929598307,-0.025796506622013618,-0.0062438532493101235,0.2,0.0,0.0,0.028860628745679812,-0.0032135641250383086,0.014922483157550851,0.0,0.0,0.0,-0.5653273667951365,-0.5917818663136741,0.2382668385387373,0.9188445326292527,-0.8137923763273965,-0.5103195950172893,1.0
7.071999999999443,0.14877490172108762,0.02258870233146637,-0.0004774476599589234,0.9986157443051618,-0.005184745295723039,0.05199001297506228,-0.006062358692672188,-0.011045358220488447,0.10396038946800713,-0.012716038562256593,0.01378501155889664,-0.07353011395261508,0.00825823817257278,0.010437052189452255,-0.022696641200836545,-0.005595656165131305,0.2,0.0,0.0,0.027750899693118954,-0.003493110707769143,0.016275089480247203,0.0,0.0,0.0,-0.5573585796028628,-0.6018968366133515,0.2500960163740199,0.9091615418670034,-0.8133901973479046,-0.5282874982439869,1.0
7.105999999999439,0.14923438280012818,0.0200893855684223,-0.0001872305024203344,0.9986348837945925,-0.005010290890524073,0.051626729139602236,-0.006160088643762208,-0.010700122488954524,0.10323404543790078,-0.012889667036186957,0.013200519521030374,-0.07347994365290647,0.008840672138124613,0.01098526553474664,-0.01953496960610098,-0.0049523738056958255,0.2,0.0,0.0,0.026549858873187844,-0.0037730739803225697,0.017574297806511797,0.0,0.0,0.0,-0.5494311200243778,-0.6115828022381413,0.2617518960731053,0.8992641714635184,-0.812921390087478,-0.5459896269069975,1.0
7.139999999999436,0.14967318867315538,0.01759230916668011,0.00012210852162106053,0.9986511842133206,-0.004825927557313276,0.05131753374896222,-0.006247673364336348,-0.010334614500345706,0.10261632881846981,-0.01304278077950697,0.012566062177052662,-0.07339660710200832,0.009380159396903594,0.011493845487617775,-0.016318150865618337,-0.004314414877130475,0.2,0.0,0.0,0.025260195610396066,-0.004054485727881008,0.018814808098822383,0.0,0.0,0.0,-0.5415389653864249,-0.6208410502131461,0.2732310791583417,0.8891510842395453,-0.8123496076012313,-0.5633920690014657,1.0
7.173999999999432,0.15008963868758157,0.015098578961446528,0.00044907421007858256,0.9986646442126366,-0.004632335553510774,0.0510633154071073,-0.006325162970271072,-0.00995025726307406,0.10210899800944294,-0.013175523264231066,0.011882808732767366,-0.07328145575989438,0.009874527625011943,0.011961563545660973,-0.013053063726660263,-0.003682226909012002,0.2,0.0,0.0,0.023885009067621712,-0.0043382849420453215,0.019991379730753503,0.0,0.0,0.0,-0.5336766232104301,-0.6296737405760964,0.2845306703886007,0.8788218429892114,-0.8116382926505519,-0.5804606772140545,1.0
7.207999999999428,0.15048209500674947,0.012609255985021727,0.0007920990425210105,0.9986752601871917,-0.004430215523828686,0.05086484412112605,-0.0063926139403410265,-0.00954850643905609,0.10171357304639105,-0.013288041729966189,0.011152119987881404,-0.07313576783115422,0.010321703698699409,0.012387377173658586,-0.009746796898738173,-0.0030562985090193187,0.2,0.0,0.0,0.022427810541752344,-0.004625300546508986,0.02109886235799018,0.0,0.0,0.0,-0.5258392015093016,-0.6380839265029957,0.295648250385942,0.8682770282759713,-0.8107509176879055,-0.5971612182817982,1.0
7.2419999999994245,0.15084896913275134,0.010125359095816754,0.0011495468177991502,0.9986830259692971,-0.004220285447505954,0.0507227677780959,-0.006450089958886886,-0.009130844177841126,0.10143132876459933,-0.013380489394030342,0.010375548671606751,-0.0729607398048671,0.010719730280288366,0.01277042963637963,-0.00640663754332884,-0.002437160930763624,0.2,0.0,0.0,0.02089252313773799,-0.004916235761119798,0.02213222767385972,0.0,0.0,0.0,-0.5180224759630802,-0.6460755714563681,0.3065818485253149,0.8575183498669585,-0.8096512342001883,-0.6134595348496125,1.0
