t,px,py,pz,qw,qx,qy,qz,roll,pitch,yaw,vx,vy,vz,wx,wy,wz,cur_x,cur_y,cur_z,wav_x,wav_y,wav_z,kick_x,kick_y,kick_z,u0,u1,u2,u3,u4,u5,dist_on
5.303999999999638,-0.01311245247331548,-0.008759231131596679,-0.004562148432008403,0.9855483314737785,-0.0202849387864239,-0.16812672992074235,-0.004050959619555822,-0.04094848453227257,-0.3379549155921724,-0.001233739261465045,-0.012375794443111324,0.016791658231613705,0.04523329095690568,0.031206972854472517,0.2233000159402936,0.004303151698560216,0.0,0.0,0.0,0.0,0.0,0.0,0.0,0.0,0.0,-0.1311674216868189,-0.0628757520823513,0.03478115234587645,0.15926237996834475,-1.5673114863081388,-1.4778766972132742,0.0
5.3259999999996355,-0.013378432472799543,-0.008393145131789343,-0.003585790541446727,0.9859721900268977,-0.01993594595510162,-0.16566665580796586,-0.003994709731997668,-0.040207508300248045,-0.33296298117187734,-0.0013458177180254941,-0.011751254626621292,0.016459885945270744,0.04335583310085635,0.03314454932729134,0.23206758587113877,0.004535353273150417,0.0,0.0,0.0,0.0,0.0,0.0,0.0,0.0,0.0,-0.1311674216868189,-0.0628757520823513,0.03478115234587645,0.15926237996834475,-1.5673114863081388,-1.4778766972132742,0.0
5.347999999999633,-0.013630881959207964,-0.008034305518302982,-0.002650673392903937,0.9864056764351692,-0.01956607094891029,-0.16311202078134235,-0.0039343412059230885,-0.0394254080527968,-0.32778125478006426,-0.0014563270762838077,-0.01114691153273939,0.01613285766516859,0.04148659625324336,0.035031077809683855,0.24047472795543692,0.004760848272293791,0.0,0.0,0.0,0.0,0.0,0.0,0.0,0.0,0.0,-0.1311674216868189,-0.0628757520823513,0.03478115234587645,0.15926237996834475,-1.5673114863081388,-1.4778766972132742,0.0
5.369999999999631,-0.013863702544685311,-0.007682871771505247,-0.0017547882020051123,0.98684666678302,-0.019175879670609526,-0.16047107480587106,-0.0038698900177057778,-0.03860366311446103,-0.32242666409121273,-0.0015642348456307187,-0.00988668379699059,0.015785158624950505,0.039814400687747074,0.03686415208729768,0.24745519258652623,0.004975033069096285,0.0,0.0,0.0,0.0,0.0,0.0,0.0,0.0,0.0,0.04688993846649839,0.13200273659727174,-0.15937301063513154,-0.01951999497921672,-1.5959545153640835,-1.491584184814059,0.0
5.391999999999628,-0.014068838736505619,-0.00733902393318366,-0.0008955474297286318,0.9872926041313795,-0.018765973083019215,-0.1577551955293106,-0.003801363602093716,-0.03774383806789748,-0.3169224416905356,-0.001668342672336016,-0.008653431698238491,0.015443385654367902,0.03814753377915887,0.03864145955675924,0.25405499131758846,0.0051801574302952425,0.0,0.0,0.0,0.0,0.0,0.0,0.0,0.0,0.0,0.04688993846649839,0.13200273659727174,-0.15937301063513154,-0.01951999497921672,-1.5959545153640835,-1.491584184814059,0.0
5.413999999999626,-0.014244157387135655,-0.00700276729536669,-7.213652283533992e-05,0.9877419891216823,-0.018336953338610698,-0.1549697207718121,-0.0037289022655833163,-0.03684735408032125,-0.3112795595691711,-0.001768008646010713,-0.006996532458865731,0.015089371392900812,0.03660894489125419,0.0403607716854832,0.25963380697700245,0.005366068712535479,0.0,0.0,0.0,0.0,0.0,0.0,0.0,0.0,0.0,0.20732888183967613,0.30881008421811174,-0.3344510112678313,-0.18168890849045655,-1.6165750341321075,-1.4986217399266755,0.0
5.435999999999623,-0.014380074870434231,-0.006674347514949549,0.000718345373540107,0.9881923775142558,-0.017889455906763007,-0.15212642982105012,-0.003652634663219433,-0.035915742409206815,-0.30552200172529065,-0.0018623391721142204,-0.005200541329055051,0.01473555864227053,0.03511690882200364,0.04202001267287524,0.26458569090024053,0.005537267361493595,0.0,0.0,0.0,0.0,0.0,0.0,0.0,0.0,0.0,0.20732888183967613,0.30881008421811174,-0.3344510112678313,-0.18168890849045655,-1.6165750341321075,-1.4986217399266755,0.0
5.457999999999621,-0.014475937041819995,-0.006353699216178693,0.0014761931684939842,0.9886425615053686,-0.017424126971806165,-0.14922975875330774,-0.0035727414967808707,-0.034950433893686406,-0.29965885970107337,-0.001950869372519819,-0.0031901979234920785,0.01437710205948552,0.03368899771498572,0.04361717307710364,0.26888619353639287,0.005686082654871745,0.0,0.0,0.0,0.0,0.0,0.0,0.0,0.0,0.0,0.3449174073581459,0.4620996031743431,-0.4845714572703084,-0.32244704443525046,-1.6300880162941558,-1.5005068821705843,0.0
5.4799999999996185,-0.01452327867383301,-0.00604103590724686,0.0022038721977039417,0.9890905394315327,-0.0169416226201176,-0.14628981307873273,-0.0034895299720127623,-0.03395286622808036,-0.2937106718409768,-0.002033220091273441,-0.0009137212283363707,0.014014707856626332,0.03233865768543445,0.04515039762819349,0.2723808538367788,0.005805896349652819,0.0,0.0,0.0,0.0,0.0,0.0,0.0,0.0,0.0,0.3449174073581459,0.4620996031743431,-0.4845714572703084,-0.32244704443525046,-1.6300880162941558,-1.5005068821705843,0.0
5.501999999999616,-0.014520850637875464,-0.005736297180814383,0.0029017431711866946,0.9895351533830676,-0.016442628176854306,-0.14331168199981584,-0.0034032337812366026,-0.03292448901752605,-0.2876877994495264,-0.002109076822682046,0.0013944061889235519,0.013654255453014921,0.030997428026459134,0.04661792027515639,0.27553299641465934,0.005912983676820311,0.0,0.0,0.0,0.0,0.0,0.0,0.0,0.0,0.0,0.4609741490687522,0.591580072251902,-0.6114094558559814,-0.44114671033137204,-1.6337789834928216,-1.4941943723381679,0.0
5.523999999999614,-0.014463078984373663,-0.005439605232745002,0.0035714643375814948,0.9899750070123025,-0.0159278461767133,-0.14030255077207673,-0.0033141294499306915,-0.031866768000036926,-0.281604818163731,-0.002178174166499725,0.004081231406977845,0.01328572491219674,0.029767424024139538,0.048018117172221,0.2777479230358578,0.005986114500809545,0.0,0.0,0.0,0.0,0.0,0.0,0.0,0.0,0.0,0.4609741490687522,0.591580072251902,-0.6114094558559814,-0.44114671033137204,-1.6337789834928216,-1.4941943723381679,0.0
5.545999999999611,-0.014346862560310666,-0.005150956181491546,0.004213872975327791,0.9904088892712235,-0.015397998594195396,-0.13726889392246674,-0.003222491758971725,-0.030781179952625297,-0.27547484110475473,-0.0022403064847259934,0.006719720324294278,0.012922926527815844,0.028517646137377322,0.049349480818015545,0.2797449654673463,0.006050007994349055,0.0,0.0,0.0,0.0,0.0,0.0,0.0,0.0,0.0,0.4609741490687522,0.591580072251902,-0.6114094558559814,-0.44114671033137204,-1.6337789834928216,-1.4941943723381679,0.0
5.567999999999609,-0.014169984401831018,-0.004870346749739456,0.004829612560581689,0.990835939053777,-0.014853826342645525,-0.13421519187254155,-0.003128576835987037,-0.029669211638950973,-0.2693069321133711,-0.0022953303425459503,0.009666032678954977,0.01255327108689941,0.027364214181854366,0.05061063370435269,0.2809728884868966,0.006081686532396426,0.0,0.0,0.0,0.0,0.0,0.0,0.0,0.0,0.0,0.5575983966525101,0.6998890789388647,-0.7170965877452199,-0.5403932113801508,-1.6285931212918396,-1.4805994374924618,0.0
5.589999999999606,-0.013927774105866542,-0.004597833423513965,0.00542004279879286,0.9912549976329095,-0.014296079627080642,-0.13114859664470851,-0.003032717131407348,-0.0285323447826952,-0.2631155293093456,-0.0023432158375815072,0.012616954814558346,0.012188324160702818,0.026202872288848992,0.051800324271007406,0.2819011390992744,0.006100428674565593,0.0,0.0,0.0,0.0,0.0,0.0,0.0,0.0,0.0,0.5575983966525101,0.6998890789388647,-0.7170965877452199,-0.5403932113801508,-1.6285931212918396,-1.4805994374924618,0.0
5.611999999999604,-0.013619880682733369,-0.004333337446866784,0.0059851524241097765,0.9916655199184108,-0.013725532904551224,-0.1280722111596134,-0.0029351456727275543,-0.027372097545129946,-0.25690687784441885,-0.0023838868975118916,0.015730794360912202,0.011821763304542513,0.0250956927006932,0.05291744033323803,0.2823168659426487,0.0060948171549845285,0.0,0.0,0.0,0.0,0.0,0.0,0.0,0.0,0.0,0.6367348766748835,0.7890337279149029,-0.8036484292377529,-0.6221228098290262,-1.6154078878854603,-1.460533799351154,0.0
5.6339999999996015,-0.013241811452563677,-0.0040769109569937885,0.006526394787912286,0.9920665674937225,-0.01314296132070376,-0.12499257601185054,-0.00283622475596309,-0.026189957462334885,-0.2506941441409685,-0.0024174737449030232,0.0189243177742712,0.011457474858284963,0.02400555987250186,0.05396098082189216,0.2823259600342597,0.006069964622891682,0.0,0.0,0.0,0.0,0.0,0.0,0.0,0.0,0.0,0.6367348766748835,0.7890337279149029,-0.8036484292377529,-0.6221228098290262,-1.6154078878854603,-1.460533799351154,0.0
5.655999999999599,-0.012793597391064952,-0.0038284541724100504,0.007043537069353001,0.9924577366107207,-0.01254916517406322,-0.12191256209806398,-0.002736183042753839,-0.024987467661761513,-0.24448307535777544,-0.0024439700290373257,0.02217203312739106,0.011095376231677284,0.022933429561670556,0.05493010476175661,0.282017777974661,0.006029512419126445,0.0,0.0,0.0,0.0,0.0,0.0,0.0,0.0,0.0,0.7002794048942588,0.8608645982432293,-0.8730189075220512,-0.6881279802335615,-1.595207977671325,-1.4349282353258836,0.0
5.677999999999597,-0.012271978552584375,-0.003587976841615221,0.007537801879170088,0.9928383858580206,-0.011944943655033345,-0.11883733733298192,-0.002635364021104902,-0.023766137583570497,-0.23828403869329684,-0.0024635828770095997,0.025547064754470626,0.010734288214314162,0.021901272537930984,0.05582406540855729,0.2812397365801651,0.005964124994259063,0.0,0.0,0.0,0.0,0.0,0.0,0.0,0.0,0.0,0.7002794048942588,0.8608645982432293,-0.8730189075220512,-0.6881279802335615,-1.595207977671325,-1.4349282353258836,0.0
5.699999999999594,-0.011676473759550762,-0.003355389710176296,0.008009110096511455,0.9932081580867859,-0.011331113795222886,-0.11577020042061449,-0.0025340214252169767,-0.022527518251573952,-0.23210361990841635,-0.0024764193574784727,0.028888605183720825,0.010378529185955209,0.020845169115852956,0.056642284296276144,0.28029307524390445,0.00589238036922315,0.0,0.0,0.0,0.0,0.0,0.0,0.0,0.0,0.0,0.7499718106648168,0.9171671450694262,-0.9270117586611752,-0.7401302775443366,-1.5689315623917495,-1.404661622601922,0.0
5.721999999999592,-0.011005646415328375,-0.003130640006756771,0.008458108241093465,0.9935667179052667,-0.010708497096214782,-0.11271463268548797,-0.002432434885074701,-0.021273155529098694,-0.22594876361418,-0.002482671093303422,0.032398006414751955,0.010022363371273874,0.019870370612647275,0.05738428003258396,0.2788402262859213,0.0057896406233297676,0.0,0.0,0.0,0.0,0.0,0.0,0.0,0.0,0.0,0.7499718106648168,0.9171671450694262,-0.9270117586611752,-0.7401302775443366,-1.5689315623917495,-1.404661622601922,0.0
5.743999999999589,-0.010258222870520115,-0.002913658577780852,0.008885182132313632,0.9939137382653818,-0.010077919283573274,-0.1096744424379456,-0.002330902437219373,-0.020004593166649806,-0.2198270634133304,-0.002482597312697581,0.035859021463725715,0.009672277792633618,0.018858509246438046,0.05804971701917046,0.2772445481401935,0.005682818735008365,0.0,0.0,0.0,0.0,0.0,0.0,0.0,0.0,0.0,0.7499718106648168,0.9171671450694262,-0.9270117586611752,-0.7401302775443366,-1.5689315623917495,-1.404661622601922,0.0
5.765999999999587,-0.009434154942625644,-0.0027043460236184217,0.009290352097171342,0.9942490988441622,-0.009440218205754065,-0.10665195942123042,-0.002229636609312078,-0.018723409880694934,-0.21374312776164922,-0.0024763476437725516,0.039397346941103605,0.009324973215691668,0.01789765275630771,0.05863838565631785,0.2753041996501472,0.005553929466015514,0.0,0.0,0.0,0.0,0.0,0.0,0.0,0.0,0.0,0.787428864156692,0.9596296342312075,-0.9673126098385636,-0.7797491166926716,-1.537472289998438,-1.3705637210912884,0.0
5.787999999999585,-0.008532055416688233,-0.002502629562003107,0.009674394898464148,0.9945725682610294,-0.008796224573341246,-0.10365085838012553,-0.002128955841944976,-0.01743114410067695,-0.20770426674489811,-0.002464297524381466,0.04292704532819596,0.008982651880178388,0.01692246706711281,0.05915017903065631,0.2731621134019129,0.005416204323286993,0.0,0.0,0.0,0.0,0.0,0.0,0.0,0.0,0.0,0.787428864156692,0.9596296342312075,-0.9673126098385636,-0.7797491166926716,-1.537472289998438,-1.3705637210912884,0.0
5.809999999999582,-0.007552426213095675,-0.002308393495772702,0.010036967196225896,0.9948841416753322,-0.008146783964658955,-0.10067302312941596,-0.0020290312844502677,-0.01612939020208846,-0.2017141799576484,-0.0024465873239888237,0.04647242373036732,0.008645052779821541,0.015971902212006343,0.059585146900952415,0.27078926739443787,0.00526478409976239,0.0,0.0,0.0,0.0,0.0,0.0,0.0,0.0,0.0,0.8141469435772913,0.9898308889119025,-0.9954939294086685,-0.8084872363970816,-1.5016634264538589,-1.3333971970547898,0.0
5.83199999999958,-0.006494428722655168,-0.0021215391661435355,0.01037895990166291,0.9951837219014994,-0.007492729738607,-0.09772150801519494,-0.0019301643914060738,-0.014819689041852114,-0.19577891873360156,-0.0024236370826137784,0.05002618617668915,0.008312340319892675,0.015028206526950054,0.05994340909886395,0.26819070125296585,0.0051003359914016675,0.0,0.0,0.0,0.0,0.0,0.0,0.0,0.0,0.0,0.8141469435772913,0.9898308889119025,-0.9954939294086685,-0.8084872363970816,-1.5016634264538589,-1.3333971970547898,0.0
5.853999999999577,-0.0053585905502187,-0.0019419508700049203,0.010699964616132216,0.9954713630252607,-0.006834906363639324,-0.0947981610195247,-0.0018325171067310778,-0.01350363016995493,-0.18990210349632614,-0.002395632708517443,0.05355734701120235,0.007985175370158948,0.014084423576305941,0.060225252794794806,0.26543578495680253,0.004930231868850711,0.0,0.0,0.0,0.0,0.0,0.0,0.0,0.0,0.0,0.831510757342912,1.0092436977212589,-1.0130237848068044,-0.8277340715282638,-1.4623031823599641,-1.2938829165850227,0.0
5.875999999999575,-0.004144855847993845,-0.001769501440264969,0.011000737835116856,0.9957471006741392,-0.006174147566355584,-0.09190525848340846,-0.0017363363649502371,-0.012182763773160526,-0.18408821446720763,-0.002362958286824998,0.057096815260816565,0.007663682648118933,0.013170093751194142,0.06043102257641378,0.26245893245866914,0.004743059770244332,0.0,0.0,0.0,0.0,0.0,0.0,0.0,0.0,0.0,0.831510757342912,1.0092436977212589,-1.0130237848068044,-0.8277340715282638,-1.4623031823599641,-1.2938829165850227,0.0
5.8979999999995725,-0.002853642648110023,-0.0016040723336895632,0.011281115138775855,0.9960110290813695,-0.005511288577587065,-0.08904470855859452,-0.0016418051653915033,-0.01085865562474392,-0.178340989246536,-0.002325902319130425,0.0605985734123044,0.007347449309639305,0.012229091101942043,0.06056121545788029,0.25936069013452845,0.004556376041160466,0.0,0.0,0.0,0.0,0.0,0.0,0.0,0.0,0.0,0.831510757342912,1.0092436977212589,-1.0130237848068044,-0.8277340715282638,-1.4623031823599641,-1.2938829165850227,0.0
5.91999999999957,-0.0014855497468904213,-0.0014455251277796005,0.011541381846585692,0.9962632864364297,-0.004847160308972249,-0.08621815039600468,-0.0015490894470405836,-0.009532866390588991,-0.17266362406174549,-0.0022847502421136064,0.06408596144851797,0.007038668724756362,0.011345297082252554,0.060616403997138274,0.2560808554088333,0.004352069287610702,0.0,0.0,0.0,0.0,0.0,0.0,0.0,0.0,0.0,0.8407886436834604,1.0192358761857259,-1.0212623222347954,-0.8387656345117269,-1.4201040756233774,-1.2526482132940198,0.0
5.941999999999568,-4.107854952641716e-05,-0.001293721552172128,0.011781882474804769,0.9965040150445227,-0.004182583137554295,-0.08342737598995721,-0.001458401135739681,-0.00820692860656889,-0.1670596219268388,-0.0022399072146354415,0.06753722553433095,0.006734892581281608,0.010431324819967117,0.060597265454967714,0.25268225886410955,0.004148529939615246,0.0,0.0,0.0,0.0,0.0,0.0,0.0,0.0,0.0,0.8407886436834604,1.0192358761857259,-1.0212623222347954,-0.8387656345117269,-1.4201040756233774,-1.2526482132940198,0.0
5.963999999999565,0.0014789158250693992,-0.001148530710737795,0.012002461075682714,0.9967334119420065,-0.0035183785274863987,-0.0806737259808299,-0.00136984209056105,-0.0068823982170271615,-0.16153157880585112,-0.0021915848776795453,0.07094707206286666,0.006438943245180997,0.00955351392060248,0.06050458540395112,0.2491575379894213,0.00393478348420469,0.0,0.0,0.0,0.0,0.0,0.0,0.0,0.0,0.0,0.8431390147749253,1.0210704208969932,-1.0214679088317014,-0.8427449714502697,-1.3757083910894932,-1.2102426281416392,0.0
5.985999999999563,0.0030735402319293885,-0.0010097854806330147,0.012203813890510447,0.9969516796724747,-0.002855350139871086,-0.07795862806039279,-0.0012836217318790315,-0.005560779314579332,-0.15608226681129395,-0.002140237945336253,0.07431909369065336,0.00614870163901872,0.008666930860609705,0.06033921110056287,0.24551738282597219,0.0037182134735960787,0.0,0.0,0.0,0.0,0.0,0.0,0.0,0.0,0.0,0.8431390147749253,1.0210704208969932,-1.0214679088317014,-0.8427449714502697,-1.3757083910894932,-1.2102426281416392,0.0
6.00799999999956,0.004741924616737369,-0.0008773670556670096,0.012385580709012876,0.9971590480116399,-0.002194302664368305,-0.07528332126306547,-0.0011998099594467445,-0.004243603750078677,-0.1507140794448427,-0.002086062792470026,0.07763988175208544,0.005865803549653765,0.007796709489451109,0.06010211410512002,0.2417784233495241,0.0034983033230075403,0.0,0.0,0.0,0.0,0.0,0.0,0.0,0.0,0.0,0.8396184936225717,1.0159084333125257,-1.014804458056967,-0.8407258974449979,-1.3300269994338505,-1.1674774813127904,0.0
6.029999999999558,0.0064827557613245995,-0.0007510866438197766,0.012548564972327777,0.9973557712308745,-0.0015360213999843406,-0.07264884724486886,-0.0011185815647329136,-0.002932350859790662,-0.14542901621260615,-0.0020294922435805476,0.0809084749358364,0.005589944374499027,0.0069384448300863,0.059794305495410746,0.23794792419323535,0.0032723114965026124,0.0,0.0,0.0,0.0,0.0,0.0,0.0,0.0,0.0,0.8396184936225717,1.0159084333125257,-1.014804458056967,-0.8407258974449979,-1.3300269994338505,-1.1674774813127904,0.0
6.0519999999995555,0.008295117885636957,-0.0006308271681248136,0.0126924571787095,0.9975421060656638,-0.0008812877520587681,-0.07005632267253153,-0.001040005567090256,-0.0016285115592320893,-0.14022922820585423,-0.001970765459667115,0.08413199060633042,0.005319944774411973,0.006074303571231716,0.05941691504649614,0.23402197704904348,0.003049479547967268,0.0,0.0,0.0,0.0,0.0,0.0,0.0,0.0,0.0,0.8311717001881587,1.0047960342941484,-1.0023232861075366,-0.8336478408009611,-1.2840807542940516,-1.1252746271243232,0.0
6.073999999999553,0.01017750405894027,-0.0005163996502078992,0.012817902075602896,0.9977183368202853,-0.00023086689610954538,-0.06750657304876335,-0.0009641930566250017,-0.0003335415458143016,-0.13511628471278816,-0.0019102277094576693,0.0872753294453045,0.005059378090671869,0.005248417706618645,0.05897110996410282,0.23004658566931196,0.0028173053861037444,0.0,0.0,0.0,0.0,0.0,0.0,0.0,0.0,0.0,0.8311717001881587,1.0047960342941484,-1.0023232861075366,-0.8336478408009611,-1.2840807542940516,-1.1252746271243232,0.0
6.095999999999551,0.012128708448621628,-0.0004076644819679595,0.012924915945664322,0.9978847518809488,0.00041448811762178093,-0.06500042973472339,-0.0008912336382146797,0.0009511210049641381,-0.13009176886621104,-0.001848199065449463,0.09038309716603153,0.004803095542789127,0.004399924307195501,0.05845815130695277,0.2259739761686585,0.0025914536829297202,0.0,0.0,0.0,0.0,0.0,0.0,0.0,0.0,0.0,0.8311717001881587,1.0047960342941484,-1.0023232861075366,-0.8336478408009611,-1.2840807542940516,-1.1252746271243232,0.0
6.117999999999548,0.014147397190521025,-0.00030446604679128144,0.013013701666904565,0.9980416440876537,0.0010540356550576763,-0.06253871883408851,-0.0008211712616459723,0.0022240511917351576,-0.12515725555821175,-0.0017849248458008944,0.09339481529885144,0.004557470329014946,0.003600207094107654,0.05787935419425637,0.2218777763335194,0.002359069480810364,0.0,0.0,0.0,0.0,0.0,0.0,0.0,0.0,0.0,0.8186437912074235,0.9887047348415842,-0.9849857697245817,-0.8223660958692122,-1.2381805136531534,-1.0838370871844203,0.0
6.139999999999546,0.01623184638418535,-0.00020662077200195986,0.013084769997547697,0.9981893334811544,0.0016870533887273522,-0.060121873690363904,-0.0007541082628400019,0.003483865876702507,-0.12031353495576899,-0.0017207835661366582,0.09636428320541658,0.004316351819753546,0.0027835553381021752,0.05723608889080668,0.21770183671339727,0.0021314375252765696,0.0,0.0,0.0,0.0,0.0,0.0,0.0,0.0,0.0,0.8186437912074235,0.9887047348415842,-0.9849857697245817,-0.8223660958692122,-1.2381805136531534,-1.0838370871844203,0.0
6.161999999999543,0.018380976247801686,-0.00011400818053008502,0.013137993442833786,0.9983281141194149,0.002312828155551055,-0.05775076814101628,-0.0006900462430037235,0.004729184809108913,-0.11556228275146146,-0.0016559662028369853,0.09924699994057948,0.004084420714709707,0.0019978936040137836,0.05652979592591152,0.21349841977137202,0.0019027792959452417,0.0,0.0,0.0,0.0,0.0,0.0,0.0,0.0,0.0,0.8027846238082139,0.9685089632926375,-0.9636549490748205,-0.8076419109499735,-1.1925954649618316,-1.0433290303357132,0.0
6.183999999999541,0.020592666937791514,-2.6415797962321704e-05,0.013174142723913063,0.9984583250102023,0.002930669130336078,-0.05542552356225304,-0.0006290740176959854,0.005958677743512896,-0.11090366941996874,-0.0015908501947374618,0.10206606169412394,0.003858673121917436,0.0012147669457676646,0.0557619473930301,0.20925162438489753,0.0016759246331453283,0.0,0.0,0.0,0.0,0.0,0.0,0.0,0.0,0.0,0.8027846238082139,0.9685089632926375,-0.9636549490748205,-0.8076419109499735,-1.1925954649618316,-1.0433290303357132,0.0
6.2059999999995386,0.02286594026295176,5.625834966893938e-05,0.013192989791420332,0.9985802646315155,0.003539896067224285,-0.05314694703917292,-0.0005711783441672752,0.007171021472459106,-0.1063392424057795,-0.00152562254094988,0.10481711586539226,0.0036401384460909027,0.0004457809864537951,0.0549340848474201,0.2049583781133137,0.0014530645707773577,0.0,0.0,0.0,0.0,0.0,0.0,0.0,0.0,0.0,0.7842787958351036,0.9449729153425779,-0.9391281710254306,-0.7901267353929323,-1.1475308945548777,-1.0038511269066035,0.0
6.227999999999536,0.025198560469255726,0.0001342320797247203,0.01319534885797135,0.9986942732961729,0.004139850437764319,-0.05091506107706251,-0.0005164100119264784,0.008364938159928791,-0.10186898003846133,-0.001460605446595379,0.1074759318544306,0.0034298485250522266,-0.0003016179298878799,0.0540477727660522,0.20066921425014228,0.0012295585067834632,0.0,0.0,0.0,0.0,0.0,0.0,0.0,0.0,0.0,0.7842787958351036,0.9449729153425779,-0.9391281710254306,-0.7901267353929323,-1.1475308945548777,-1.0038511269066035,0.0
6.249999999999534,0.027589336734238547,0.00020761624057656495,0.013181133382080507,0.9988006618895964,0.004729888317393132,-0.04873038027110968,-0.0004647623498363335,0.009539170490806465,-0.09749384953535535,-0.0013960182076477748,0.11009994028116268,0.0032232785620649393,-0.0010618168823362678,0.05310463297289106,0.19629958196149033,0.0010144896868619613,0.0,0.0,0.0,0.0,0.0,0.0,0.0,0.0,0.0,0.7637336845134302,0.9187764101442679,-0.9121232509829077,-0.770389952548222,-1.1031568873343445,-0.9654709898360693,0.0
6.271999999999531,0.030036374703326388,0.0002765948369792065,0.013150909127036566,0.9988997535630039,0.005309384660981032,-0.04659312735708488,-0.00041623236105914227,0.010692495405792427,-0.0932142364627281,-0.0013320938914898985,0.11258512600381794,0.003029461700465024,-0.0017606288252800782,0.05210631221617776,0.19199523212879638,0.0007968586455732105,0.0,0.0,0.0,0.0,0.0,0.0,0.0,0.0,0.0,0.7637336845134302,0.9187764101442679,-0.9121232509829077,-0.770389952548222,-1.1031568873343445,-0.9654709898360693,0.0
6.293999999999529,0.03253791156265825,0.00034132100889772257,0.013104985767087672,0.998991876353151,0.005877733807692226,-0.04450332251184469,-0.00037082489541463714,0.011823725557006606,-0.08903012367476067,-0.0012690861192563403,0.11504520406500306,0.0028378926832102213,-0.002481474113409457,0.0510544954380788,0.18760987243945482,0.0005883580141907738,0.0,0.0,0.0,0.0,0.0,0.0,0.0,0.0,0.0,0.7637336845134302,0.9187764101442679,-0.9121232509829077,-0.770389952548222,-1.1031568873343445,-0.9654709898360693,0.0
6.315999999999526,0.035092596304213394,0.00040192485800317503,0.013043555331909436,0.9990773324907636,0.006434346754223057,-0.04246145281181847,-0.0003284967202433758,0.012931700469395513,-0.0849424321939286,-0.0012071633229353558,0.11738829298508786,0.002656915037870232,-0.003157331578044988,0.04995089760210564,0.1832655827907606,0.0003820988050715515,0.0,0.0,0.0,0.0,0.0,0.0,0.0,0.0,0.0,0.7416742988080707,0.8905298274418234,-0.8832714081718246,-0.7489357339981874,-1.0596228509878796,-0.9282394776968711,0.0
6.337999999999524,0.037698125771515996,0.0004586029003883425,0.012967315208688705,0.9991564568923206,0.00697865634170954,-0.040467139062399925,-0.0002892441051077478,0.01401530196005626,-0.08095035126595984,-0.0011465676487589678,0.11968098197494985,0.0024800838127164854,-0.0038368011421739782,0.048797256271480516,0.17888432603100657,0.00018273453284110998,0.0,0.0,0.0,0.0,0.0,0.0,0.0,0.0,0.0,0.7416742988080707,0.8905298274418234,-0.8832714081718246,-0.7489357339981874,-1.0596228509878796,-0.9282394776968711,0.0
6.359999999999522,0.04035351166431211,0.0005114462273215929,0.012876226713170385,0.9992295376714713,0.0075101121986435575,-0.038520971528628066,-0.00025300614958974604,0.015073440019328865,-0.07705501433913582,-0.0010874430217895613,0.12188336407203217,0.0023114468744966786,-0.004486982449289374,0.04759533795897958,0.17451176090631276,-1.0697168744050748e-05,0.0,0.0,0.0,0.0,0.0,0.0,0.0,0.0,0.0,0.7185633006681771,0.8607678524512289,-0.8531357476234749,-0.7261983237195289,-1.0170471855566992,-0.8921817925375641,0.0
6.381999999999519,0.04305623621257833,0.0005606682000776752,0.012771164580531527,0.9992969020348798,0.00802818587225285,-0.036622418327535995,-0.0002197519845496018,0.016105065881390265,-0.0732553111876467,-0.0010299806771431545,0.1240070240836492,0.002148980046899386,-0.005123141487715552,0.04634692517979262,0.17015163793541638,-0.00019830843565146208,0.0,0.0,0.0,0.0,0.0,0.0,0.0,0.0,0.0,0.7185633006681771,0.8607678524512289,-0.8531357476234749,-0.7261983237195289,-1.0170471855566992,-0.8921817925375641,0.0
6.403999999999517,0.045805343720717435,0.00060634764427877,0.012652062667214374,0.9993588326326299,0.008532367340288867,-0.03477192068283025,-0.00018941685268901502,0.01710916482979139,-0.06955208248961689,-0.0009743202475615051,0.1260725447480766,0.001992016250672616,-0.005745981643613212,0.045053821964451055,0.1657605732659288,-0.00037771373570870295,0.0,0.0,0.0,0.0,0.0,0.0,0.0,0.0,0.0,0.6947940254508443,0.8299703854614765,-0.8222031479035552,-0.7025640804061659,-0.9755377715308746,-0.857319018967923,0.0
6.425999999999514,0.04859849974301798,0.0006486845923478624,0.012519767217950412,0.9994156357767674,0.009022167554915054,-0.03296909512569145,-0.00016193864156071572,0.018084760392826815,-0.0659445211342724,-0.0009205945114141611,0.12802549962479223,0.0018435937606342053,-0.00633622103446598,0.04371784655953341,0.1614371649226291,-0.0005511002441035531,0.0,0.0,0.0,0.0,0.0,0.0,0.0,0.0,0.0,0.6947940254508443,0.8299703854614765,-0.8222031479035552,-0.7025640804061659,-0.9755377715308746,-0.857319018967923,0.0
6.447999999999512,0.05143437716907079,0.0006877788383921416,0.012374414468867915,0.9994675955498921,0.009497117641692282,-0.031213961060369177,-0.00013724845795598292,0.019030914920902094,-0.062432629045936175,-0.0008689291225494609,0.1299517384084026,0.0016975743405675948,-0.00693273752488379,0.042340830375032695,0.15705108271596452,-0.0007156658500864546,0.0,0.0,0.0,0.0,0.0,0.0,0.0,0.0,0.0,0.6947940254508443,0.8299703854614765,-0.8222031479035552,-0.7025640804061659,-0.9755377715308746,-0.857319018967923,0.0
6.4699999999995095,0.05431129119496074,0.0007237753580965541,0.012216529347266556,0.9995149892504143,0.00995676900678966,-0.029506537054171826,-0.00011526387327791526,0.019946728701849017,-0.05901640925760585,-0.0008194221605095746,0.13174070173475924,0.0015628446196044997,-0.007472212486724067,0.040924616738795966,0.1527632539292113,-0.0008723767148759858,0.0,0.0,0.0,0.0,0.0,0.0,0.0,0.0,0.0,0.6707029928287859,0.7985574013645385,-0.7908953401462627,-0.6783677688864068,-0.9351805405786483,-0.8236580235116989,0.0
6.491999999999507,0.0572272589221852,0.0007568240309536444,0.01204666119305163,0.9995581018325754,0.010400694050409384,-0.027846318020423703,-9.59001242282411e-05,0.020831341329107828,-0.05569481965953907,-0.00077215490632353,0.13350288835101357,0.0014298673864504435,-0.00802085682612175,0.03947105760041081,0.14842716143482787,-0.0010206428518663396,0.0,0.0,0.0,0.0,0.0,0.0,0.0,0.0,0.0,0.6707029928287859,0.7985574013645385,-0.7908953401462627,-0.6783677688864068,-0.9351805405786483,-0.8236580235116989,0.0
6.513999999999505,0.06018120433056948,0.000787014742048634,0.01186500931992094,0.9995971862696562,0.010828485663756887,-0.02623362056437716,-7.907021979667423e-05,0.021683933527144764,-0.052468464622596744,-0.0007272183353655413,0.13515882964202947,0.0013055804388842395,-0.008527797299357206,0.037982010980022296,0.14414946657446498,-0.0011593442622885473,0.0,0.0,0.0,0.0,0.0,0.0,0.0,0.0,0.0,0.6465755375137183,0.7668983564311103,-0.7595738040153271,-0.6539027016888301,-0.8960526560281911,-0.7912053168668286,0.0
6.535999999999502,0.06317075998557473,0.0008145283210726581,0.011672406007876428,0.9996325175430167,0.011239757520422665,-0.024667661825570678,-6.46649184703171e-05,0.022503723160024105,-0.04933575171838152,-0.0006846324732877174,0.13676038720541395,0.0011850275577411033,-0.009027461293092042,0.036459343441624076,0.1398728700719043,-0.0012893858620877836,0.0,0.0,0.0,0.0,0.0,0.0,0.0,0.0,0.0,0.6465755375137183,0.7668983564311103,-0.7595738040153271,-0.6539027016888301,-0.8960526560281911,-0.7912053168668286,0.0
6.5579999999995,0.06619513628123441,0.0008394245014717427,0.011468893982180503,0.9996643322073043,0.011634144470690576,-0.02314879755818354,-5.259819177862464e-05,0.02328997282993505,-0.046297368182843295,-0.0006444846130303038,0.1382881033352046,0.00107057932261452,-0.009500269311938928,0.03490491988301948,0.13561256452751358,-0.0014097452317023153,0.0,0.0,0.0,0.0,0.0,0.0,0.0,0.0,0.0,0.6226480858463534,0.7353157474896903,-0.7285414796592062,-0.6294248628669434,-0.8582173907073165,-0.7599624556604659,0.0
6.579999999999497,0.06925195946660628,0.0008618864872245763,0.011255393461263127,0.999692886182929,0.012011301749155042,-0.021676257025479182,-4.2742274545770875e-05,0.024041981081387023,-0.04335175086599015,-0.0006067485251539358,0.13973298351551808,0.0009618059771842335,-0.009950087538491489,0.03332061474077118,0.13140369778044825,-0.0015199777900169586,0.0,0.0,0.0,0.0,0.0,0.0,0.0,0.0,0.0,0.6226480858463534,0.7353157474896903,-0.7285414796592062,-0.6294248628669434,-0.8582173907073165,-0.7599624556604659,0.0
6.601999999999495,0.07234034921623655,0.0008819725533633189,0.011031980530325182,0.9997184057687354,0.012370906098917424,-0.020250151215662815,-3.500361183108655e-05,0.024759092032033584,-0.04049910176998114,-0.0005714815809567285,0.14114081653600247,0.0008562198415527838,-0.010390061992159578,0.03170829481172793,0.12716572795855052,-0.001621982359438159,0.0,0.0,0.0,0.0,0.0,0.0,0.0,0.0,0.0,0.5991161714610698,0.7040899891080732,-0.698050288875684,-0.6051582797045736,-0.821731400017453,-0.7299337743717494,0.0
6.6239999999994925,0.07545834048943306,0.0008998377485366588,0.010799458393930258,0.9997411212898347,0.012712654723312492,-0.018870027984046734,-2.925595809858535e-05,0.02544068786916489,-0.037738499217490985,-0.0005386566258313231,0.14243054195958507,0.0007589370533629164,-0.0107868628716669,0.030069834965353023,0.12303320369175516,-0.0017111439142922305,0.0,0.0,0.0,0.0,0.0,0.0,0.0,0.0,0.0,0.5991161714610698,0.7040899891080732,-0.698050288875684,-0.6051582797045736,-0.821731400017453,-0.7299337743717494,0.0
6.64599999999949,0.07860458921564703,0.0009155694463048291,0.010558146173112707,0.9997612517414578,0.01303626593086837,-0.01753552516238136,-2.5381345156131496e-05,0.026086193279899826,-0.035069203278834664,-0.0005082586398507148,0.14370431498510733,0.0006627136502425009,-0.011187057449179614,0.028407101676671036,0.11885456423999638,-0.0017934519374493939,0.0,0.0,0.0,0.0,0.0,0.0,0.0,0.0,0.0,0.5991161714610698,0.7040899891080732,-0.698050288875684,-0.6051582797045736,-0.821731400017453,-0.7299337743717494,0.0
6.667999999999488,0.08177784423425523,0.0009292646596124291,0.010308499365246722,0.999779001627201,0.013341479069885124,-0.016246608873511877,-2.3273526741402546e-05,0.02669507570517868,-0.032491132162613234,-0.0004802978662048326,0.1448638433159698,0.0005751535149250022,-0.0115364986176242,0.0267219617627521,0.11477319091192684,-0.0018622696266169703,0.0,0.0,0.0,0.0,0.0,0.0,0.0,0.0,0.0,0.5761367780479509,0.6734602535130604,-0.6683037224023174,-0.5812956181130495,-0.7866393612278134,-0.7011207977377952,0.0
6.689999999999485,0.0849761996935141,0.0009410548555170596,0.010051205492768658,0.9997945791961047,0.01362805381644607,-0.015002501129070428,-2.2784498469949037e-05,0.02726684077375537,-0.030002718610611663,-0.00045467406237692347,0.1459954206242283,0.000489065337955637,-0.0118855302901875,0.02501628018554891,0.11067595280566872,-0.0019236208270871158,0.0,0.0,0.0,0.0,0.0,0.0,0.0,0.0,0.0,0.5761367780479509,0.6734602535130604,-0.6683037224023174,-0.5812956181130495,-0.7866393612278134,-0.7011207977377952,0.0
6.711999999999483,0.0881989119114898,0.0009509928463873197,0.009786452358386792,0.9998081683403871,0.013895771376520321,-0.013803386902644585,-2.3826641554957913e-05,0.027801040460477912,-0.027604321381545525,-0.00043142593485439614,0.1470444996230083,0.00040919766807100144,-0.012198287588804134,0.023291911820078844,0.10663377487236606,-0.0019734252361692274,0.0,0.0,0.0,0.0,0.0,0.0,0.0,0.0,0.0,0.5538356583489572,0.6436319912725853,-0.6394643876570059,-0.5580054745963499,-0.7529823830435188,-0.6735304380877979,0.0
6.73399999999948,0.0914438799160308,0.000959226746825535,0.00951510687130785,0.9998199605276613,0.014144432807759937,-0.012648354147106656,-2.6237055556482845e-05,0.02829726298806295,-0.025294108746521,-0.0004104035453839582,0.14804041769456572,0.00033254499642179186,-0.012496439580543505,0.021550715248621552,0.10262166000773276,-0.0020137347878447466,0.0,0.0,0.0,0.0,0.0,0.0,0.0,0.0,0.0,0.5538356583489572,0.6436319912725853,-0.6394643876570059,-0.5580054745963499,-0.7529823830435188,-0.6735304380877979,0.0
6.755999999999478,0.09471051467355666,0.0009657916266615146,0.00923726521349853,0.9998301237825192,0.014373860654028101,-0.011537539208995983,-2.9932141961270248e-05,0.028755143277736,-0.02307234500443143,-0.0003916363220395492,0.14898539210692843,0.00025979187143891234,-0.012772294691245589,0.019794532277602514,0.09862315864466384,-0.0020453907227830966,0.0,0.0,0.0,0.0,0.0,0.0,0.0,0.0,0.0,0.5323122191200642,0.6147746004813516,-0.6116592127651075,-0.5354297263764816,-0.7207947760809253,-0.6471714697738017,0.0
6.7779999999994756,0.09799687259617951,0.0009708272934491689,0.008953797699769268,0.9998388291893345,0.014583897301045989,-0.010470166032177639,-3.4757347485204726e-05,0.02917435340329672,-0.020937473019169376,-0.0003749773401563525,0.14985167958738957,0.00019193040682580174,-0.013019948310595615,0.01802521028287072,0.09469965196087926,-0.0020650165178684064,0.0,0.0,0.0,0.0,0.0,0.0,0.0,0.0,0.0,0.5323122191200642,0.6147746004813516,-0.6116592127651075,-0.5354297263764816,-0.7207947760809253,-0.6471714697738017,0.0
6.799999999999473,0.10130216133717325,0.0009743776946549318,0.008664892450279165,0.9998462316999193,0.014774406079887979,-0.009446069611280425,-4.061228791419428e-05,0.029554609711535642,-0.01888915742159369,-0.0003603965233320587,0.15070407654795595,0.00012487419357140527,-0.013266281408945604,0.01624457837388274,0.09074646229328029,-0.0020797281636818366,0.0,0.0,0.0,0.0,0.0,0.0,0.0,0.0,0.0,0.5116421250701955,0.5870261034850007,-0.5849847632635091,-0.5136854953659653,-0.6901057880984061,-0.6220537472946479,0.0
6.821999999999471,0.10462498397415808,0.0009765442764234826,0.008371199754360605,0.9998524805407228,0.014945270494861147,-0.008464856867298412,-4.737736950927749e-05,0.029895668618475965,-0.016926608399561786,-0.0003478097433339926,0.15144183000225275,6.604060194299638e-05,-0.013456741250851958,0.014454466959075853,0.08691680945749183,-0.0020792748011272642,0.0,0.0,0.0,0.0,0.0,0.0,0.0,0.0,0.0,0.5116421250701955,0.5870261034850007,-0.5849847632635091,-0.5136854953659653,-0.6901057880984061,-0.6220537472946479,0.0
6.843999999999468,0.10796406147522555,0.000977404374694778,0.008073181962109459,0.9998577180435076,0.015096394220671362,-0.007525924131318901,-5.492115372036668e-05,0.03019732706260478,-0.015048616414104033,-0.0003370934888879169,0.15217511419936722,6.882200487388668e-06,-0.013653320011594371,0.012656694077820017,0.08305633221074504,-0.002074952448363701,0.0,0.0,0.0,0.0,0.0,0.0,0.0,0.0,0.0,0.5116421250701955,0.5870261034850007,-0.5849847632635091,-0.5136854953659653,-0.6901057880984061,-0.6220537472946479,0.0
6.865999999999466,0.11131859606571151,0.0009770127637087937,0.007771185923366537,0.9998620738237145,0.015227701356554426,-0.006629211950072267,-6.316057048936676e-05,0.030459424586195372,-0.013255059777256835,-0.0003282278773302429,0.15282364452007097,-4.626048267634544e-05,-0.013807990938791124,0.0108530694778936,0.07927901134278026,-0.002058849547002581,0.0,0.0,0.0,0.0,0.0,0.0,0.0,0.0,0.0,0.49188137790192876,0.5604952884621603,-0.559510226094158,-0.4928683848085515,-0.6609390587636653,-0.5981886761389347,0.0
6.887999999999463,0.11468695268965713,0.0009754750671224598,0.007465925074063066,0.9998656751500078,0.015339135671761211,-0.005773854625395294,-7.194739066846163e-05,0.03068183906556433,-0.011544207296821454,-0.0003210287284083712,0.1534452151515035,-9.816327795040377e-05,-0.013956077594760561,0.009045399170870133,0.07551230791103383,-0.002036808616202707,0.0,0.0,0.0,0.0,0.0,0.0,0.0,0.0,0.0,0.49188137790192876,0.5604952884621603,-0.559510226094158,-0.4928683848085515,-0.6609390587636653,-0.5981886761389347,0.0
6.909999999999461,0.11806867157726023,0.0009728171804295437,0.0071575585744865,0.9998686350945868,0.01543066122750756,-0.00495990441633048,-8.121792219656868e-05,0.03086449133556578,-0.009916161734426374,-0.0003154992322303162,0.15401009846389102,-0.00014606232942666512,-0.014075337899251335,0.007235472528549003,0.07179111204785771,-0.0020065497160364487,0.0,0.0,0.0,0.0,0.0,0.0,0.0,0.0,0.0,0.47307116609083794,0.5352626347488271,-0.5352816295444178,-0.4730540344532596,-0.633312859616955,-0.5755900371694064,0.0
6.931999999999459,0.12146207953656153,0.0009691506314315871,0.006846885883774719,0.9998710642030154,0.015502261574907968,-0.004186478875305742,-9.083071402004053e-05,0.03100734027495389,-0.008369159713257596,-0.0003114486989307758,0.15452717031385785,-0.00019131628235041244,-0.014176426882814208,0.005425080046517393,0.06811896365740094,-0.0019684363272948896,0.0,0.0,0.0,0.0,0.0,0.0,0.0,0.0,0.0,0.47307116609083794,0.5352626347488271,-0.5352816295444178,-0.4730540344532596,-0.633312859616955,-0.5755900371694064,0.0
6.953999999999456,0.12486674971571499,0.0009644940924255305,0.006534031214352991,0.9998730609669787,0.015553940173058722,-0.003453513113126354,-0.00010072137228772711,0.031110386500280494,-0.006903071051133361,-0.00030885601006970525,0.15501516562146558,-0.00023449336497680147,-0.014261419077418886,0.0036159921364568174,0.06445657153339662,-0.0019256030939508078,0.0,0.0,0.0,0.0,0.0,0.0,0.0,0.0,0.0,0.45524121773701776,0.5113857234875034,-0.5123281748775639,-0.45430055244073786,-0.6072445146974987,-0.5542756433158136,0.0
6.975999999999454,0.12828126523238267,0.0009589450554709434,0.0062197290004681015,0.9998747189712689,0.015585719909915394,-0.002760330683524866,-0.0001107769530416658,0.03117366929428251,-0.005516544635904438,-0.0003075743162954728,0.15543361089886798,-0.0002735697673595025,-0.014316637988564817,0.0018099806560871357,0.060880234698623706,-0.0018732692172799257,0.0,0.0,0.0,0.0,0.0,0.0,0.0,0.0,0.0,0.45524121773701776,0.5113857234875034,-0.5123281748775639,-0.45430055244073786,-0.6072445146974987,-0.5542756433158136,0.0
6.997999999999451,0.13170494435201144,0.0009525365172969616,0.005904226131345578,0.9998761229798558,0.015597643169168661,-0.002106561539154888,-0.00012091658987124135,0.03119726798222127,-0.004208841567669146,-0.0003075207411796061,0.15584608861722024,-0.0003125322087077339,-0.014369819062147893,8.798922020633257e-06,0.05728956769772575,-0.0018187657424977924,0.0,0.0,0.0,0.0,0.0,0.0,0.0,0.0,0.0,0.45524121773701776,0.5113857234875034,-0.5123281748775639,-0.45430055244073786,-0.6072445146974987,-0.5542756433158136,0.0
7.019999999999449,0.1351369050658758,0.0009453282161675969,0.005588001962632009,0.9998773505481596,0.015589771952428897,-0.0014918754960846275,-0.00013106780592229319,0.03118130173550403,-0.0029793028098381406,-0.00030862083318149424,0.1561769385098596,-0.00034585465103209237,-0.014379333756261206,-0.0017856282451825228,0.05379949329741589,-0.0017549376638082677,0.0,0.0,0.0,0.0,0.0,0.0,0.0,0.0,0.0,0.4384095044143273,0.48889831168340875,-0.4906626956818268,-0.4366468338574164,-0.582745491205936,-0.5342617292262614,0.0
7.0419999999994465,0.1385760562805019,0.000937383741307129,0.0052715531145127,0.999878472606478,0.015562192647814487,-0.0009155651916985784,-0.00014113295320190118,0.03112593885823164,-0.001826516190073061,-0.00031072853047397526,0.15650158249768803,-0.00037940411767060185,-0.014389174285448714,-0.003570675138931727,0.05030600181996407,-0.0016890358415531147,0.0,0.0,0.0,0.0,0.0,0.0,0.0,0.0,0.0,0.4384095044143273,0.48889831168340875,-0.4906626956818268,-0.4366468338574164,-0.582745491205936,-0.5342617292262614,0.0
7.063999999999444,0.1420219554339643,0.0009287287633585971,0.004955119713121205,0.999879552128422,0.015515021449983386,-0.00037752300126790104,-0.00015106705971563186,0.031031408226165718,-0.0007502675118958678,-0.0003138123764180255,0.15676930123990732,-0.00040903902599620046,-0.014367448208248687,-0.005343603937483478,0.04687958461675812,-0.0016169996395172938,0.0,0.0,0.0,0.0,0.0,0.0,0.0,0.0,0.0,0.4225970436889324,0.4678002703467383,-0.47029602331707965,-0.42010293595838016,-0.559820835436982,-0.5155627927739956,0.0
7.085999999999442,0.145473327741457,0.0009194436651104157,0.004639344031751342,0.9998806457757586,0.015448404559057953,0.00012309185108961047,-0.00016077321677205995,0.030897998929346915,0.0002511217011437156,-0.00031770492555411293,0.15701317074161367,-0.0004376640315558671,-0.014336122417364454,-0.007101712960062093,0.043482732231378524,-0.0015416155971591503,0.0,0.0,0.0,0.0,0.0,0.0,0.0,0.0,0.0,0.4225970436889324,0.4678002703467383,-0.47029602331707965,-0.42010293595838016,-0.559820835436982,-0.5155627927739956,0.0
7.107999999999439,0.1489299185968001,0.0009095371695003976,0.004324351237804766,0.9998818031445474,0.015362517525607121,0.00058636312375658,-0.00017021742104581983,0.030726059609172084,0.0011778178435085953,-0.0003223788054284481,0.1572227710806919,-0.0004639414990809806,-0.0142842383836734,-0.008842352469881954,0.04012273092528437,-0.0014632185062857777,0.0,0.0,0.0,0.0,0.0,0.0,0.0,0.0,0.0,0.4077640745879531,0.44813642815270466,-0.45118154444833225,-0.40472053979031575,-0.5384823452648336,-0.4981969899115234,0.0
7.129999999999437,0.1523905189583847,0.0008990893059344476,0.004010795533252341,0.9998830672818287,0.015257564945269315,0.001013073048864246,-0.00017932657421497055,0.030515997279148444,0.0020313827457514324,-0.0003276978364576529,0.15739241219222025,-0.0004880855908625775,-0.014214030940166595,-0.010562914925776313,0.03682209868061778,-0.0013811819945263783,0.0,0.0,0.0,0.0,0.0,0.0,0.0,0.0,0.0,0.4077640745879531,0.44813642815270466,-0.45118154444833225,-0.40472053979031575,-0.5384823452648336,-0.4981969899115234,0.0
7.151999999999434,0.1558548212195567,0.0008881089582269767,0.0036988112264934665,0.9998844751511211,0.015133779650410746,0.0014034587590551284,-0.00018806586711024454,0.03026827603263176,0.0028122892512241924,-0.00033361033588733197,0.1575505253778542,-0.0005115303007703043,-0.014134638444279347,-0.012260857246617081,0.033530039219190455,-0.0012982040121227228,0.0,0.0,0.0,0.0,0.0,0.0,0.0,0.0,0.0,0.39392513079727737,0.42986596279155775,-0.4333165062557601,-0.39047610950061046,-0.5187268857332394,-0.48217722545171576,0.0
7.173999999999432,0.1593219122972891,0.0008766594024077354,0.003388940819849857,0.9998860574400172,0.014991422211588315,0.0017580750891771112,-0.00019639020433326502,0.029983415801855987,0.0035216451553713606,-0.0003400256774247348,0.1576504339053936,-0.0005313769495877242,-0.014026474198611288,-0.01393369067182889,0.030326176704656115,-0.0012118378233904313,0.0,0.0,0.0,0.0,0.0,0.0,0.0,0.0,0.0,0.39392513079727737,0.42986596279155775,-0.4333165062557601,-0.39047610950061046,-0.5187268857332394,-0.48217722545171576,0.0
7.1959999999994295,0.1627912300998101,0.000864766529103914,0.003081445845817998,0.9998878389712581,0.014830780190611645,0.0020774296147265847,-0.00020426091214750987,0.02966199092515997,0.0041604639161004695,-0.0003468592090355818,0.1577507542974476,-0.0005516734316346928,-0.013917228531477942,-0.015578998670829153,0.027121691220494307,-0.0011254008717263156,0.0,0.0,0.0,0.0,0.0,0.0,0.0,0.0,0.0,0.39392513079727737,0.42986596279155775,-0.4333165062557601,-0.39047610950061046,-0.5187268857332394,-0.48217722545171576,0.0
7.217999999999427,0.16626229250803748,0.0008524614609802792,0.002776640483931707,0.9998898394281541,0.014652167290081706,0.0023618221990761605,-0.00021165524576523416,0.029304628389897096,0.004729344084868547,-0.00035405619838735575,0.1577979356775156,-0.0005681883730338152,-0.013777214675248268,-0.017194434137202397,0.02399678553715575,-0.0010371989296993783,0.0,0.0,0.0,0.0,0.0,0.0,0.0,0.0,0.0,0.3810815628128659,0.4129543981271064,-0.4166884978254316,-0.3773489303017574,-0.5005592210300406,-0.4675210324749986,0.0
7.239999999999425,0.1697342579154133,0.000839794930098227,0.0024749663995573133,0.999892072244998,0.014455922750886922,0.0026119724879892733,-0.0002185377444426173,0.028912006573751807,0.005229723335623646,-0.00036151632288145024,0.1578387186901604,-0.0005848787038574939,-0.013634271455943333,-0.0187777252315372,0.02088904220847128,-0.0009489507892788186,0.0,0.0,0.0,0.0,0.0,0.0,0.0,0.0,0.0,0.3810815628128659,0.4129543981271064,-0.4166884978254316,-0.3773489303017574,-0.5005592210300406,-0.4675210324749986,0.0
7.261999999999422,0.1732069263536237,0.000826774439532516,0.002176574242637899,0.999894547060542,0.014242410204849565,0.002828061414764984,-0.00022489727514732254,0.028484852956168764,0.005661962784896104,-0.00036919622281481154,0.15784522367265352,-0.0005991155994268742,-0.013470171315286859,-0.020326683882357935,0.01783548033171306,-0.0008606232705959034,0.0,0.0,0.0,0.0,0.0,0.0,0.0,0.0,0.0,0.3692112340376048,0.39737032304699854,-0.40125969378271514,-0.36532327975997875,-0.4839763874677436,-0.45424000450551916,0.0
7.28399999999942,0.17667939400427426,0.000813460398986186,0.0018819656526086951,0.9998972671803796,0.014012017086459324,0.003010852773281951,-0.00023071184420365566,0.02802394283469529,0.006027588895200991,-0.00037700690162764444,0.15783245954024086,-0.0006125301680005406,-0.013296201312835008,-0.021839201498337547,0.014823506044396549,-0.000772565713593697,0.0,0.0,0.0,0.0,0.0,0.0,0.0,0.0,0.0,0.3692112340376048,0.39737032304699854,-0.40125969378271514,-0.36532327975997875,-0.4839763874677436,-0.45424000450551916,0.0
7.305999999999417,0.18015153957162183,0.0007998514520016421,0.0015912349208136976,0.9999002328867604,0.013765153401235134,0.0031605601970004712,-0.00023597475452526612,0.02753009692650221,0.0063270284245555836,-0.00038489894559744957,0.15780248284242906,-0.0006247246632716781,-0.013109488388999441,-0.02331326295132092,0.0118434242834058,-0.0006853261286537704,0.0,0.0,0.0,0.0,0.0,0.0,0.0,0.0,0.0,0.35829599043954136,0.3830705225254012,-0.38699523612399256,-0.35437264670771185,-0.4689746092532356,-0.44234586494353206,0.0
7.327999999999415,0.1836225777810753,0.0007860044204070894,0.0013048466780355501,0.9999034388212125,0.013502250975143008,0.0032778537934069884,-0.0002406795124188644,0.02700417970131389,0.0065616210751810585,-0.00039280420122393065,0.15774144848939925,-0.000635133940081465,-0.012907117926492677,-0.02474693823990036,0.008926606707262714,-0.0005993011841425651,0.0,0.0,0.0,0.0,0.0,0.0,0.0,0.0,0.0,0.35829599043954136,0.3830705225254012,-0.38699523612399256,-0.35437264670771185,-0.4689746092532356,-0.44234586494353206,0.0
7.349999999999413,0.18709228794460217,0.0007719236727505006,0.0010229320346721654,0.9999068765213078,0.0132237623078539,0.003363102315369655,-0.00024482370096002963,0.026447097189109984,0.006732104095109468,-0.0004006651629833218,0.15768130791491408,-0.0006459923651235395,-0.012702487563833334,-0.026138396395517058,0.006020842973601771,-0.0005142038259012757,0.0,0.0,0.0,0.0,0.0,0.0,0.0,0.0,0.0,0.3483152745686333,0.3700046797040615,-0.3738579453643807,-0.3444633361905863,-0.4555476656484777,-0.43184781621298246,0.0
7.37199999999941,0.19056017664053493,0.0007576461749948708,0.0007458183805729979,0.9999105334550226,0.012930159574278238,0.00341677492935692,-0.0002484112694436585,0.025859794846978864,0.006839415801120367,-0.0004084287637375175,0.15757467809901146,-0.0006531477918502752,-0.012471198289168768,-0.02748589870330083,0.0031997698006514304,-0.0004318857931608621,0.0,0.0,0.0,0.0,0.0,0.0,0.0,0.0,0.0,0.3483152745686333,0.3700046797040615,-0.3738579453643807,-0.3444633361905863,-0.4555476656484777,-0.43184781621298246,0.0
7.393999999999408,0.1940258028743456,0.000743195818934355,0.0004737477127593168,0.9999143932197159,0.012621933614086912,0.0034394472511063796,-0.0002514487940671958,0.025243255522053747,0.006884707550315182,-0.00041603945887690977,0.15747318015950906,-0.0006613457083873105,-0.012241221685269258,-0.02878780665069309,0.000390162505220545,-0.00035066562414092254,0.0,0.0,0.0,0.0,0.0,0.0,0.0,0.0,0.0,0.3483152745686333,0.3700046797040615,-0.3738579453643807,-0.3444633361905863,-0.4555476656484777,-0.43184781621298246,0.0
7.415999999999405,0.19748892398502738,0.0007285847516768955,0.00020689560741074834,0.9999184369928128,0.012299592740620532,0.003431456230176517,-0.00025394567379754206,0.024598497115097286,0.006868653565862176,-0.0004234488956087762,0.15733545526996892,-0.0006669912722578197,-0.011992266082219745,-0.030042581595128653,-0.0023475616621735835,-0.0002734436911513039,0.0,0.0,0.0,0.0,0.0,0.0,0.0,0.0,0.0,0.3374952226223318,0.356455808425715,-0.36005699550004483,-0.3338953178023731,-0.4434436544089776,-0.42250969185781684,0.0
7.437999999999403,0.20094886074713894,0.0007138541516178249,-5.440853852275451e-05,0.9999226414825622,0.011963661769350297,0.0033935746253564584,-0.0002559274607735089,0.023926570346811813,0.006792800104993047,-0.00043062611546994587,0.15719146200100942,-0.0006727663293319242,-0.011739320007521098,-0.03124878427635562,-0.00505042049810313,-0.0001983839726581516,0.0,0.0,0.0,0.0,0.0,0.0,0.0,0.0,0.0,0.3374952226223318,0.356455808425715,-0.36005699550004483,-0.3338953178023731,-0.4434436544089776,-0.42250969185781684,0.0
7.4599999999994,0.20440554115673068,0.0006990008360696717,-0.0003100774192416908,0.99992698230889,0.011614680807752496,0.0033261064871676384,-0.00025740242043760444,0.02322855676135918,0.006657755723858825,-0.00043751363112559276,0.1570248998541546,-0.0006770461000467362,-0.011474045318606189,-0.0324050806049203,-0.007697254672292396,-0.00012646192826744194,0.0,0.0,0.0,0.0,0.0,0.0,0.0,0.0,0.0,0.32682974880268245,0.3432156894997103,-0.34656722121890593,-0.3234794551660801,-0.4327053097588335,-0.41439193124095214,0.0
7.481999999999398,0.20785823789494573,0.0006840713398855069,-0.000559775861150433,0.9999314308801918,0.011253204236684898,0.0032298858575100673,-0.0002583982325953995,0.022505566143894824,0.0064651894296282085,-0.00044407719396263146,0.15684039808422215,-0.0006806001940299133,-0.011200656527412589,-0.03351023557845034,-0.01028462928305629,-5.7800007463573036e-05,0.0,0.0,0.0,0.0,0.0,0.0,0.0,0.0,0.0,0.32682974880268245,0.3432156894997103,-0.34656722121890593,-0.3234794551660801,-0.4327053097588335,-0.41439193124095214,0.0
7.503999999999396,0.21130689323821186,0.0006690591261714135,-0.000803435474910845,0.9999359579217123,0.01087979949461104,0.00310531404960733,-0.0002589262390029909,0.021758734559144694,0.006215904516537846,-0.0004502576387950623,0.1566490257240023,-0.0006837023846085837,-0.010920822250370173,-0.03456312127142383,-0.01283405533118337,8.502207264090733e-06,0.0,0.0,0.0,0.0,0.0,0.0,0.0,0.0,0.0,0.317826372594286,0.33183667411461815,-0.3348865531860122,-0.3147776939437345,-0.42363787453226315,-0.40780867702255397,0.0
7.525999999999393,0.21475097712559352,0.0006540048755364755,-0.0010407855022751366,0.9999405313009524,0.01049504598961642,0.0029530970138685916,-0.0002590159650306513,0.020989221709721916,0.005911313990063154,-0.00045602332876968206,0.1564309718073799,-0.0006851517995968943,-0.010629913833951073,-0.03556270907068354,-0.015306514579724116,6.997804726244774e-05,0.0,0.0,0.0,0.0,0.0,0.0,0.0,0.0,0.0,0.317826372594286,0.33183667411461815,-0.3348865531860122,-0.3147776939437345,-0.42363787453226315,-0.40780867702255397,0.0
7.547999999999391,0.2181903138874386,0.0006389114116202532,-0.001271722963642726,0.9999451177460619,0.010099533977638733,0.002773804154908048,-0.00025868853368126924,0.02019820896599293,0.005552557643516746,-0.0004613275418391514,0.15621705769856217,-0.0006872752727064462,-0.010337543800895865,-0.036508076266163036,-0.01775016373837636,0.0001299104493040775,0.0,0.0,0.0,0.0,0.0,0.0,0.0,0.0,0.0,0.317826372594286,0.33183667411461815,-0.3348865531860122,-0.3147776939437345,-0.42363787453226315,-0.40780867702255397,0.0
7.569999999999388,0.2216246723980331,0.0006237989630147826,-0.0014960929349116588,0.9999496827302303,0.00969386340566542,0.0025679705148610042,-0.0002579678638192383,0.019386896927397056,0.0051407066557583375,-0.0004661288323874398,0.15597491392168006,-0.0006866891676916077,-0.010031984511693945,-0.03739840051603724,-0.020114037047044495,0.00018372004557732426,0.0,0.0,0.0,0.0,0.0,0.0,0.0,0.0,0.0,0.3105263272815185,0.3223567003181346,-0.3250393472442667,-0.30784484977079507,-0.416313690813892,-0.4028479315410098,0.0
7.591999999999386,0.22505372999901457,0.0006086902950196297,-0.0017137370672878987,0.9999541901799689,0.009278642842826562,0.0023363081067632745,-0.0002568909261132886,0.018556503137875754,0.004677186413184385,-0.0004704079416640133,0.15573650073720147,-0.0006869562482160446,-0.009725758385886582,-0.03823296111386949,-0.02244172392302838,0.00023565684849101881,0.0,0.0,0.0,0.0,0.0,0.0,0.0,0.0,0.0,0.3105263272815185,0.3223567003181346,-0.3250393472442667,-0.30784484977079507,-0.416313690813892,-0.4028479315410098,0.0
7.6139999999993835,0.2284774587758856,0.0005935861922324655,-0.0019245850808692786,0.9999586038441773,0.00885448834471923,0.0020792708877690703,-0.0002554735437389955,0.017708260125905064,0.004162905826625666,-0.00047410830240315194,0.1554833619607018,-0.0006854529115521283,-0.009411805761961614,-0.03901113841824429,-0.02470641192757371,0.0002826271185946427,0.0,0.0,0.0,0.0,0.0,0.0,0.0,0.0,0.0,0.3048515790614629,0.31463507154850057,-0.3169336369407596,-0.30255415833133426,-0.4107412012716222,-0.3995310651103846,0.0
7.635999999999381,0.23189552585191028,0.0005785220057952483,-0.002128479056733253,0.9999628862086938,0.008422022382432882,0.0017975954989945223,-0.00025376089182506574,0.016843412802595995,0.003599339698359109,-0.00047722727794780896,0.15522739985227968,-0.000683996797618663,-0.009094986967194152,-0.039732409791801176,-0.02692075622733879,0.00032637358307777977,0.0,0.0,0.0,0.0,0.0,0.0,0.0,0.0,0.0,0.3048515790614629,0.31463507154850057,-0.3169336369407596,-0.30255415833133426,-0.4107412012716222,-0.3995310651103846,0.0
7.657999999999379,0.23530797218090896,0.0005634887279811991,-0.0023253802382685773,0.999966999957263,0.007981872761457807,0.001491749746969342,-0.0002517665242992334,0.015963216764352216,0.0029874246186986603,-0.0004797046776497491,0.15496656539519713,-0.00068166853387582,-0.008774279028389098,-0.04039635212461988,-0.029083456152161777,0.00036646430395562103,0.0,0.0,0.0,0.0,0.0,0.0,0.0,0.0,0.0,0.3006249346171128,0.30847849251740417,-0.3103806573847504,-0.29872389522620074,-0.40690280927869743,-0.3978512177926582,0.0
7.679999999999376,0.23871455297727076,0.0005485239883462285,-0.002515174427556361,0.9999709071923436,0.007534671562617666,0.0011624221743419018,-0.00024953567455629136,0.015068935719653674,0.0023285391553955707,-0.00048154121521476516,0.15469908367971125,-0.0006786045882812038,-0.00845007330631639,-0.041002635170968485,-0.03118661778647803,0.00040191492645942834,0.0,0.0,0.0,0.0,0.0,0.0,0.0,0.0,0.0,0.3006249346171128,0.30847849251740417,-0.3103806573847504,-0.29872389522620074,-0.40690280927869743,-0.3978512177926582,0.0
7.701999999999374,0.24211529340770227,0.0005336195841310742,-0.002697824355302562,0.9999745703187408,0.007081054112231031,0.0008101458721649436,-0.00024708738369137143,0.014161839774534602,0.0016237505326167757,-0.0004826894822214122,0.1544339335587399,-0.0006756816532398713,-0.008124281262182976,-0.04155102455649057,-0.033245251952206976,0.00043521864127179675,0.0,0.0,0.0,0.0,0.0,0.0,0.0,0.0,0.0,0.29766279469573914,0.30368796985174074,-0.30518508561510377,-0.296166790083757,-0.40474541111277956,-0.3977661637054478,0.0
7.723999999999371,0.24551008431954732,0.0005188044634962946,-0.002873273688301142,0.999977951857301,0.006621657958913152,0.0004355293828383472,-0.000244457172207768,0.01324320315268302,0.0008742770953857887,-0.00048313591499447243,0.15415975599364684,-0.0006709721394930219,-0.00779569581716767,-0.04204137505759238,-0.0352387557684665,0.0004622925264471206,0.0,0.0,0.0,0.0,0.0,0.0,0.0,0.0,0.0,0.29766279469573914,0.30368796985174074,-0.30518508561510377,-0.296166790083757,-0.40474541111277956,-0.3977661637054478,0.0
7.745999999999369,0.24889890030066236,0.00050408266460705,-0.0030414855156321256,0.9999810147734104,0.006157121894845361,3.917978895555289e-05,-0.00024167676131126785,0.012314302329321578,8.133415688352774e-05,-0.00048286189693434305,0.15389067318045319,-0.0006671429205457414,-0.0074661590345527105,-0.04247363188347543,-0.03718802342826926,0.0004879310376055832,0.0,0.0,0.0,0.0,0.0,0.0,0.0,0.0,0.0,0.29766279469573914,0.30368796985174074,-0.30518508561510377,-0.296166790083757,-0.40474541111277956,-0.3977661637054478,0.0
7.7679999999993665,0.25228175886892673,0.000489463089704482,-0.003202444055544889,0.9999837226322017,0.005688084969267263,-0.0003783518667087316,-0.00023876744286200802,0.011376414067168862,-0.0007539752287031599,-0.0004818314634445121,0.1536165488361512,-0.0006612800018390196,-0.007136341260494641,-0.04284782619688132,-0.039076672852960216,0.0005076912701552929,0.0,0.0,0.0,0.0,0.0,0.0,0.0,0.0,0.0,0.2957861017957601,0.30006746768477294,-0.3011575172909078,-0.29469715318351364,-0.4042001854960254,-0.3992166818540507,0.0
7.789999999999364,0.25565860940304724,0.0004749681524273951,-0.003356137639734134,0.9999860397533039,0.005215185588134302,-0.000816424627852459,-0.00023577237541240736,0.010430813556922366,-0.0016303679896178657,-0.00048005443630411447,0.15334600169450793,-0.0006560906251217228,-0.0068055800097436905,-0.04316407277148489,-0.04091577802021893,0.000525265616445266,0.0,0.0,0.0,0.0,0.0,0.0,0.0,0.0,0.0,0.2957861017957601,0.30006746768477294,-0.3011575172909078,-0.29469715318351364,-0.4042001854960254,-0.3992166818540507,0.0
7.811999999999362,0.25902952884525043,0.0004605914632467859,-0.0035025594013195845,0.9999879313341795,0.0047390605411546695,-0.0012744960309239216,-0.00023270376746196877,0.009478772532615582,-0.002546758457466089,-0.00047748331239192923,0.15307559470469384,-0.000649699967175536,-0.006476264324670797,-0.043422568681132145,-0.04269992660757466,0.0005384475749491771,0.0,0.0,0.0,0.0,0.0,0.0,0.0,0.0,0.0,0.29482505975299295,0.29743499518266253,-0.298119079511407,-0.2941420697781874,-0.4051710485271097,-0.4021151101375287,0.0
