t,px,py,pz,qw,qx,qy,qz,roll,pitch,yaw,vx,vy,vz,wx,wy,wz,cur_x,cur_y,cur_z,wav_x,wav_y,wav_z,kick_x,kick_y,kick_z,u0,u1,u2,u3,u4,u5,dist_on
6.0699999999995535,-0.017895763828708933,-0.005262591760679917,0.004835787935849353,0.9972876712894027,-0.010914098610611937,-0.07278775250425705,-0.00035529010155841404,-0.021951613442205482,-0.14570339936039908,0.00088959882372493,-0.016152037737293918,0.012472124023439946,0.045318852703857875,0.06376644413851203,0.2918321769964243,-0.00834004947414794,0.0,0.0,0.0,0.0,0.0,0.0,0.0,0.0,0.0,-1.0374119290952974,1.875563208268424,1.0511367714638564,-1.6984570979541642,-1.9453427998112682,-1.772552054469868,0.0
6.091999999999551,-0.018233379804075092,-0.0049906756836423346,0.00581030496610195,0.9975229724004793,-0.01019162118695066,-0.06959691135803919,-0.0005659684745993737,-0.020453540569650708,-0.13931074684069075,0.0002923095183799235,-0.014392127424207765,0.012225642497142204,0.04307025649394496,0.0649471386030407,0.28997189783397215,-0.038436115936736355,0.0,0.0,0.0,0.0,0.0,0.0,0.0,0.0,0.0,-1.016138180270341,1.838679608605858,1.0437098772993856,-1.63714394735035,-1.9454077831883994,-1.7531801249939305,0.0
6.113999999999549,-0.01853338459555165,-0.004720891503395895,0.006735447319429861,0.9977460077550452,-0.009430231609227938,-0.06642895714742841,-0.0010809222770461642,-0.018841774246692068,-0.13297033789392335,-0.0009121429716506377,-0.012734291838740027,0.012379799569619428,0.040851421593110525,0.06763281828464614,0.2880879537743666,-0.05723768478137405,0.0,0.0,0.0,0.0,0.0,0.0,0.0,0.0,0.0,-0.16416208587653258,0.4615983388934547,-0.16701650537812518,-0.9954770420893624,-1.9123478541539392,-1.6889149678949686,0.0
6.135999999999546,-0.018790599584635578,-0.004448456192267658,0.007613535160618022,0.9979565820815702,-0.008631649056335748,-0.06328696779541146,-0.0017072263763911765,-0.017150200595731514,-0.12668334254472702,-0.002333636760174597,-0.010169260165419,0.012395309109941603,0.038825195591572284,0.06983823288404516,0.2846397731945267,-0.059632478947312946,0.0,0.0,0.0,0.0,0.0,0.0,0.0,0.0,0.0,0.7548980604067038,0.5719510270223255,-0.7776346961385052,-0.8161541214065543,-1.9009447693183181,-1.6674148864845562,0.0
6.157999999999544,-0.018982981936648533,-0.004174931547439171,0.008448215066871096,0.9981537189597989,-0.007808322211608421,-0.06018942016270425,-0.0023274731876391035,-0.015420026517073693,-0.12048422346780473,-0.003733469466529081,-0.007242753402929417,0.01249444309817442,0.0368611875671674,0.07241856966853079,0.2803664440330472,-0.05380874863715373,0.0,0.0,0.0,0.0,0.0,0.0,0.0,0.0,0.0,1.2511328681243166,-0.2971934819992579,-1.4337271039317179,-0.23262235555323735,-1.9382139442073754,-1.5771440919302224,0.0
6.179999999999541,-0.01911965826047301,-0.003904389152179219,0.009239332050535624,0.9983384294850801,-0.006969458071798088,-0.05713142573368954,-0.0027941118596341496,-0.013686317363811916,-0.1143610572040545,-0.004814052694656111,-0.005058595516722134,0.01199235574030485,0.034873412332571456,0.07364781211553147,0.2771698215406685,-0.02938180739345539,0.0,0.0,0.0,0.0,0.0,0.0,0.0,0.0,0.0,1.5453025307126347,-0.7259524087835233,-2.0318183205110665,1.027946731866494,-1.9719003908814132,-1.5027139549248354,0.0
6.201999999999539,-0.019212123685007954,-0.003647746524408176,0.009986439851078282,0.99851207748768,-0.006139822674596894,-0.054103497940102656,-0.0029572283317806083,-0.01201203568307012,-0.10829385229966589,-0.005272193703317045,-0.0032093006690385173,0.011262603101667223,0.032860512877778636,0.07387782415023407,0.27441846374202283,0.0008086376689281382,0.0,0.0,0.0,0.0,0.0,0.0,0.0,0.0,0.0,1.5071060568425032,-0.7903227652314264,-2.0261239045537254,1.2058851312934482,-1.9671958901648714,-1.4928985456604682,0.0
6.223999999999537,-0.019267864353247777,-0.003406375986676068,0.01068914714382291,0.9986753721114333,-0.005325243458775982,-0.05110107463215041,-0.0027969790190694116,-0.010405080304283932,-0.10227476659574333,-0.005068805466745971,-0.0017914960376210966,0.010642533292293869,0.030836177278978867,0.07422822992850951,0.272217933812286,0.02804744639667449,0.0,0.0,0.0,0.0,0.0,0.0,0.0,0.0,0.0,1.2475783764728385,-0.7944964654300207,-1.7343503688643442,1.063146035588431,-1.9348181599793572,-1.4872355106585098,0.0
6.245999999999534,-0.019294634261271985,-0.0031779720856830573,0.011347273912336949,0.9988285877492056,-0.004521048085329934,-0.04811963534558513,-0.0023480019899847107,-0.008846634834319102,-0.09629652330609494,-0.004275220406126406,-0.0005359821239501865,0.010072676066365806,0.028809702672114277,0.07464235530183037,0.27016793806383055,0.05351640591373216,0.0,0.0,0.0,0.0,0.0,0.0,0.0,0.0,0.0,1.2161281835812194,-0.7948923645977842,-1.6976739523071442,1.0450248488315799,-1.9305744957947546,-1.486511494715686,0.0
6.267999999999532,-0.019290780139623844,-0.0029638085141166543,0.011961160229379503,0.9989713653268535,-0.003728058214036248,-0.04516148282481553,-0.0016593095005502743,-0.00732854008779121,-0.09036536385433708,-0.0029906830211666557,0.0014145056300224684,0.009377230389075062,0.026851623815775324,0.07407533979048654,0.2669622804339663,0.06421281943587218,0.0,0.0,0.0,0.0,0.0,0.0,0.0,0.0,0.0,0.49962135073514763,0.8803348132017945,-0.940256333580556,-0.6280484402021755,-1.87463827391934,-1.5462596695551445,0.0
6.289999999999529,-0.019222573594012575,-0.0027620183462765463,0.012533818529297048,0.9991021307851444,-0.002940510040816067,-0.04225378841680003,-0.0009502766508395995,-0.005816237768187421,-0.08453794675915027,-0.0016562670984194673,0.0053562388032430954,0.008936791624782154,0.02506120742673485,0.07400700297936373,0.2604519822687795,0.05761961429722064,0.0,0.0,0.0,0.0,0.0,0.0,0.0,0.0,0.0,0.5829810696848473,1.694294522706555,-0.8145738730118008,-1.386412790083436,-1.8631367185943137,-1.5588871008750333,0.0
6.311999999999527,-0.019061406097421848,-0.002571567178803164,0.013067535009545272,0.9992202278748925,-0.0021524242938432132,-0.03942314864467138,-0.00034442161302585146,-0.004287676635887956,-0.07886803445822642,-0.000520212488709465,0.009699701744666327,0.008160767811516369,0.02330883137839158,0.07243528912409784,0.25311946414056385,0.04282001499726053,0.0,0.0,0.0,0.0,0.0,0.0,0.0,0.0,0.0,-0.42304991027575856,2.3307323738775394,-0.798163728103288,-2.092291432859316,-1.7931681656538256,-1.5738257372367035,0.0
6.3339999999995245,-0.018800379035215305,-0.002403231665053305,0.013563404720806657,0.9993262320847011,-0.001385882749637294,-0.0366764166879786,4.0685731761353316e-05,-0.0027803659931390124,-0.07336910473181636,0.0001834686522245523,0.014488773064007355,0.00701795992932208,0.021616387344081264,0.0686562218455372,0.24502358961986404,0.017418909735308602,0.0,0.0,0.0,0.0,0.0,0.0,0.0,0.0,0.0,-0.7498005539019229,2.6138042758903386,-0.795302243457992,-2.4198683531594174,-1.7620032424246757,-1.5802073126856766,0.0
6.355999999999522,-0.0184335438076675,-0.002260678617840773,0.01402193895873527,0.9994209453207831,-0.0006526814819281115,-0.03401955731653092,0.00013334535391610627,-0.001316727927974688,-0.06805205581860115,0.000311665550470859,0.019162387555326774,0.005866908147350795,0.01991443565690238,0.06440014716403565,0.23700556615380503,-0.009155391560633412,0.0,0.0,0.0,0.0,0.0,0.0,0.0,0.0,0.0,-0.7920665919727183,2.062333077474135,-0.7949815189870182,-2.135887740940813,-1.6161178937686826,-1.6432746025749378,0.0
6.37799999999952,-0.017978125678374864,-0.0021406105943758682,0.01444309447777363,0.9995055975106566,3.823689344179701e-05,-0.03144134026625349,-3.471408944858067e-05,7.877463969876637e-05,-0.06289304292827219,-7.19405265856336e-05,0.022405741392836704,0.004982686741960371,0.01821558111978668,0.05911335245666033,0.2311597420434946,-0.028008804317165216,0.0,0.0,0.0,0.0,0.0,0.0,0.0,0.0,0.0,-0.7946446150978782,1.4488972014788717,-0.7949459782855354,-1.7620788082427954,-1.4433101424140617,-1.7250529440688138,0.0
6.399999999999517,-0.01745587702544014,-0.0020394883644266667,0.014826750712369685,0.999581314913239,0.0006749506954247732,-0.028923699574888596,-0.0003986486941251218,0.0013746974753122542,-0.05785491100582346,-0.0008374089045019683,0.02532056537206815,0.004134824121302435,0.016505009084905105,0.05347326498423406,0.22584372225010357,-0.044742021690360546,0.0,0.0,0.0,0.0,0.0,0.0,0.0,0.0,0.0,-0.5059604469764646,0.9787597471754063,-0.8416841601777909,-1.6340592376773853,-1.400686703421854,-1.7463055567174146,0.0
6.421999999999515,-0.016869276392973878,-0.0019475971643616718,0.01517335820952209,0.9996485627216248,0.0012630953260666699,-0.026464540985732223,-0.0008852735182969507,0.0025757700937302256,-0.0529329596807732,-0.0018393565554368474,0.02854618974610429,0.004257017437552824,0.014882088796210696,0.049940165328722155,0.22000093482487415,-0.0440342372040746,0.0,0.0,0.0,0.0,0.0,0.0,0.0,0.0,0.0,1.487650465708099,0.520983071765565,-1.411961830714309,-0.8947851170426308,-1.1797247141380762,-1.8648737039672911,0.0
6.443999999999512,-0.01619727084513406,-0.001849295337716224,0.015485340990352368,0.9997075340187473,0.0018134445613189015,-0.024080124680363985,-0.0013059250960120688,0.0036930123836215784,-0.04816004250610948,-0.0027015579166314646,0.033051217666828336,0.004762510919422682,0.013343181845862096,0.047326849912529875,0.21203124079005042,-0.03298185238430163,0.0,0.0,0.0,0.0,0.0,0.0,0.0,0.0,0.0,2.2138531033352997,0.5866865249849487,-1.507617710083518,-0.8098189162174833,-1.1499211107859237,-1.8821590609207923,0.0
6.46599999999951,-0.015426033076988512,-0.0017350618266254961,0.015763576088096382,0.9997587025227775,0.0023401217897576986,-0.02178441309231586,-0.001581109169211504,0.004752528349341426,-0.04356469196341162,-0.003266516708185655,0.03740742304944051,0.00582630799586146,0.011824848227076707,0.04726719866798562,0.2041589487029002,-0.014918914684047921,0.0,0.0,0.0,0.0,0.0,0.0,0.0,0.0,0.0,2.5668437540148736,-0.5290395797456324,-1.9571691824563542,-0.7971371609471422,-1.1911725327948697,-1.7584578644585545,0.0
6.4879999999995075,-0.014559886094991823,-0.0015938607680346982,0.016008848705210143,0.9998029489616574,0.0028722932595489077,-0.01957509709579098,-0.0016213428676938007,0.0058114146350410735,-0.03914316066887254,-0.0033570754058631427,0.04171286616689643,0.007144184747063477,0.010336299107452356,0.04904600138929334,0.19634320824896973,0.009295626061041081,0.0,0.0,0.0,0.0,0.0,0.0,0.0,0.0,0.0,2.6506426368824396,-0.7659652138727809,-2.0861830667636627,-0.7951859655175338,-1.202866215965276,-1.7258930903600007,0.0
6.509999999999505,-0.013599712059092195,-0.0014244269614110399,0.016221370281191555,0.9998408814098729,0.0034192486196532707,-0.017452187830527956,-0.0013934634309659274,0.006890296493384001,-0.034896374649496395,-0.0029076044408832213,0.04584463602834632,0.008138395700602598,0.008864368980724586,0.05059238000789351,0.18872818669743824,0.031030689560900875,0.0,0.0,0.0,0.0,0.0,0.0,0.0,0.0,0.0,1.672794873703106,-0.15611532572496573,-1.7288180491731193,-0.7976773873766458,-1.3996906412755366,-1.4244369740181098,0.0
6.531999999999503,-0.01255760194689672,-0.0012429037088509335,0.016402066183491302,0.9998728989722164,0.003978257029589844,-0.015407510083519359,-0.000983872414607122,0.00798969716860101,-0.030808148671759645,-0.002091078607411494,0.04929893808028783,0.008235996825314604,0.007435429670404337,0.051630647849419425,0.18215055243460931,0.040755859026737194,0.0,0.0,0.0,0.0,0.0,0.0,0.0,0.0,0.0,1.2072797566014086,0.6531339112449004,-1.5191139644085656,-0.7993370852706884,-1.5295869884326996,-1.2550578157187005,0.0
6.5539999999995,-0.011435419956553146,-0.0010645664384295408,0.016551399291922588,0.9998992703352337,0.004540192430880795,-0.013438423298158392,-0.0004945857024033036,0.009096172703816002,-0.02687288253874792,-0.0011114993616556249,0.053025962514229794,0.007854198025663239,0.006012377612051892,0.051189515061485516,0.1750784368858621,0.045010355647025706,0.0,0.0,0.0,0.0,0.0,0.0,0.0,0.0,0.0,0.5442851816602524,1.2566604800679573,-1.2611874856749783,-1.0034622737518222,-1.5633341241817456,-1.1796373189774327,0.0
6.575999999999498,-0.01023094386300244,-0.0008983217667460972,0.01667005163146143,0.9999203513755248,0.005093870040007746,-0.011547428493302396,-1.6978067439527723e-05,0.010190214536514874,-0.023094897527559572,-0.0001516360685758341,0.05699443392740828,0.00723854799180912,0.004661048187404044,0.050568080189247896,0.16758417678884346,0.03593713651555843,0.0,0.0,0.0,0.0,0.0,0.0,0.0,0.0,0.0,0.5470280312349025,2.0519643967809404,-0.8495150137015551,-1.5079555271326928,-1.6030721493045672,-1.066491679387706,0.0
6.597999999999495,-0.008933148153360493,-0.0007443944810592946,0.016759258523112268,0.9999365386911169,0.005645992740553466,-0.009743056079009568,0.0003379565713036375,0.011287066697204896,-0.019489925619195644,0.0005659593191555007,0.0614015527112038,0.006710526132505815,0.0033262281455488786,0.05055348660446626,0.1592699184404397,0.023356785709658504,0.0,0.0,0.0,0.0,0.0,0.0,0.0,0.0,0.0,0.5904831968857912,2.1687981376261503,-0.8050059755525926,-1.5789175716033483,-1.608030538410185,-1.0529052558656171,0.0
6.619999999999493,-0.0075377760590565005,-0.0006015278082414632,0.01681955831689304,0.9999483922552704,0.00619881022172459,-0.008030176306717587,0.0005512226579094325,0.012390043973372022,-0.01606704890016768,0.0010029629659787681,0.06586500143436065,0.0062523438640373925,0.002058566101845321,0.05031214657787246,0.15077506549158182,0.010191805924256211,0.0,0.0,0.0,0.0,0.0,0.0,0.0,0.0,0.0,0.595827949041415,2.1598379184703234,-0.796260949994442,-1.6934607652300795,-1.48258203850406,-1.0514031197633436,0.0
6.6419999999994905,-0.006044068224947747,-0.0004681679595070887,0.01685253029913909,0.9999564894357108,0.006748789129582093,-0.006410294062651781,0.0006174226470835947,0.013490594517574953,-0.012828715884902163,0.0011483628671137393,0.0703263717435342,0.0058346767309237785,0.0008266345817303021,0.04983281634316107,0.1422008525536344,-0.003230904259419791,0.0,0.0,0.0,0.0,0.0,0.0,0.0,0.0,0.0,0.5964266687814165,2.1576661385218374,-0.795088105360472,-1.7122481415703983,-1.4624958225756888,-1.0512367496263744,0.0
6.663999999999488,-0.004454236626210463,-0.0003438637285721508,0.016858562822097023,0.999961331961091,0.007293977769282441,-0.004882859523238246,0.0005386592408451307,0.01458334442595511,-0.009773354950898953,0.0010060941058963,0.07436685520020447,0.005439280448811334,-0.0003648402475151415,0.04921386948297303,0.13416856522136356,-0.014645323135463309,0.0,0.0,0.0,0.0,0.0,0.0,0.0,0.0,0.0,0.596493088675336,1.650191245793289,-0.7982705122622644,-1.2752369347109598,-1.3719988570548969,-1.0201630618896962,0.0
6.685999999999486,-0.0027848349754918886,-0.00022788240761450825,0.01683927400184265,0.9999633613942743,0.007831863854584353,-0.003436574897086104,0.00035739418504377504,0.015661708150774764,-0.00687855033909433,0.0006609482920622385,0.07765868004310376,0.0050719225493361456,-0.001488698189799499,0.04839712363466382,0.1272947476605455,-0.021791471900262958,0.0,0.0,0.0,0.0,0.0,0.0,0.0,0.0,0.0,0.5965004491897766,1.4950955925882035,-0.7994077069243828,-1.1399767468801614,-1.3418530252859533,-1.009511485684282,0.0
6.707999999999483,-0.001044602635912098,-0.00011999279433517111,0.016795360102137863,0.9999629136347284,0.008360596675577536,-0.002064355730639048,0.00010106330207077711,0.016721077753477656,-0.004130259984431594,0.0001676020470311757,0.08077841176995908,0.004688438224094728,-0.0025908570889487596,0.04741098318105136,0.12063434310330068,-0.02771068761163979,0.0,0.0,0.0,0.0,0.0,0.0,0.0,0.0,0.0,0.5965012647700608,1.2445287881610074,-0.9598426326748042,-0.9535354898855185,-1.2854084877472156,-0.9870038973391198,0.0
6.729999999999481,0.0007603975653727277,-2.186579498855072e-05,0.016728123002579653,0.9999603051594772,0.008875004833605095,-0.0007626962185370176,-0.00020171526102245294,0.017750565464301066,-0.0015217520263588783,-0.0004169528680429009,0.08352186512417933,0.004167215880937746,-0.003609388490368572,0.045580657355278456,0.11449150634812896,-0.029581503978982602,0.0,0.0,0.0,0.0,0.0,0.0,0.0,0.0,0.0,0.6359907812148895,1.0646970098518393,-1.113567678411315,-0.8166019889811034,-1.2399416376275239,-0.9685822364135908,0.0
6.751999999999478,0.0026271840574678836,6.639749531844448e-05,0.016638681460467947,0.9999558493428937,0.009370896553759559,0.0004704273572524309,-0.0005141602975877175,0.018741587494996895,0.0009504496041712711,-0.0010194591789968843,0.08647382397410062,0.003891787513698523,-0.004609549874840543,0.04449442782523018,0.10797687189068936,-0.028620318396772006,0.0,0.0,0.0,0.0,0.0,0.0,0.0,0.0,0.0,1.0533493867199906,0.6112601608656659,-1.2201224793991143,-0.800570975192798,-1.2125318759689394,-0.9635486038333745,0.0
6.773999999999476,0.004559254291764244,0.00015345727165905085,0.016528051284095277,0.9999497292336352,0.009862103767450352,0.0016308533993499915,-0.0007862773357949561,0.01972203575397022,0.0032770573929916053,-0.001540317207044019,0.08957924105043055,0.003998961754027266,-0.005521105796102869,0.04461411846593322,0.10114633334579251,-0.020799722282554788,0.0,0.0,0.0,0.0,0.0,0.0,0.0,0.0,0.0,1.411022455416832,0.5406825121926475,-1.5910852653927896,-0.7956316718761414,-1.1297284864848638,-0.9523462280842468,0.0
6.795999999999474,0.006564478392809187,0.0002416502438836257,0.016397676535202247,0.999942279019862,0.01035168803218365,0.002711315744903565,-0.0009643393490084209,0.020698736289028487,0.005442310436091263,-0.0018724628073873634,0.09303956522162424,0.0040174871645856786,-0.006411528207761833,0.04419887434006707,0.09365012930725408,-0.01167600413686409,0.0,0.0,0.0,0.0,0.0,0.0,0.0,0.0,0.0,1.462871995841515,0.5896110766192914,-1.643917115456967,-0.7950181383654483,-1.1191057138812996,-0.9508842251893133,0.0
6.817999999999471,0.008645491050949477,0.00032980643900273887,0.01624806007845151,0.9999338604617182,0.010836777317881126,0.0037080608117414002,-0.0010436687716214369,0.021666675704462877,0.007438319728546368,-0.002006889495165286,0.09640813685028689,0.003972926163239257,-0.007248290106307007,0.04388109813969279,0.08620300801793049,-0.0030028364227052927,0.0,0.0,0.0,0.0,0.0,0.0,0.0,0.0,0.0,1.3018071260496278,0.5957292402857536,-1.6271341899287008,-0.7949500359340951,-1.1363112650518503,-0.8347326413321162,0.0
6.839999999999469,0.01079890289082723,0.0004163206607810064,0.0160806543663317,0.9999247103811806,0.01131977581015627,0.004622849524554584,-0.0010322339821066781,0.02263120714531565,0.009268504960008497,-0.0019597387203852,0.09964058050194517,0.0038833202957737124,-0.008040853640905407,0.04374037252210994,0.07891320142501074,0.0050381297291207695,0.0,0.0,0.0,0.0,0.0,0.0,0.0,0.0,0.0,1.2694929079167188,0.596415706063122,-1.6230735193201626,-0.79494248990594,-1.1400330040072888,-0.8116910739180121,0.0
6.861999999999466,0.013022186621373989,0.0005007590308835142,0.01589589981325836,0.9999150346044609,0.011801378969294025,0.005456924312744585,-0.0009343465251597345,0.02359415475650013,0.01093519241511415,-0.00173984071281929,0.10253771924157784,0.0037007486978380593,-0.008822470870627494,0.043272279316686785,0.07204269492936585,0.013013678379702007,0.0,0.0,0.0,0.0,0.0,0.0,0.0,0.0,0.0,1.115072024547595,0.5964918736587422,-1.3556729403373342,-0.18436532796425112,-1.1329334752027096,-0.8030212422189761,0.0
6.883999999999464,0.015298150291000994,0.000578455414174748,0.01569416774671927,0.9999050535934303,0.012272549697188568,0.006222050686107206,-0.0007445854610735075,0.024537870578849933,0.012461518294847452,-0.001336412840023082,0.10457439562378974,0.0033388553901677774,-0.009585247754894867,0.041880757134789115,0.06654330040820233,0.021548320559465997,0.0,0.0,0.0,0.0,0.0,0.0,0.0,0.0,0.0,1.0507634452623047,0.7441107408287578,-1.2421704549113946,-0.24011120986610934,-1.1295421608296676,-0.7999441906366694,0.0
6.9059999999994615,0.017621954194877377,0.0006465195586903374,0.015475634996412479,0.9998949373565363,0.012726108220858958,0.006923536438734732,-0.00047440647190519935,0.02544816320879199,0.013858136330428657,-0.0007725681717555842,0.10677252761971898,0.0026785397015612724,-0.010342460946001733,0.03930409760468827,0.06072765998744792,0.026655969650091454,0.0,0.0,0.0,0.0,0.0,0.0,0.0,0.0,0.0,0.4773925566673377,1.0968990386320678,-1.041567843362375,-0.25846845778407546,-1.074350890516459,-0.7995955542175872,0.0
6.927999999999459,0.01999084844554707,0.0006988645538019146,0.015241349918611573,0.9998849801532229,0.013145141307530306,0.007562959572845398,-0.0001826649761603331,0.026290532859467038,0.015129558873656287,-0.0001664746412728803,0.10888501339847503,0.0021130566568720857,-0.011009484151203088,0.036194625795187715,0.05503512963599695,0.024328990399900684,0.0,0.0,0.0,0.0,0.0,0.0,0.0,0.0,0.0,0.5575361801105324,1.2658380717167677,-0.826288366487723,-0.8119112959326233,-1.0065179481764113,-0.7995569132130174,0.0
6.949999999999457,0.022410303607151745,0.0007417609083809314,0.014992658066422993,0.9998752894318581,0.0135348033215117,0.008136929786340098,7.110736926243895e-05,0.027074278709291348,0.016270623088009233,0.00036250848233309674,0.11129374052683341,0.0017635128795626574,-0.011656392607734403,0.03391802987824806,0.04877776277694182,0.020141071008382826,0.0,0.0,0.0,0.0,0.0,0.0,0.0,0.0,0.0,0.5918675436742388,1.3008864167424097,-0.8021306511427542,-0.9323491431263955,-0.9821610151574707,-0.7995526317044035,0.0
6.971999999999454,0.02488542595478653,0.0007780026298915013,0.014730715091185159,0.9998660420070256,0.013898319993401366,0.008640672819606884,0.000271137953789105,0.027805331783684013,0.017272352750106003,0.0007825017374410553,0.1140412489038306,0.0015305821594768568,-0.01218401101084026,0.031374880711272535,0.041927847783507596,0.013949868411973345,0.0,0.0,0.0,0.0,0.0,0.0,0.0,0.0,0.0,0.595984040184045,1.450962964268207,-0.7958547257269892,-1.271854513112736,-0.8234993453199378,-0.7995521573005313,0.0
6.993999999999452,0.02742352733142728,0.000809833831279749,0.014457867129952218,0.9998575222828694,0.014232174335758012,0.009067796526711122,0.00039422606188036755,0.02847596643276996,0.018122779757456745,0.0010466207687885578,0.11696345013329892,0.0013481385296982404,-0.012661359526103576,0.028669450125163372,0.03469666464756675,0.006462380881968778,0.0,0.0,0.0,0.0,0.0,0.0,0.0,0.0,0.0,0.5964439973359023,1.4733683687531305,-0.7950429448271774,-1.3250596467410651,-0.8021938117174038,-0.7995521047350942,0.0
7.015999999999449,0.03002504391051013,0.0008377895852676938,0.01417464488889763,0.9998499154321431,0.014535562487675758,0.00941672716572209,0.00043506664952644994,0.029084205153537417,0.018819090646437817,0.0011439603727076274,0.1197099106352248,0.00118546445638188,-0.013125589175285316,0.02600215540473108,0.02765699815903666,-0.0002837857553693782,0.0,0.0,0.0,0.0,0.0,0.0,0.0,0.0,0.0,0.596495009141055,1.2741489294506956,-0.7949527846151859,-1.178066764639383,-0.7998445620501008,-0.7995520989106781,0.0
7.037999999999447,0.03268368611230187,0.0008624090138268082,0.013881341181420374,0.9998432823846717,0.014809486389565009,0.00969136707511636,0.00040888548355718995,0.029632149849099003,0.01936879677858547,0.001104898615395112,0.12219634954369894,0.0010395574357138656,-0.013578239751994486,0.023409349971413328,0.02099543341031638,-0.005639504140912507,0.0,0.0,0.0,0.0,0.0,0.0,0.0,0.0,0.0,0.5965006619884426,1.22425215455374,-0.7949427944668437,-1.1395991999847435,-0.7995845008730883,-0.799552098265314,0.0
7.0599999999994445,0.035396084143258934,0.0008838151869731894,0.013578160184199616,0.9998376719679417,0.015054343331183414,0.00989399528507004,0.00032452718398214323,0.030120664272348222,0.0197762964032496,0.0009470295401453561,0.12445284412126402,0.0009509011452656972,-0.014018263509317121,0.02097952683480197,0.014618199666643995,-0.010799929276522775,0.0,0.0,0.0,0.0,0.0,0.0,0.0,0.0,0.0,0.5965012883488864,1.112864219013812,-0.23570361051783034,-0.9296827414306996,-0.7995556884649822,-0.7995520981938057,0.0
7.081999999999442,0.038147991836766,0.0009067674898966199,0.013265672054061121,0.9998329137383529,0.015278224533111631,0.010034408035221895,0.00017639720688146802,0.03056579240096174,0.020061418402419644,0.0006594840961968079,0.12585251615071377,0.001119164427873545,-0.014426912908312108,0.01968190579622523,0.009592961611977945,-0.017000842888363683,0.0,0.0,0.0,0.0,0.0,0.0,0.0,0.0,0.0,0.596501357751689,1.0506043674252659,-0.23294705339700722,-0.8138511893159898,-0.799552495998775,-0.7995520981858826,0.0
7.10399999999944,0.0409309135038551,0.0009323535021037132,0.0129442202800514,0.999828873827692,0.015485414512640528,0.010120460886988036,-3.562661405559893e-05,0.03097610497833847,0.020239943279996193,0.00024224764866100632,0.1271696113309796,0.0013012678531662382,-0.014826844694147134,0.01835549680211903,0.0046760345670883545,-0.022059358120232075,0.0,0.0,0.0,0.0,0.0,0.0,0.0,0.0,0.0,0.5965013654417398,0.5216750632236983,-0.1880837880798514,-0.7997424521848039,-0.7995521422639235,-0.7981665463880451,0.0
7.125999999999437,0.043738222497947295,0.0009645771255960737,0.012614237182283109,0.9998253883510712,0.015683124339723725,0.010156284224009096,-0.00028689777924197605,0.03136656128277391,0.020319418757971816,-0.00025518351135062046,0.12822415930062928,0.001536878673844543,-0.015210480028873761,0.017504620912479507,0.00019389321730552513,-0.023350051225776637,0.0,0.0,0.0,0.0,0.0,0.0,0.0,0.0,0.0,0.5221947112203313,0.5497868142379136,-0.6934833995973299,-0.7955111372573873,-0.7995521030689909,-0.7953370000519331,0.0
7.147999999999435,0.046574439998507855,0.000999929586377689,0.012275708875034094,0.9998225608573537,0.015866770013302237,0.01013885517634597,-0.0005440824399113625,0.03172873142899163,0.020292770675158157,-0.000766387897752421,0.12984584330953,0.001731837438733171,-0.015599515786916013,0.016295839220366724,-0.005203915471212201,-0.022413953852302715,0.0,0.0,0.0,0.0,0.0,0.0,0.0,0.0,0.0,0.9593096781231307,0.5908535073548542,-0.7873289585737925,-0.7950047286582687,-0.7995520987260684,-0.7949854401763617,0.0
7.169999999999432,0.04945092168925083,0.0010396032184614567,0.011928607001691563,0.9998204856744,0.01603812125577578,0.010058138841651928,-0.0007803431510985173,0.03206678359806665,0.020139058310648147,-0.0012380302048362775,0.13192398060698488,0.0018346577470274965,-0.015992788122255658,0.014847889331970308,-0.011388998271585885,-0.018858798422785435,0.0,0.0,0.0,0.0,0.0,0.0,0.0,0.0,0.0,1.0332134120583143,0.5958697740782404,-1.2264630123248776,-0.7949485500447605,-0.7995520982448591,-0.7949464128996591,0.0
7.19199999999943,0.052376111691171415,0.0010797949970993786,0.01157282695647262,0.9998193829549842,0.016190435413350954,0.009906130628044003,-0.0009694558372263809,0.032367836687103975,0.019841376482195472,-0.0016181115424757128,0.13421635830083592,0.0018129417465581976,-0.016385155869707145,0.012818792450777185,-0.017988174554402506,-0.01381793228327374,0.0,0.0,0.0,0.0,0.0,0.0,0.0,0.0,0.0,1.0417148300093921,0.5964313128692629,-1.308812358450479,-0.7949423252653406,-0.7995520981915393,-0.7949420884638909,0.0
7.2139999999994275,0.05534964835865931,0.0011176089333033371,0.01120918156435237,0.9998193551136808,0.016319226002623154,0.009681620674651331,-0.001098282227185006,0.032623211830267174,0.019396805984032376,-0.00188052940310008,0.13612361088122413,0.0014906451027863973,-0.016534990318287486,0.010911650776532777,-0.024055303651388818,-0.006567438532766113,0.0,0.0,0.0,0.0,0.0,0.0,0.0,0.0,0.0,1.0426606519796187,0.5964936033745388,-1.2959766922739224,-0.16944409523670284,-0.7962360661480608,-0.16169313377539887,0.0
7.235999999999425,0.05835722882576569,0.0011429722546257512,0.01084700454302102,0.9998201883401726,0.016433610660306713,0.009394332642365241,-0.0011286905205699143,0.032851832565606684,0.018823495367714514,-0.0019485559602988199,0.13723510853160983,0.000636990558503678,-0.01640152989541179,0.009084593963610783,-0.028859584799122567,0.00509486057107912,0.0,0.0,0.0,0.0,0.0,0.0,0.0,0.0,0.0,1.0427654991605866,0.5965005062215424,-1.2893480126461812,0.7583959804755849,-0.795087238304739,-0.24621441555708973,0.0
7.257999999999423,0.06138291061543319,0.001145871439228166,0.010486972465049848,0.999822023133056,0.01651855145233009,0.009056833676837505,-0.001016503708541229,0.033024248184394527,0.018145021544421446,-0.0017337203097819037,0.1377931997294724,-0.0004594179872308065,-0.016320851256153013,0.005571482536733051,-0.032712218514147594,0.017435868002049538,0.0,0.0,0.0,0.0,0.0,0.0,0.0,0.0,0.0,0.4601255001308093,0.5965012710893786,-1.0248511666918176,0.4584898933942234,-0.7949576963261532,-0.27288170127291084,0.0
7.27999999999942,0.0644159993036373,0.0011266304028650414,0.010128829302454165,0.9998247501637647,0.016568150440042784,0.008679033634619394,-0.0007998288136836381,0.03312767290933834,0.0173824039687968,-0.0013119847958747803,0.1379324771626981,-0.0013546388218342172,-0.01622791049243517,0.002698190706128069,-0.03582935860284999,0.0245797704419105,0.0,0.0,0.0,0.0,0.0,0.0,0.0,0.0,0.0,0.5641569975973331,0.5965013558392805,-0.8240164357070431,0.5658971218309066,-0.7949433387035693,-0.2760489440359716,0.0
7.301999999999418,0.06745138257244228,0.0010883224642629715,0.009772789273587552,0.9998281100921151,0.01658802433751766,0.00826651963723482,-0.0005023656982460456,0.03317266488366794,0.01654761909876536,-0.0007304082996518793,0.13811390775652588,-0.0021047303068680505,-0.016128184210436325,0.00027453785974719503,-0.038919950800943785,0.03171011531379596,0.0,0.0,0.0,0.0,0.0,0.0,0.0,0.0,0.0,0.5927059267412532,0.596501365229839,-0.8013812038436758,-0.15862478349602258,-0.7949417478337255,-0.2764024925302406,0.0
7.323999999999415,0.0705006264270578,0.0010408464535053988,0.009423115806878267,0.9998319359338662,0.016584375184557184,0.007812516425459907,-0.00015157037084348508,0.033170940280669005,0.015628070394145904,-4.3963756234343077e-05,0.13926909906744395,-0.002125821091061027,-0.015533435286068124,-0.0021097654687811,-0.04353373528344182,0.033177598584683346,0.0,0.0,0.0,0.0,0.0,0.0,0.0,0.0,0.0,0.596078222041179,0.477668171490167,-0.7957210796045677,-0.840123809364498,-0.19288660622649353,-0.2764416988392542,0.0
7.345999999999413,0.07358006922230909,0.0009950403994506323,0.009087244924769354,0.9998362551867137,0.016555085950813446,0.007304218158099946,0.00020084936807689631,0.03311726651300207,0.014599912777928794,0.0006435455103496441,0.14092877736302512,-0.0020803431322839465,-0.014958098809172928,-0.0042071322660417396,-0.04893988150664832,0.031527372953074714,0.0,0.0,0.0,0.0,0.0,0.0,0.0,0.0,0.0,0.5964544487762783,0.9416983234454889,-0.7950280399663787,-0.993308184311386,-0.26481719026427436,-0.2764460434152314,0.0
7.367999999999411,0.07669064567229374,0.0009475047050569291,0.008763788659440856,0.9998410451630366,0.016498479498536486,0.006740586799500419,0.0004990702572686902,0.03300742597673034,0.013462969594099613,0.0012205116326508283,0.1417400947149239,-0.0022605763642060002,-0.014393261821102902,-0.007040389035939175,-0.05305830546733469,0.020345199471041617,0.0,0.0,0.0,0.0,0.0,0.0,0.0,0.0,0.0,-0.5740417221620526,1.0311063261335838,-0.1928843120616042,-1.344854885107696,-0.2751289054500875,-0.27644652481279774,0.0
7.389999999999408,0.07980774299056399,0.000899932803752959,0.00845304435541634,0.99984618238219,0.016415825804988585,0.006143180520578412,0.0006273531647152707,0.03284268280255319,0.012264181582415795,0.001456314131693452,0.14150977257813713,-0.0020076142970814506,-0.013799849000503591,-0.008233133492652015,-0.05539629366807924,0.00026827866609935216,0.0,0.0,0.0,0.0,0.0,0.0,0.0,0.0,0.0,-0.7721764654687413,1.0414794471138697,0.8417758804529296,-1.423729924648524,-0.2763002244256812,-0.27644657815322776,0.0
7.411999999999406,0.08291480488224118,0.000859446806752146,0.008155462574400803,0.999851350926094,0.016322979596780734,0.005528120443492997,0.0005256165060230766,0.03265470967278185,0.01103766225035478,0.0012316228765409962,0.14078693062711997,-0.0016837120602906164,-0.013198834202909196,-0.008831283548438417,-0.056810556162943844,-0.018783707027638593,0.0,0.0,0.0,0.0,0.0,0.0,0.0,0.0,0.0,-0.7934561146915983,0.46644875763228644,0.46964476457910587,-1.090570882614021,-0.27643036322107395,-0.27644658406351663,0.0
7.433999999999403,0.0860016367227611,0.0008237762498597666,0.007871056168078636,0.9998564069701109,0.01621901524649804,0.004904146402015631,0.00024152292283870667,0.03244298991891459,0.009799206700102888,0.0006420882061465289,0.13972578754784712,-0.001559656882415206,-0.012602872702750264,-0.010143211605505234,-0.05755883263072784,-0.03398246986180878,0.0,0.0,0.0,0.0,0.0,0.0,0.0,0.0,0.0,-0.7947809370065431,0.574352785779842,0.5755650716201771,-0.9522702044912995,-0.27644478734395833,-0.27644658471839534,0.0
7.455999999999401,0.08906555263625267,0.0007900685845115834,0.007599701811564968,0.9998612446266752,0.016098789897729393,0.004275068254083296,-0.00021035410176418638,0.03219805500314606,0.008555827407584959,-0.00028301333907445616,0.1390492926249406,-0.0015628584534079766,-0.012017493658812453,-0.011866062147130733,-0.05873636052211836,-0.04732160191626682,0.0,0.0,0.0,0.0,0.0,0.0,0.0,0.0,0.0,-0.2057592968687435,0.5939522274735669,-0.3207888259291953,-0.8782065803495676,-0.27644638563553225,-0.27644658479095796,0.0
7.4779999999993985,0.09213893607904941,0.0007565608118940044,0.007341017949394496,0.9998658197634617,0.015959334390561703,0.0036177855001607146,-0.0007441388483077924,0.03191526001739122,0.007258415785406563,-0.001372639691418468,0.14081897777877184,-0.0014455984742454964,-0.011448140992457487,-0.013171807179056453,-0.06371964139868846,-0.04571620730883237,0.0,0.0,0.0,0.0,0.0,0.0,0.0,0.0,0.0,1.3609498700419023,0.5962177473319397,-1.2079262627976985,-0.8045573891909811,-0.2764465627319398,-0.27644658479899814,0.0
7.499999999999396,0.09526430581824806,0.0007277055441424396,0.0070949010496815425,0.9998700781129123,0.01580990056779383,0.0028947431101127843,-0.0012224568875780532,0.0316144183590894,0.0058274208649461865,-0.002353107051669415,0.14361100095605872,-0.0011354772595900664,-0.010871865770022181,-0.013598619988484347,-0.07044444586874485,-0.03736197076328385,0.0,0.0,0.0,0.0,0.0,0.0,0.0,0.0,0.0,1.7321323754509224,-0.17190824523770623,-1.3873647074040703,-0.5067717295624117,-0.27644658235478914,-0.276446584799889,0.0
7.521999999999394,0.0984399433097445,0.0007092662964027905,0.006861741043581464,0.9998739146993298,0.015662158115120974,0.0021028814782555493,-0.0015586521431298105,0.031319214602780664,0.004254069215293044,-0.0030510722570523895,0.1451411092710627,-0.0005199137247967223,-0.010269249546169775,-0.012766622425542043,-0.07523899913377602,-0.01610238426172971,0.0,0.0,0.0,0.0,0.0,0.0,0.0,0.0,0.0,2.0232793818424355,-0.871711791135374,-1.7415598240680918,0.47085777505767085,-0.2764465845290629,-0.2764465847999877,0.0
7.543999999999391,0.10164050967140748,0.0007018631242743997,0.006641859944433438,0.9998774508150365,0.015520158402223396,0.0012609516982422415,-0.0016180344895730364,0.03103751791674007,0.002571821477553054,-0.0031965480764027483,0.14579879407614746,-0.0001506212818757329,-0.009665129026546782,-0.012949282815119307,-0.07846746281482575,0.013677877938555166,0.0,0.0,0.0,0.0,0.0,0.0,0.0,0.0,0.0,2.0658765099244563,-1.0739364980120931,-1.7952806048767684,0.9033696193712113,-0.27644658476997935,-0.2764465847999986,0.0
7.565999999999389,0.1048510979440717,0.0007025469976168304,0.006435606780655779,0.999880815561979,0.015374564002349761,0.00038222169915301475,-0.0013532772891271774,0.030749284109017314,0.0008059644723946549,-0.0026944831506838718,0.14589883223239347,0.0002726855233934453,-0.009090524243962646,-0.01296342524142718,-0.08070616556358143,0.038948958711960704,0.0,0.0,0.0,0.0,0.0,0.0,0.0,0.0,0.0,1.234852374941548,-0.8578182405651749,-1.0599374203492222,0.4960351264194839,-0.5306786227471106,-0.2764465847999999,0.0
7.587999999999386,0.1080545909838366,0.0007119540763257022,0.006238114927277554,0.9998833851300715,0.01523863715283543,-0.0005174024165216491,-0.0008557881117687925,0.030479340225318053,-0.001008602241387266,-0.001727147380859012,0.14522698155539054,0.0006044446921983167,-0.008864975070756162,-0.011101779065026346,-0.08155180214021684,0.05708599058118183,0.0,0.0,0.0,0.0,0.0,0.0,0.0,0.0,0.0,1.0629450433217653,-0.8018427695214498,-0.8995897445551732,0.5822779574949253,-0.7661972240139255,-0.2764465848,0.0
7.609999999999384,0.11124374527263937,0.0007283157606099566,0.006044788658358981,0.9998845735487517,0.015125138802958004,-0.0014285770514562402,-0.0001700677238566145,0.03025200896892909,-0.0028516835809226544,-0.00038331260742713086,0.145000276209151,0.0007890588175411647,-0.008700056794835497,-0.00929421048352612,-0.08289308083859781,0.06905715446572645,0.0,0.0,0.0,0.0,0.0,0.0,0.0,0.0,0.0,0.45880309805451647,0.4581184913136951,-0.8315648024859096,-0.5765841140978625,-0.7958125402208972,-0.2764465848,0.0
7.6319999999993815,0.11444798809693185,0.0007433534970477348,0.005854924670579994,0.9998841972479471,0.015022235179374137,-0.002369133939593674,0.0005583443567198194,0.0300432043246731,-0.004754512248113507,0.0010453920295190248,0.14651254059225197,0.00035456016627843375,-0.008550814602987648,-0.009979502160590016,-0.08698618409467121,0.06221617880336473,0.0,0.0,0.0,0.0,0.0,0.0,0.0,0.0,0.0,-0.39053279643441074,1.4768949614937583,-0.7990779838513736,-1.3203583027957018,-0.7991372064591629,-0.2764465848,0.0
7.653999999999379,0.11768825731040589,0.0007412978006510736,0.0056682485966524036,0.9998827118130426,0.014898271188991646,-0.0033551889365193988,0.0011605344356834394,0.029790343484895804,-0.00674422186465395,0.0022208759412555316,0.14812719676693073,-0.0006048132609954432,-0.008375831091686301,-0.0127856866425541,-0.09129467523439941,0.046066399939494115,0.0,0.0,0.0,0.0,0.0,0.0,0.0,0.0,0.0,-0.8827987973773158,1.79978630455798,-0.23586525670493846,-1.593588532141022,-0.7995061202797523,-0.18538134362212283,0.0
7.675999999999377,0.12095544321278363,0.0007234769705027683,0.005484189006709296,0.9998804534459885,0.014749880009465612,-0.004379039686456879,0.0015309695540165643,0.02948824071112636,-0.008802309276809724,0.00293251025247756,0.14879303500026425,-0.0009444211304913761,-0.008436947545270735,-0.014606336136757997,-0.09403135711186356,0.016982561847276645,0.0,0.0,0.0,0.0,0.0,0.0,0.0,0.0,0.0,-1.2771294088377325,2.007618262303459,0.956748614324496,-1.981317242797008,-0.7995470036068638,-0.692229545412006,0.0
7.697999999999374,0.12423037188728528,0.0007024478186713306,0.005296167232452989,0.9998777732807989,0.01458264791217181,-0.005421978920477337,0.0015449995103867505,0.029150833153494038,-0.01088790790669089,0.002931665688051007,0.14889831413884513,-0.0009506223318399482,-0.008685367887484457,-0.016347066667811057,-0.09571306583096945,-0.01824698582636225,0.0,0.0,0.0,0.0,0.0,0.0,0.0,0.0,0.0,-1.3312148151166696,2.0340919879852355,1.291524891394847,-2.0325857387453365,-0.7995515336885652,-0.7871783053372964,0.0
7.719999999999372,0.12750674870791942,0.0006779396608572257,0.005102375054243438,0.9998747121354229,0.014393018227660538,-0.006477200018840017,0.0012028874926126934,0.028773243687166737,-0.012987768502774175,0.0022192096442257155,0.1487832697450557,-0.0013045594730762002,-0.008957484713984741,-0.019354288645481804,-0.09696844417686704,-0.04266135250019892,0.0,0.0,0.0,0.0,0.0,0.0,0.0,0.0,0.0,-0.8681519540897628,1.1657971646883667,0.5107913997278373,-1.0615578984042888,-0.7956595212357275,-0.7942867834401954,0.0
7.741999999999369,0.1307733958613969,0.0006468419579267778,0.004902587254427423,0.9998709403549298,0.014173465323470935,-0.0075374598527349086,0.0006342029969819098,0.02834073222215965,-0.01509152470301383,0.0010546987414650605,0.14809628369797956,-0.0015376263480977215,-0.009229726606912826,-0.02186324693142002,-0.09721022057621873,-0.06083177079109712,0.0,0.0,0.0,0.0,0.0,0.0,0.0,0.0,0.0,-0.8029010594901752,1.0559022527453534,0.5850066532069323,-0.9353573851343265,-0.7950215122773512,-0.7948694118683182,0.0
7.763999999999367,0.13402811839534273,0.0006116617964974643,0.004696906441737358,0.999865996030463,0.013929511082673294,-0.008599181625761105,-0.00011304147361166375,0.027864957077056343,-0.017193756516601932,-0.0004656862921767193,0.14806812971595665,-0.0014245011127329902,-0.00947986709657302,-0.023083429855546553,-0.09833249540200695,-0.06905401608613113,0.0,0.0,0.0,0.0,0.0,0.0,0.0,0.0,0.0,0.5870531776437545,-0.16685186477167951,-0.731828668042127,-0.830593877575045,-0.7949504103514617,-0.7949335571916027,0.0
7.7859999999993645,0.13729526740386805,0.000588558782703833,0.004486259627859692,0.9998590427139364,0.013689970541873566,-0.009682669971050677,-0.0008516524906707405,0.02740112694782468,-0.019340497773282877,-0.0019685452530822357,0.14914832617808574,-0.000462252986678879,-0.00968137939166737,-0.020657682535357803,-0.10121545740101937,-0.05844643986019671,0.0,0.0,0.0,0.0,0.0,0.0,0.0,0.0,0.0,1.5160915778252126,-0.77749649616026,-1.2226396656035308,-0.798904666430588,-0.7949425313935496,-0.7949406640107726,0.0
7.807999999999362,0.14058926262611857,0.0005908086167825833,0.004271442974496841,0.9998496941912859,0.013484187698029585,-0.010802424123362827,-0.001439909988926256,0.02700499112193832,-0.021564440174812797,-0.0031714536425317933,0.1503043118468253,0.0006731162693519116,-0.009764292271588874,-0.01726730156510836,-0.10426748124494933,-0.04059971091452175,0.0,0.0,0.0,0.0,0.0,0.0,0.0,0.0,0.0,1.7939096781165529,-1.172877393911103,-1.6374921601263448,0.5221082632170339,-0.33368458277029966,-0.33368447367984044,0.0
7.82999999999936,0.14389704998104422,0.0006080175173590678,0.004066530138351398,0.9998386144046421,0.013296224290636692,-0.011951517022704167,-0.0017654477832598021,0.026641086419710386,-0.023854491143271456,-0.003849250466120674,0.15031480620442392,0.000855831149532316,-0.008867729583841811,-0.017543299058130055,-0.10556045843501954,-0.008217394218289244,0.0,0.0,0.0,0.0,0.0,0.0,0.0,0.0,0.0,1.9210484503766787,-1.4595098166036875,-1.9899278416100779,1.3083944517508865,-0.22462983447533874,-0.22462984198405803,0.0
7.851999999999357,0.1471999146542452,0.000626140888077179,0.003878129161844428,0.9998268110890366,0.013092929470891098,-0.013115194938656965,-0.0017072454773732436,0.02623810899958577,-0.026184133285031667,-0.0037586294954550367,0.1498702757511067,0.0007733617110507417,-0.008209892681007563,-0.01926402005854718,-0.10592725588585006,0.028901598532625417,0.0,0.0,0.0,0.0,0.0,0.0,0.0,0.0,0.0,1.7386717711431157,-1.3446543707395702,-1.8003719045180422,1.4552679611840358,-0.26999108860857474,-0.2699910896811548,0.0
7.873999999999355,0.15048797937655187,0.0006423314263866503,0.0037037306694064206,0.9998144013629074,0.01286469006943251,-0.01428366877873177,-0.001280383914610402,0.025774525681668353,-0.028532963446758652,-0.0029289988963303436,0.14888796198046803,0.0006984249111525249,-0.007591708151850149,-0.021137410719575124,-0.10533313052022794,0.05484215959608077,0.0,0.0,0.0,0.0,0.0,0.0,0.0,0.0,0.0,1.1173441022382091,-0.8563232407809698,-1.0573184530575965,1.0902589066871207,-0.27572252896316024,-0.2757225290849593,0.0
7.895999999999352,0.15375229091401113,0.000657195717265879,0.003542793695840531,0.9998009651487628,0.012612481970124764,-0.015446511939661591,-0.0006005456308039032,0.02525321552709315,-0.030876632239216748,-0.0015912490419137059,0.14776302802818908,0.0006522172013399469,-0.006984849098125711,-0.022958510280783245,-0.10435985972906944,0.07571650856609385,0.0,0.0,0.0,0.0,0.0,0.0,0.0,0.0,0.0,1.0508413792163855,-0.801621663602602,-0.9760600754995437,1.0479625756572284,-0.27636624949751515,-0.2763662495110471,0.0
7.91799999999935,0.15699238721754488,0.000670668650787458,0.0033951508606443327,0.9997860520565997,0.012337036032170417,-0.01660060466086325,0.0002599613699758295,0.02467626867495906,-0.033206622672341056,0.00011026777749886238,0.14693699305960373,0.0004450246082052969,-0.006378591457333295,-0.025354600354359838,-0.1037011151895319,0.07915192655671088,0.0,0.0,0.0,0.0,0.0,0.0,0.0,0.0,0.0,-0.3895237365896721,0.8966183062696151,-0.18762598896661026,-0.6277858660975639,-0.2764376820733597,-0.2764376820748595,0.0
7.939999999999348,0.16022318125121368,0.0006783589958377698,0.0032610641060792705,0.9997694652898694,0.012033898005865577,-0.01775234667226228,0.001027502030522575,0.024043254532121867,-0.03552871210388592,0.0016282987559388207,0.14680900889724466,0.00021393841431287724,-0.00575329575898778,-0.027956523378389338,-0.10411382816836207,0.057672838238302715,0.0,0.0,0.0,0.0,0.0,0.0,0.0,0.0,0.0,-0.9841981847320882,1.7307037689118072,0.8395855544534813,-1.3863658090379363,-0.2764455983335469,-0.2764455983337132,0.0
7.961999999999345,0.1634525862763137,0.0006809034177963711,0.0031407697406467534,0.9997515693638308,0.011707903840612316,-0.018905919775296896,0.0015135189684241063,0.02337162431952,-0.037846920808038344,0.00258544288422747,0.14685785346981906,1.2420876112447421e-06,-0.005122283236546654,-0.030304391494281317,-0.10471194641906947,0.027754380894526205,0.0,0.0,0.0,0.0,0.0,0.0,0.0,0.0,0.0,-1.1966695019553693,2.094526737382356,1.0448639246676832,-1.8421755851499317,-0.2764464754962022,-0.2764464754962206,0.0
7.983999999999343,0.16668774686020596,0.0006788085875851733,0.0030345327613462638,0.9997327484290988,0.01136377613703714,-0.020064792085065862,0.0016432981750963153,0.022675765036715468,-0.040167007580974086,0.002831982410379231,0.14731441186440933,-0.00021524120232631225,-0.004475740806015629,-0.03247184378056741,-0.1058690670776044,-0.007154881178647113,0.0,0.0,0.0,0.0,0.0,0.0,0.0,0.0,0.0,-1.2671413610723867,2.2283392273272984,1.0799625189368491,-2.0301605892162953,-0.2764465726887916,-0.2764465726887936,0.0
8.005999999999343,0.16993387797700335,0.0006714728834581033,0.002942560354586115,0.9997130525412117,0.011003842855039178,-0.021232322463064335,0.0013843785531523786,0.02196417730606672,-0.04249571601968322,0.002302769328572364,0.14782270640824524,-0.0005615570316868272,-0.0038285161641214557,-0.03487068531156962,-0.10703267288087459,-0.040943336542640416,0.0,0.0,0.0,0.0,0.0,0.0,0.0,0.0,0.0,-1.0628309852722568,1.6743939713175544,0.48061923657267713,-1.460514163345869,-0.2764465834580398,-0.2764465834580401,0.0
8.02599999999935,0.17288800197760024,0.0006563730518617403,0.0028709913685861345,0.9996942038290687,0.010656444166002225,-0.02229720970456802,0.000879470120076622,0.02128994279712654,-0.04461432552379769,0.001284462885130816,0.14742348891730397,-0.0009550824886430223,-0.0032784406856729903,-0.03734035302044233,-0.10668847052447933,-0.058932437101332,0.0,0.0,0.0,0.0,0.0,0.0,0.0,0.0,0.0,-0.8309154564680202,1.1202437434045038,0.5488662541899286,-0.8811320990222044,-0.27644658461838545,-0.27644658461838545,0.0
8.045999999999356,0.17583008746986156,0.0006344259431195302,0.0028102437439022276,0.9996742911595269,0.010290609031879712,-0.02335320157326454,0.00020721179802836808,0.020588748204256813,-0.04671244144011557,-6.642117354439907e-05,0.1466999071789356,-0.0012689585592500557,-0.002744087565742618,-0.039317642465258686,-0.10565799496057796,-0.0746401548010721,0.0,0.0,0.0,0.0,0.0,0.0,0.0,0.0,0.0,-0.7997611309959037,1.0529989690220216,0.5894694305649244,-0.810327423494295,-0.2764465847754211,-0.2764465847754211,0.0
8.065999999999363,0.17876093980000937,0.0006061881253270637,0.002760301542527,0.9996530265210344,0.00990786017464769,-0.02439918085090039,-0.0005838218056381162,0.01986227403055876,-0.048789215017482776,-0.001652693200828545,0.14658160425950903,-0.0014416830997641824,-0.0021816780511558346,-0.040715713331944826,-0.10542721865460392,-0.07460860417732164,0.0,0.0,0.0,0.0,0.0,0.0,0.0,0.0,0.0,0.9583470865585721,-0.3768091655829513,-1.2612344593607319,-0.18045999287668815,-0.27644658479667367,-0.27644658479667367,0.0
8.08599999999937,0.18169827656163617,0.0005780855960907202,0.0027220988897365215,0.9996299984815971,0.009515509735053777,-0.02545005892831648,-0.0012711060970362425,0.01911457525328174,-0.050879043017986986,-0.0030295371677026947,0.1472322841583415,-0.0013286431511045924,-0.0015765140520253573,-0.04082849890020423,-0.1064251251973535,-0.05188005141098155,0.0,0.0,0.0,0.0,0.0,0.0,0.0,0.0,0.0,2.0165354754544276,-1.0276120903000456,-1.9278078757376371,0.7581677187424322,-0.2764465847995498,-0.2764465847995498,0.0
8.105999999999376,0.1846487448947127,0.0005530130892556704,0.002696134840450261,0.9996054509892905,0.009116810898622303,-0.026513530391067706,-0.0016908038732831314,0.01834286989403327,-0.053000119045168374,-0.0038691538414665663,0.14785173197905857,-0.0011674777724520254,-0.0009324136592371737,-0.04052173161622246,-0.1073664375887452,-0.0214544510109023,0.0,0.0,0.0,0.0,0.0,0.0,0.0,0.0,0.0,2.18099028071514,-1.182515653780971,-2.037030240863543,1.037579031794475,-0.2764465847999391,-0.23757963914622893,0.0
8.125999999999383,0.18761007471149466,0.0005309062088705889,0.0026813698912309387,0.9995798303796863,0.00870875094638253,-0.02758780622018003,-0.0017981387679891425,0.0175369563722656,-0.055149061221309734,-0.00408149366435925,0.14831383497175357,-0.0010278807363903954,-0.0005643368141198744,-0.04188859625146014,-0.1079536548918219,0.010626653211540698,0.0,0.0,0.0,0.0,0.0,0.0,0.0,0.0,0.0,2.1760709196334904,-1.2420123683388848,-2.059223413133025,1.1285474275465046,-0.2764465847999918,-0.6922295454120236,0.0
8.14599999999939,0.19058018964256856,0.0005117366923515434,0.0026720859967481686,0.999553455886987,0.008271365627265406,-0.028669923096016285,-0.001583933303300666,0.016654286772150525,-0.05731942099522723,-0.0036467279683039264,0.14873807500669184,-0.0008689251934428498,-0.00034926343367866307,-0.044494039094207426,-0.10838704805120594,0.04294107608724984,0.0,0.0,0.0,0.0,0.0,0.0,0.0,0.0,0.0,2.175052326464351,-1.2506784511395188,-2.062328438518313,1.1419731202789911,-0.2764465847999989,-0.7844549578305883,0.0
8.165999999999396,0.19355271003228053,0.0004939269776433047,0.002666797193451366,0.9995262538212295,0.007794800106761227,-0.029754744439154174,-0.0010789794971996429,0.0156748027366901,-0.05949957614152373,-0.0026254501886260233,0.14816402923763722,-0.0009365816868384148,-0.00024937722770933344,-0.048051376299130415,-0.10726330516027749,0.0629825390640847,0.0,0.0,0.0,0.0,0.0,0.0,0.0,0.0,0.0,0.4668459025016926,-0.8896287939914225,-1.0280494146543735,0.48824148293401964,-0.5306786227412423,-0.7974984359248688,0.0
8.185999999999403,0.19651061108004317,0.00047906300615245604,0.0026601462064093843,0.9994980760943128,0.007292906920282795,-0.030825721128078475,-0.00042931265368227487,0.014633284547392843,-0.06165328729741743,-0.0013103024717662725,0.1477184773228887,-0.00039673406055274504,-0.00044553501991784233,-0.04742044601407392,-0.10605211074486035,0.0726534360431186,0.0,0.0,0.0,0.0,0.0,0.0,0.0,0.0,0.0,0.5699030971403988,-0.8075122571423383,-0.8247026006702455,-0.5016392027146378,-0.7589324002859983,-0.7992739731594866,0.0
8.20599999999941,0.19946410539213957,0.00047806937665317644,0.0026492269924917886,0.99946822765093,0.006804395802469353,-0.03188841910717967,0.0003013982719758288,0.013610434345385636,-0.06379027888394939,0.00016885658307072533,0.14752978673581715,0.0002678505375343469,-0.000678418726400357,-0.045473825083984225,-0.1052741686944702,0.07633726336164771,0.0,0.0,0.0,0.0,0.0,0.0,0.0,0.0,0.0,-0.3064214282842913,0.5570630416305627,-0.18520922627998962,-1.1509690315865437,-0.7939773315035762,-0.7976320106156135,0.0
8.225999999999416,0.20241762958690085,0.0004837106638822617,0.002633748745345371,0.999436652072729,0.00632618254339444,-0.03294524016250226,0.000984407800982477,0.012608086203381887,-0.06591353370254734,0.0015542469555059832,0.14783946207198576,0.0002904447212061933,-0.0008913519456493535,-0.04592130782746381,-0.1051888322557169,0.058208590574208144,0.0,0.0,0.0,0.0,0.0,0.0,0.0,0.0,0.0,-1.099077549117538,1.6524443221364498,0.6300799313710981,-1.848388815629327,-0.7987962163902536,-0.7953319221881486,0.0
8.245999999999423,0.205378588926405,0.00048792009051093856,0.002614094276713581,0.9994036801058963,0.005847839273700757,-0.03400061675611295,0.001430044343512222,0.01161859562882188,-0.06802987064600725,0.002466430567680357,0.1483039061171145,0.00010369343695197914,-0.0010937242266365933,-0.047214426470530084,-0.10535517252845711,0.028722463816046588,0.0,0.0,0.0,0.0,0.0,0.0,0.0,0.0,0.0,-1.2618442696069396,2.1283618956814303,0.9893127385527098,-1.9654260007009374,-0.7994497747154844,-0.7949944700408557,0.0
8.26599999999943,0.2083482015294562,0.0004884192643632483,0.002590393190822108,0.9993697241809554,0.005367225478422476,-0.0350553475478486,0.0015715881918057903,0.010643872455904103,-0.07014087451490453,0.002771714211684319,0.14864172425077746,-4.693348956723416e-05,-0.001298855435827239,-0.04826676194247619,-0.10529626280518742,-0.0014351890579511197,0.0,0.0,0.0,0.0,0.0,0.0,0.0,0.0,0.0,-1.1132589722275275,1.9442436476085916,1.0373474963492697,-1.778292828302726,-0.7959928057329827,-0.7949487118186324,0.0
8.285999999999436,0.21132279431421677,0.00048653633487862866,0.0025625226545192186,0.9993349869728845,0.004888217029223126,-0.036106366767239335,0.0014210647594082677,0.009692746373642163,-0.07224142354789306,0.0024937549334588267,0.14882960127680686,-0.00015357740377636674,-0.0015092219039789464,-0.04894527767613633,-0.10493221492343391,-0.029701504623786512,0.0,0.0,0.0,0.0,0.0,0.0,0.0,0.0,0.0,-1.0738161296453033,1.8901133964575476,1.0420491784064638,-1.7294812097162542,-0.7950853706256046,-0.7949425188954257,0.0
8.305999999999443,0.21430088989721127,0.0004828862074411353,0.002530455380162316,0.9992993908271446,0.004413420346187117,-0.03715193046567957,0.0009916027528841396,0.008771307467766795,-0.07432897886820738,0.0016584618641229533,0.14896016501636256,-1.4273631249980744e-05,-0.0017188257181114932,-0.04868394678957904,-0.10443046560862038,-0.05399210832644186,0.0,0.0,0.0,0.0,0.0,0.0,0.0,0.0,0.0,-0.21294024739223474,0.5680036675759815,0.4772143683827592,-1.2953094568110395,-0.7949610184980893,-0.5059848620113545,0.0
8.32599999999945,0.21727749278787856,0.00048722098905261315,0.002498985278490184,0.999262571213797,0.003971176058826209,-0.03818887813833121,0.00039130351077766844,0.007929822249592345,-0.07639883987577382,0.0004801209051538479,0.1489474188553102,0.00042580627877380947,-0.001405885848046117,-0.043475837270340635,-0.1036892351057116,-0.061764064258518186,0.0,0.0,0.0,0.0,0.0,0.0,0.0,0.0,0.0,0.4853397614671954,0.5346778457991694,-0.20589113863169412,-0.8586197175068312,-0.7949441844280692,-0.20446246738890947,0.0
8.345999999999457,0.22026529312941606,0.0004979006861241472,0.002473438168062951,0.99922393860502,0.0035771596900576554,-0.03922576943578147,-0.000251911482018297,0.007190718661448311,-0.07846935700966759,-0.0007864858573268852,0.15007515898051357,0.0006570487422500946,-0.0011148750459493721,-0.039529088259080546,-0.10470925116161381,-0.062342212559706664,0.0,0.0,0.0,0.0,0.0,0.0,0.0,0.0,0.0,0.9252651669454505,0.5870727641836371,-0.6799494763532948,-0.8033976854080366,-0.7949419061805874,-0.26481719027714085,0.0
8.365999999999463,0.22327416655278892,0.0005134149829951923,0.002454587949020155,0.9991831743468312,0.0032188485242630204,-0.04027253610308201,-0.0008636852406758264,0.006523206791292916,-0.08056083311812068,-0.0019916827836943636,0.1506472852297128,0.0007871502866948883,-0.0005918085125940992,-0.03763346190077723,-0.10499756606180993,-0.05064023292532052,0.0,0.0,0.0,0.0,0.0,0.0,0.0,0.0,0.0,1.344514532338245,-0.6954226149214681,-1.5197681690990916,0.573836144318092,-0.15610813567818446,-0.2748381483955214,0.0
8.38599999999947,0.22628641396601978,0.0005270332113839126,0.002448624918949531,0.9991411864029802,0.0028532838507577115,-0.04131674163917688,-0.0012943202212578342,0.005828549659230069,-0.08264919283921791,-0.0028318644097017954,0.15046879033443103,0.0004981207889061177,3.222963674585276e-05,-0.03902900192339486,-0.10399996327074665,-0.025837229407127772,0.0,0.0,0.0,0.0,0.0,0.0,0.0,0.0,0.0,1.4576662045392337,-1.0253426420159824,-1.7808593652737328,1.2641662180844426,-0.24621441558893153,-0.27622827345025874,0.0
8.405999999999477,0.22929183464467248,0.0005333598184779994,0.0024543606513948314,0.9990987857957934,0.002461353531835577,-0.04234883367880881,-0.00146090595444267,0.005060174327492782,-0.08471543827528834,-0.0031389115564362685,0.14999574746001515,0.0001005291826850821,0.0006170133085087889,-0.04083483739383805,-0.10242470399778728,0.001593380000221728,0.0,0.0,0.0,0.0,0.0,0.0,0.0,0.0,0.0,1.28272678897589,-0.9542976237909311,-1.5990470434963047,1.238821434288965,-0.24122922606827268,-0.2764170279750405,0.0
8.425999999999483,0.23228603723924812,0.0005324672974699014,0.002469894183405318,0.9990562993944936,0.002045157089082848,-0.043364080042717544,-0.0013727835626907907,0.004221399677776016,-0.08674946369219949,-0.002931376101087593,0.14934907912265355,-0.00021158641448947057,0.0009079203203679294,-0.04083289444552588,-0.10044645754889958,0.023942166675369428,0.0,0.0,0.0,0.0,0.0,0.0,0.0,0.0,0.0,1.0750596406234791,-0.8210377211697152,-1.3527223366078747,1.0696489631187915,-0.6934833995349423,-0.2764425845063232,0.0
8.44599999999949,0.23526700287642469,0.0005257064870702116,0.002489334078032795,0.9990137459676933,0.0016268201132645726,-0.04435925988915597,-0.001069993459460287,0.0033585824055932557,-0.088743977316487,-0.0022912237566447653,0.14868106284580607,-0.0004883085468103614,0.0010420128820452894,-0.03950183760928714,-0.09833292467179203,0.04464323215119658,0.0,0.0,0.0,0.0,0.0,0.0,0.0,0.0,0.0,1.0471044353639227,-0.8024446363809273,-1.3184748250422764,1.0463868503567753,-0.7846385710887447,-0.27644604341523205,0.0
8.465999999999497,0.23823658712113235,0.0005120429852657747,0.0025113657330919437,0.998970951644959,0.0012123204410600138,-0.04533463621008586,-0.000582072515127436,0.0024851391721860076,-0.09069885931513617,-0.001278121117805747,0.1482615782647937,-0.0009248966496079946,0.0011754935282422589,-0.03865189920055868,-0.09655050123193662,0.057366851770529616,0.0,0.0,0.0,0.0,0.0,0.0,0.0,0.0,0.0,0.4918036764530441,-0.1806668924066838,-0.9018110637700375,0.491826950078151,-0.7975235402795429,-0.2764465115314678,0.0
8.485999999999503,0.24120538641639813,0.0004909232162922099,0.002536717282956922,0.9989273921683881,0.000804016300019832,-0.04629706998165385,-6.675835658461977e-06,0.0016138449371769297,-0.09262720903800298,-8.816248604744639e-05,0.14892905687069458,-0.001189835490056618,0.0014051417727723014,-0.037190682692920134,-0.09638712406676356,0.06086944339984834,0.0,0.0,0.0,0.0,0.0,0.0,0.0,0.0,0.0,0.5781827536011078,0.7582766165492619,-0.8090766166259087,-0.5030923988789076,-0.7992773753349687,-0.2764465748841812,0.0
8.50599999999951,0.24419561858611386,0.00046501025359127766,0.0025675301649448878,0.998882174731739,0.0004114120650914412,-0.04726411201470504,0.0005791880232454249,0.000770597721146354,-0.09456390855024138,0.00112320968384194,0.15002700364648236,-0.0014606111966201753,0.0017154852593561465,-0.03545906233974449,-0.0970486898723498,0.05718334943698857,0.0,0.0,0.0,0.0,0.0,0.0,0.0,0.0,0.0,-0.32834859462199706,1.2182042053979956,-0.19222403681228864,-1.0732384681058849,-0.7995149150580171,-0.23757964025036604,0.0
8.525999999999517,0.24719740508537882,0.00043539876593244494,0.0026019821581227034,0.9988356824324783,4.0531216066462514e-05,-0.048230299689004615,0.0010564320968050904,-2.1033880023653948e-05,-0.09649806755455559,0.0021163419699958106,0.15003385216729082,-0.0015024161127048215,0.001655713352028072,-0.034357276174140354,-0.09588688839184098,0.03530889925061007,0.0,0.0,0.0,0.0,0.0,0.0,0.0,0.0,0.0,-1.2152864675245154,1.5958530914593716,1.0933427688973392,-1.6236515128486195,-0.7995470659330253,-0.692229545795339,0.0
8.545999999999523,0.2501937284568452,0.000405884850808427,0.0026328195706978585,0.9987890589182576,-0.00031109322185163827,-0.04918015391873782,0.001277288815587253,-0.0007506989510415808,-0.09839911744400733,0.0025946373189556643,0.14950630566223505,-0.0014333595519563157,0.0013903816005416288,-0.03385342585451647,-0.0937231323398684,0.005903656569402909,0.0,0.0,0.0,0.0,0.0,0.0,0.0,0.0,0.0,-1.3974785393985396,1.657007968738516,1.4304501459870793,-1.714523213515697,-0.7995514171425115,-0.7844549578867496,0.0
