t,px,py,pz,qw,qx,qy,qz,roll,pitch,yaw,vx,vy,vz,wx,wy,wz,cur_x,cur_y,cur_z,wav_x,wav_y,wav_z,kick_x,kick_y,kick_z,u0,u1,u2,u3,u4,u5,dist_on
30.00399999999425,-0.024553226574781095,-0.17405656711664483,0.02863839461369338,0.9968612543162118,-0.0012003331098154912,0.0790807900419239,-0.003525264512147963,-0.002988065732728517,0.15831721253433398,-0.007309725613964771,-0.0019684738561218224,0.04084224760524196,0.01261921294024519,-0.0014671476591684154,0.11678339037187645,0.03243877964132137,0.2,0.0,0.0,-0.044412908605314085,0.01334566529431968,0.04655513901890929,0.0,0.0,0.0,0.27737139174217756,-1.0153487003143182,1.0812739721751854,-0.34329529999871616,-0.28046567966389635,-1.5411214006956395,1.0
30.025999999994237,-0.024600287324295617,-0.17314513117748465,0.02890584837374665,0.9967606577034711,-0.001182298243382607,0.08035382109926954,-0.003171255296368883,-0.0029040835762606,0.16087255544383458,-0.0065972003832366075,-0.002186613244092422,0.0421241687025967,0.011548421393950839,-0.001130391979994757,0.11471552376937817,0.03213920771673155,0.2,0.0,0.0,-0.045707133649163414,0.012849506564178744,0.044979113045513296,0.0,0.0,0.0,0.4982751408948821,-0.7720053934834509,0.8458675152301628,-0.5721367568540138,-0.276733778975517,-1.5239331554988058,1.0
30.047999999994225,-0.024643631565789734,-0.17220592562731307,0.029147660805522467,0.9966607141374261,-0.0011609213816053548,0.08159727743235323,-0.0028208991917778553,-0.00281188888451182,0.16336878413878592,-0.00589088576974235,-0.0015776440006687216,0.0433645363855077,0.010298217385135654,-0.000790692633584516,0.11117797193568711,0.03181428572192005,0.2,0.0,0.0,-0.046950628803139466,0.012344823266339991,0.043345341500991806,0.0,0.0,0.0,0.66701008302441,-0.5811515951710327,0.6626591823230464,-0.748517828822231,-0.2712659116142194,-1.5050360567580754,1.0
30.069999999994213,-0.024670159808251133,-0.17123978996765807,0.029361233983630435,0.996562594273177,-0.0011362295502981383,0.08279843968696257,-0.002474482436811297,-0.002711593858951534,0.16578035008794906,-0.005191305760099612,-0.0007618386943334639,0.04457012580518526,0.008996761104037304,-0.00044900426880489916,0.107131110471637,0.03146148171186282,0.2,0.0,0.0,-0.04814142958459699,0.011832906388957854,0.04165602536702474,0.0,0.0,0.0,0.6616630458127317,-0.5647121441322058,0.6535443644283702,-0.7504954452508125,-0.2650310251896967,-1.4853823441713165,1.0
30.0919999999942,-0.02467876290425477,-0.17024745931074065,0.029546018038936833,0.9964666786106383,-0.0011082273596361586,0.08395465144965555,-0.00213231113362798,-0.002603357671158288,0.16810189210491075,-0.004499068980829194,5.486918262812076e-05,0.04574303773200911,0.00767948949095775,-0.00010623364490613596,0.10298112601596397,0.03108192838753472,0.2,0.0,0.0,-0.04927769018081145,0.011315044157895532,0.03991347014373089,0.0,0.0,0.0,0.656298500984214,-0.548619259911909,0.6444558317727515,-0.7521352718103601,-0.25832560101780444,-1.4652662383574615,1.0
30.11399999999419,-0.02466934123789884,-0.16922964542676766,0.029701674541361398,0.9963732255482564,-0.0010769234431440551,0.08506476813854069,-0.001794677686700102,-0.002487360926888855,0.1703310821990108,-0.0038147678468516155,0.0008775033828647032,0.04688400323547673,0.0063478364590691585,0.00023670772943647916,0.09872571990446861,0.030677005281746335,0.2,0.0,0.0,-0.05035766814334435,0.010792514161734332,0.03812005654653574,0.0,0.0,0.0,0.6509009184034013,-0.5328856297681069,0.635409460884898,-0.7534249675840226,-0.25116773318643904,-1.4447061547879743,1.0
30.135999999994176,-0.024641753249759712,-0.1681870435981299,0.029827907832969743,0.9962824912692083,-0.0010423350550155584,0.08612766163431218,-0.0014618582210760695,-0.002363803252795713,0.17246562532282161,-0.003138968090132494,0.0017071723573429368,0.04799377599104352,0.005003876625787668,0.0005788816821196716,0.09436812767559698,0.030248150379024008,0.2,0.0,0.0,-0.05137972540386747,0.010266579223243961,0.036278232429547835,0.0,0.0,0.0,0.6454663621740392,-0.5175113588621703,0.6264094341145373,-0.7543646738564351,-0.2435803596948426,-1.4237252601337607,1.0
30.157999999994164,-0.024595833390767423,-0.1671203325453601,0.02992446793107006,0.9961947273524555,-0.0010044882026503251,0.08714223998010676,-0.0011341119292394902,-0.002232902964546405,0.17450329911351226,-0.0024722075020620717,0.0025449489280874905,0.04907310739048196,0.003649686408490849,0.0009193371955939825,0.0899116539938833,0.02979685402642021,0.2,0.0,0.0,-0.05234233076796857,0.009738483679854566,0.034390506724693945,0.0,0.0,0.0,0.639991017781143,-0.5024955333619426,0.617459767202992,-0.7549555056807324,-0.23558682820940713,-1.402347088767883,1.0
30.179999999994152,-0.02453139282032132,-0.16603017449752888,0.029991150503665357,0.996110179982494,-0.0009634176092076647,0.08810744767887145,-0.0008116805222354199,-0.0020948962806484686,0.17644195469893367,-0.0018149947514529204,0.0033918746556066736,0.05012274456194303,0.002287338307871024,0.0012571264769661475,0.08535961968938031,0.02932464848469367,0.2,0.0,0.0,-0.05324406201657612,0.009209449788512616,0.03245944332905357,0.0,0.0,0.0,0.6344712049259303,-0.48783628828849,0.6085643034011206,-0.7551994909845708,-0.2272108215849702,-1.3805954747382894,1.0
30.20199999999414,-0.024448220105364682,-0.16491721530494352,0.030027796735970134,0.9960290891955127,-0.0009191665979544622,0.08902226572130133,-0.0004947878030499642,-0.0019500363995013025,0.17827951695996985,-0.0011678084038541552,0.004248958712733229,0.051143428493726516,0.0009188962003764643,0.0015913077930306877,0.08071535073991283,0.02883309799014424,0.2,0.0,0.0,-0.05408360764778021,0.008680674274960127,0.030487654998090086,0.0,0.0,0.0,0.6289034033789903,-0.4735308602561317,0.5997266940657362,-0.7550995242796341,-0.2184762909663488,-1.3584944908538086,1.0
30.223999999994128,-0.024346081943704776,-0.1637820845923562,0.03003429309472017,0.9959516881519878,-0.0008717869564732232,0.08988571149686815,-0.000183639352236844,-0.0017985925609182054,0.1800139845537417,-0.0005310961340490503,0.005117176818087245,0.05213589223575445,-0.00045358923069911623,0.001920948406385774,0.0759821680544343,0.028323789296250047,0.2,0.0,0.0,-0.05485976826240796,0.008153325042313992,0.028477797268908887,0.0,0.0,0.0,0.6232842759254753,-0.45957564144627344,0.5909503819107784,-0.7546593188841086,-0.2094073905386613,-1.3360683891839769,1.0
30.245999999994115,-0.024224723910093972,-0.16262539595091857,0.03001057099349762,0.9958782024375832,-0.0008213387809797184,0.09069683859520349,0.00012157767940554546,-0.001640849096119757,0.18164342971110964,9.472587677793839e-05,0.005997470240407211,0.05310085918411828,-0.0018280849076975918,0.0022451273987461155,0.07116337777901367,0.027798322692974685,0.2,0.0,0.0,-0.05557145759829779,0.007628538052725356,0.026432562436534135,0.0,0.0,0.0,0.6176106885153698,-0.44596623462241747,0.5822385868197568,-0.7538833578703205,-0.20002841417976547,-1.3133415432441697,1.0
30.267999999994103,-0.02408387122348173,-0.16144774716700355,0.029956606362688248,0.9958088493939959,-0.0007678903020435826,0.09145473650435484,0.000420694676405651,-0.001477104471908252,0.18316599782050913,0.0007092733676283171,0.0068907448767778065,0.05403904145384001,-0.0032025795974458646,0.002562938371220005,0.06626226215493287,0.02725830350257668,0.2,0.0,0.0,-0.05621770321973947,0.007107414394722433,0.024354673604984025,0.0,0.0,0.0,0.6118797277532823,-0.4326975089620835,0.5735942941021532,-0.7527768439789373,-0.1903637342485759,-1.2903383921157086,1.0
30.28999999999409,-0.02392322953378493,-0.16024972048590413,0.029872419128048545,0.9957438374810531,-0.0007115176930172272,0.09215853021272491,0.000713561567757236,-0.0013076703343667042,0.18457990681083145,0.0013121942563994434,0.0077978704073577865,0.05495113834462361,-0.00457508796097273,0.0028734920144651375,0.061282070955289994,0.026705334051063498,0.2,0.0,0.0,-0.05679764686997384,0.006591017547546938,0.02224687883364905,0.0,0.0,0.0,0.6060887158619698,-0.4197636564750546,0.5650202450723634,-0.7513456487431129,-0.18043774271919477,-1.267083386722742,1.0
30.31199999999408,-0.02374248572647102,-0.15903188290832043,0.029758072602184556,0.9956833656710644,-0.0006523048624737704,0.09280737972174509,0.0010000467449623577,-0.0011328705570204341,0.1858834463466409,0.0019031687390643418,0.008719679528771625,0.055837834903960465,-0.005943654400355993,0.0031759185428458644,0.056226013521179355,0.02614100611453156,0.2,0.0,0.0,-0.057310544495967064,0.006080370852442836,0.020111945398099358,0.0,0.0,0.0,0.6002352232525964,-0.4071582487736791,0.5565189298268263,-0.7495962610654912,-0.170274794846357,-1.2436009384594289,1.0
30.333999999994067,-0.02354130874320558,-0.1577947865174518,0.02961367279352811,0.9956276228761316,-0.0005903432319400717,0.09340047947650927,0.0012800368943336237,-0.0009530402979716103,0.18707497684946553,0.0024819092376747883,0.009656967267873325,0.056699800591481435,-0.007306356690749982,0.0034693699878995017,0.05109725141338027,0.025566893839541936,0.2,0.0,0.0,-0.05775576595586519,0.005576455199421253,0.017952654183034416,0.0,0.0,0.0,0.5943170788324132,-0.3948742939595736,0.5480925820935484,-0.7475357354886198,-0.1598991555230297,-1.2199153703328034,1.0
30.355999999994054,-0.023319350416782764,-0.15653896883443327,0.029439367637641302,0.9955767874088088,-0.0005257315001869586,0.09393705772171324,0.0015534367489235903,-0.0007685250700718789,0.1881529283592325,0.0030481602055684293,0.010610490377118484,0.057537688047935825,-0.008661309387447426,0.003753022347573019,0.04589889169058556,0.024984547136406438,0.2,0.0,0.0,-0.05813279442063564,0.005080206936546668,0.015771794223627417,0.0,0.0,0.0,0.5883323781777333,-0.3829042933923077,0.5397431760275843,-0.7451716403946345,-0.1493349484663261,-1.1960508707588189,1.0
30.377999999994042,-0.023076246318534818,-0.155264953199784,0.029235346155885175,0.9955310264762698,-0.0004585753953061157,0.09441637579031051,0.001820168765456276,-0.0005796798277404886,0.1891157992501454,0.0036016977982034383,0.011580966812310706,0.058352131971619266,-0.010006666999628667,0.004026077588805457,0.040633980820572915,0.024395485543819845,0.2,0.0,0.0,-0.05844122548235377,0.004592516007265511,0.013572157410024951,0.0,0.0,0.0,0.5822794896965331,-0.3712402981091796,0.5314724248267279,-0.7425120063636799,-0.13860610834341336,-1.1720314501219304,1.0
30.39999999999403,-0.022811616616404608,-0.1539732491784815,0.029001837546654453,0.99549049570784,-0.00038898741576256,0.09483772733230501,0.0020801727316349682,-0.0003868680735699002,0.189962154815407,0.004142329418095964,0.01256907529300822,0.059143748104487,-0.01134062692422495,0.004287765502096506,0.03530549922639868,0.023801192562685182,0.2,0.0,0.0,-0.05868076598245667,0.004114224319755991,0.01135653336826949,0.0,0.0,0.0,0.5761570589008886,-0.3598739646707271,0.5232817810431949,-0.7395652749124241,-0.12773633592507816,-1.1478809001821633,1.0
30.421999999994018,-0.022525066941863695,-0.1526643529862303,0.02873911021450723,0.9954553387155476,-0.0003170865615641529,0.09520043749106825,0.0023334053091903987,-0.00019046098739286337,0.190690625735213,0.00466989314239066,0.013575454945410617,0.05991313232957009,-0.012661432135060675,0.004537345407711096,0.029916356465690776,0.023203110456257135,0.2,0.0,0.0,-0.05885123257400869,0.003646124350719386,0.00912770452941536,0.0,0.0,0.0,0.569964010905096,-0.3487966102143999,0.5151724384695533,-0.7363402478243389,-0.11674905633122545,-1.123622756388477,1.0
30.443999999994006,-0.022216189263866933,-0.1513387479344659,0.028447470742608023,0.9954256866871095,-0.0002429980566360413,0.09550386203449099,0.002579839518012591,9.1634199807884e-06,0.19129990644236697,0.005184257041647288,0.014600705027084663,0.06066085988068082,-0.013967373624121268,0.004774107714116101,0.024469387037455027,0.02260263551289298,0.2,0.0,0.0,-0.0589525500326453,0.003188957984487911,0.00688844139713395,0.0,0.0,0.0,0.5636995512605583,-0.3379992665082401,0.5071453354803735,-0.7328460372724594,-0.10566738041006818,-1.099280263133267,1.0
30.465999999993993,-0.021884562768053187,-0.14999690489161885,0.028127262813955674,0.9954016580105817,-0.0001668530634292939,0.09574738644816227,0.0028194641666770617,0.00021162112660804918,0.19178875339970616,0.0056853183984713635,0.0156453847324414,0.06138748466474401,-0.015256792593416488,0.0049973753301239925,0.018967346807496295,0.02200111376676716,0.2,0.0,0.0,-0.05898474933137152,0.00274341558679176,0.004641498022644153,0.0,0.0,0.0,0.5573631652336736,-0.3274727328076078,0.49920115971501744,-0.7290920169232348,-0.09451406927111439,-1.0748763419603666,1.0
30.48799999999398,-0.021529754739430064,-0.14863928275816377,0.02777886608688555,0.9953833579297245,-8.878839073031712e-05,0.09593042499761838,0.0030522832346308376,0.00041652289153480595,0.19215598330329633,0.006173002834649199,0.016710013077451853,0.062093538696441755,-0.01652808239744613,0.005206504933025595,0.013412910040596117,0.021399837170894324,0.2,0.0,0.0,-0.058947965494783455,0.0023101353110347896,0.0023896076944051477,0.0,0.0,0.0,0.5509546156279738,-0.3172076273305483,0.4913403539914475,-0.7250877741970105,-0.0833115019716753,-1.0504335627180545,1.0
30.50999999999397,-0.02115132144681789,-0.14726632895298952,0.027402695030320723,0.9953708782289832,-8.946195571879218e-06,0.09605241976652419,0.003278315211245152,0.000623475018324605,0.19240047122505496,0.0066472633554631256,0.017795068861679447,0.06277953164421043,-0.01777969023773828,0.005400888095724806,0.0078086670249851685,0.02080004021573416,0.2,0.0,0.0,-0.05884243524859294,0.0018897026334806775,0.00013547884862768404,0.0,0.0,0.0,0.5444739392469132,-0.3071944371813127,0.4835631233458236,-0.7208430638467966,-0.07208164633728048,-1.0259741176292438,1.0
30.531999999993957,-0.02074880902737427,-0.14587847990865704,0.02699919772420065,0.9953642969468502,7.252631992122988e-05,0.09611283967744179,0.0034975923968693363,0.0008320800895338057,0.19252114870809994,0.007108079319856973,0.01890099070532705,0.06344595048599193,-0.019010118612291863,0.00557995227654378,0.002157122272395595,0.020202896985537594,0.2,0.0,0.0,-0.058668494480523276,0.0014826501123676502,-0.002118208794641871,0.0,0.0,0.0,0.5379214420887692,-0.2974235665663093,0.4758694430980565,-0.7163677630026679,-0.06084603287846402,-1.0015197982335575,1.0
30.553999999993945,-0.02032175436954844,-0.14447616157315027,0.02656885463042488,0.9953636780994051,0.0001554772153455004,0.09611117967627905,0.0037101601709568837,0.0010419376721486635,0.19251700217867315,0.00755545534545704,0.02002817717690171,0.06409325927265944,-0.020217926530872933,0.005743161678013973,-0.003539095014088705,0.019609518641303315,0.2,0.0,0.0,-0.05842657552877293,0.0010894573646527096,-0.0043688078663643255,0.0,0.0,0.0,0.5312976934332144,-0.2878853831031565,0.4682590677758858,-0.7116718278732689,-0.04962573162914402,-0.9770919750192117,1.0
30.575999999993932,-0.019869685986624423,-0.14305978991573645,0.02611217734113659,0.9953690701423845,0.00023975007171325,0.09604697325118995,0.003916076234453365,0.0012526450046080751,0.19238709813870405,0.007989420189605941,0.021176987950743895,0.06472189900295801,-0.021401730037787354,0.005890018066582847,-0.00927412922197031,0.019020951218716817,0.2,0.0,0.0,-0.05811720431428666,0.0007105512528578937,-0.006613706751967978,0.0,0.0,0.0,0.5246035263573112,-0.27857025503126287,0.46073153332720007,-0.7067652592634782,-0.03844133297147423,-0.9527115807794064,1.0
30.59799999999392,-0.019392124847490273,-0.14162977143444755,0.02562970734145722,0.9953805018995274,0.0003251841407969156,0.095919831606355,0.004115409837242945,0.001463797702582301,0.19213066190118974,0.008410025684324692,0.022347746073948932,0.06533228760639435,-0.022560200136887212,0.0060200615836633956,-0.015039707892607522,0.018438173650665995,0.2,0.0,0.0,-0.05774099733345321,0.0003463062732531573,-0.00885033276230317,0.0,0.0,0.0,0.5178400537882162,-0.26946856981629735,0.45328614346156654,-0.701658086364169,-0.027312948403190873,-0.9283991136012542,1.0
30.619999999993908,-0.0188885851779511,-0.1401865036631002,0.02512201481412309,0.9953979812076144,0.00041161458055150843,0.09572945545037304,0.0043082409888672065,0.0016749904585661747,0.1917471012781939,0.008817345627043803,0.023540738152345364,0.06592482000912066,-0.023692061920878308,0.006132871294890971,-0.02082754868473857,0.017862096309890538,0.2,0.0,0.0,-0.057298658527568415,-2.9548644012633284e-06,-0.011076155072120002,0.0,0.0,0.0,0.5110086630703816,-0.26057077010150187,0.44592197723131444,-0.6963603329491037,-0.016260206777688413,-0.9041746350991895,1.0
30.641999999993896,-0.01835857526443524,-0.13873037567597754,0.024589697446140552,0.9954214948069138,0.0004988727355383068,0.09547563478163223,0.004494659654264654,0.0018858177072467092,0.19123600612672575,0.009211474619814418,0.02475621417047982,0.0664998682894568,-0.024796094893719107,0.006228065596146347,-0.026629399022048573,0.017293559989560024,0.2,0.0,0.0,-0.05679097604425893,-0.00033696047604079725,-0.013288687426945871,0.0,0.0,0.0,0.5041109993200528,-0.2518673975732063,0.4386379075883403,-0.6908819754206114,-0.00530224222718878,-0.8800577601115624,1.0
30.663999999993884,-0.017801598261023316,-0.13726176858821204,0.024033379230105116,0.9954510083392214,0.0005867864218056606,0.09515824846476292,0.0046747649396461375,0.0020958742573363377,0.19059714745050158,0.009592526879750608,0.025994387359970283,0.0670577819200811,-0.025871133095411065,0.00630530251661046,-0.03243705966687731,0.016733335271178276,0.2,0.0,0.0,-0.056218818906324845,-0.0006554889727806377,-0.015485490620064416,0.0,0.0,0.0,0.4971489478371068,-0.24334913457268414,0.43143262063670096,-0.6852329028620523,0.005542315041602186,-0.8560676490406528,1.0
30.68599999999387,-0.017217152999125535,-0.13578105605001706,0.023453709264839202,0.9954864664567628,0.0006751802163645346,0.09477726355974467,0.004848664272850406,0.0023047558911177624,0.18983047598073743,0.009960635026979098,0.027255434092851347,0.06759888809163353,-0.026916065023364154,0.006364279924305195,-0.03824240826014558,0.01618212226818444,0.2,0.0,0.0,-0.05558313360335055,-0.0009583677727970213,-0.01766417474213319,0.0,0.0,0.0,0.49012461578629807,-0.235006843255894,0.4243046353711057,-0.6794228792977096,0.01625534505662868,-0.8322230028608455,1.0
30.70799999999386,-0.016604734799248098,-0.13428860473302842,0.02285136055966706,0.9955277930401856,0.0007638757512518418,0.09433273440966758,0.0050164725823794495,0.0025120599332562037,0.18893612024865936,0.010315948856337968,0.028539493800783453,0.06812349211234454,-0.02792983336585536,0.006404735640730986,-0.04403742199435573,0.015640550731156222,0.2,0.0,0.0,-0.054884940621117435,-0.0012454720682653034,-0.019822401206737686,0.0,0.0,0.0,0.48304031329355035,-0.22683160219240947,0.4172523237597238,-0.6734615082728562,0.026819241703317342,-0.8085420605898245,1.0
30.729999999993847,-0.015963836284272892,-0.13278477480714018,0.022227028846304685,0.9955748915227997,0.0008526920121793993,0.09382480149685117,0.005178311479142978,0.002717385790726717,0.18791438417011896,0.010658634098930284,0.029846668920781704,0.06863187787803503,-0.028911434563271884,0.0064264474711126455,-0.04981419929569782,0.015109180499140895,0.2,0.0,0.0,-0.054125330923496105,-0.0015167234604642867,-0.021957884555882663,0.0,0.0,0.0,0.4758985341002225,-0.21881474031422532,0.410273931034712,-0.667358199849643,0.03721691387706644,-0.7850425990127028,1.0
30.751999999993835,-0.015293948193661519,-0.1312699204063444,0.02158143140199258,0.9956276453174284,0.0009414456417721603,0.09325369007815704,0.0053343084447573874,0.0029203354659487813,0.1867657441652235,0.010988871179472386,0.031177024867990285,0.06912430840662206,-0.02985991821330997,0.006429233156597556,-0.05556498040665675,0.014588502280358111,0.2,0.0,0.0,-0.053305462401103725,-0.001772088476466318,-0.024068394050060275,0.0,0.0,0.0,0.46870193591213977,-0.21094786814678987,0.4033675960622358,-0.6611221400950245,0.04743178438983309,-0.7617419344425932,1.0
30.773999999993823,-0.014594560197984446,-0.1297443900822159,0.020915305887140086,0.9956859183415048,0.0010299512473970767,0.0926197086113429,0.005484596030048636,0.003120514045416912,0.18549084583814887,0.011306853975184846,0.03253059003590306,0.06960102643110512,-0.030774386336593212,0.006412950254520737,-0.06128216677147162,0.0140789387443476,0.2,0.0,0.0,-0.052426556300602896,-0.002011576981031161,-0.02615175504811548,0.0,0.0,0.0,0.461453320574004,-0.20322290627605033,0.3965313716721168,-0.6547622631176827,0.05744778686086349,-0.7386569262975466,1.0
30.79599999999381,-0.013865161713168414,-0.12820852724381668,0.020229409200386184,0.9957495556353789,0.0011180217135738036,0.09192324698520414,0.005629311067202073,0.003317530166264076,0.184090500244316,0.011612788581756413,0.03390735582431409,0.07006225504490426,-0.03165399251929283,0.006377495952573508,-0.06695833913849923,0.01358084590658605,0.2,0.0,0.0,-0.051489893648074686,-0.002235240497390172,-0.028205850182658258,0.0,0.0,0.0,0.4541556141933677,-0.19563211102600894,0.3897632448357261,-0.6482872256922547,0.0672493608244813,-0.7158039822728269,1.0
30.8179999999938,-0.013105242713850142,-0.12666267058293001,0.019524516353617283,0.9958183840682119,0.0012054685189409626,0.09116477456703023,0.005768593898786759,0.003510996463294726,0.18256567977386554,0.011906892091668795,0.0353072766951706,0.07050819839337089,-0.03249794094928154,0.006322806822387707,-0.07258627430586216,0.013094514785681223,0.2,0.0,0.0,-0.05049681167944602,-0.0024431704505619256,-0.030228620337260446,0.0,0.0,0.0,0.44681184733183027,-0.188168097341135,0.38306115658914835,-0.6417053844912007,0.0768214452880639,-0.6931990648890114,1.0
30.839999999993786,-0.012314294545221531,-0.12510715448366977,0.018801419369120446,0.9958922131252963,0.001292102057727321,0.09034483808155752,0.005902587626658517,0.00370052999907705,0.18091751368183284,0.012189391389902809,0.036730270256403096,0.07093904240529623,-0.03330548536214435,0.0062488585176924336,-0.07815896044954247,0.012620173312479017,0.2,0.0,0.0,-0.04944870029047153,-0.0026354963466788304,-0.032218065432109456,0.0,0.0,0.0,0.43942513537459404,-0.18082385888682423,0.37642302160676405,-0.6350247759274104,0.08614947097108805,-0.6708576992001515,1.0
30.861999999993774,-0.011491810732750903,-0.1235423094156471,0.018060926200694705,0.9959708357702155,0.0013777319656467812,0.08946405933613304,0.006031437383516689,0.0038857526796917145,0.1791472832966322,0.012460521971757045,0.03817621737371693,0.0713549555582962,-0.03407592791302054,0.006155665421816494,-0.0836696109861506,0.01215798846979391,0.2,0.0,0.0,-0.04834699851828594,-0.002812383901536247,-0.0341722450252005,0.0,0.0,0.0,0.43199865918282626,-0.17359278539859,0.3698467473385201,-0.6282530985945755,0.09521935145165095,-0.6487949814520235,1.0
30.88399999999376,-0.010637287789165872,-0.12196846231000912,0.017303859680196293,0.9960540293748742,0.0014621674501001341,0.08852313280720392,0.00615528962965543,0.004066291658698986,0.17725641693935656,0.012720526787199302,0.03964496231025459,0.0717560896720574,-0.034808617989770044,0.006043280248909813,-0.08911167693577161,0.011708068641002295,0.2,0.0,0.0,-0.04719319106604169,-0.0029740331312043873,-0.03608927873651503,0.0,0.0,0.0,0.424535646126726,-0.16646867732693085,0.3633302526317007,-0.6213976982771002,0.10401747344028928,-0.6270255884880096,1.0
30.90599999999375,-0.009750226018086193,-0.12038593691779559,0.01653105649065842,0.9961415567101606,0.001545217624525975,0.08752282310352126,0.006274291477213197,0.004241779731810864,0.1752464845870272,0.012969655115842133,0.04113631289397246,0.07214258072358072,-0.03550295098236709,0.005911793602846079,-0.09447885776340735,0.011270466145420554,0.2,0.0,0.0,-0.04598880488162776,-0.003120676417080465,-0.03796734650298346,0.0,0.0,0.0,0.417039351590703,-0.15944575783966786,0.35687148576527683,-0.6144655554872334,0.11253068639258051,-0.6055637877092024,1.0
30.927999999993737,-0.008830130313698807,-0.11879505415018714,0.015743366166805186,0.9962331669898048,0.0016266918466987924,0.08646396232159445,0.006388590043985165,0.004411855724642882,0.17311919231326353,0.013208161476288555,0.042650040712523415,0.07251454967875455,-0.03615836702272942,0.0057613334973545555,-0.09976511069042239,0.010845179938229005,0.2,0.0,0.0,-0.04473540580095308,-0.0032525765572056745,-0.03980468867234191,0.0,0.0,0.0,0.4095130410353952,-0.15251868225659726,0.35046844183197073,-0.607463275474448,0.12074629166201858,-0.5844234474056772,1.0
30.949999999993725,-0.007876510955872447,-0.11719613240033974,0.014941650123474275,0.9963285969598553,0.001706400060724824,0.08534744730895319,0.0064983318386239155,0.004576164875775623,0.17087637653989646,0.013436304573235849,0.04418588133539566,0.07287210333482863,-0.036774349708418606,0.005592064840517911,-0.10496465847991306,0.010432158452692537,0.2,0.0,0.0,-0.04343459526572837,-0.0033700248150469745,-0.04159960594429903,0.0,0.0,0.0,0.40195997269503525,-0.14568254500319464,0.34411917940935555,-0.6003970806401595,0.12865203138333645,-0.5636180472871529,1.0
30.971999999993713,-0.0068888844001149,-0.11558948784661878,0.014126780712175612,0.996427572026185,0.0017841531424368253,0.08417423685068022,0.006603662178815849,0.004734359217182509,0.16851999813284985,0.013654346285357347,0.045743534563027446,0.07321533516863185,-0.03735042482280496,0.005404188886369744,-0.1100719957119075,0.010031302562568789,0.2,0.0,0.0,-0.04208800712515184,-0.0034733389762441115,-0.04335045916770732,0.0,0.0,0.0,0.3943833809821448,-0.13893288417997157,0.3378218364675574,-0.5932728052807249,0.1362360772640227,-0.543160689053436,1.0
30.9939999999937,-0.00586677406178241,-0.11397543473715449,0.013299640305745231,0.9965298074124413,0.0018597632478380077,0.08294534879446432,0.006704724643784751,0.004886097953882581,0.16605213637514005,0.013862550696606846,0.04732266470259778,0.07354432618568556,-0.03788615906339782,0.005197942655936157,-0.1150818935756437,0.009642468642876753,0.2,0.0,0.0,-0.04069730453033326,-0.003562861423072248,-0.04505566900270939,0.0,0.0,0.0,0.3867864606653465,-0.13226568385264248,0.3315746454665446,-0.5860958925723443,0.14348701944846104,-0.5230641068576372,1.0
31.01599999999369,-0.004809711093957481,-0.11235428565574525,0.012461120410805283,0.9966350093409727,0.0019330441641941586,0.08166185712910763,0.006801660562241962,0.005031047844459031,0.16347498284914555,0.01406118317321223,0.04892290087018233,0.0738591457656996,-0.038381158789106716,0.004973598329694058,-0.11998940321674688,0.009265471707616775,0.2,0.0,0.0,-0.039264176929732074,-0.0036389572355632694,-0.04671371545707223,0.0,0.0,0.0,0.37917235187991993,-0.1256773741751104,0.325375947601118,-0.5788713937035934,0.1503938556051018,-0.5033406775282137,1.0
31.037999999993676,-0.0037172351584181633,-0.11072635176923046,0.01161212080751376,0.9967428762294221,0.002003811663321903,0.08032488903100166,0.006894608536675233,0.005168883583850617,0.16079083525936574,0.01425050948824594,0.05054383731896009,0.07415985250029838,-0.03883506879625017,0.0047314626130677325,-0.12478985768684299,0.008900088603577834,0.2,0.0,0.0,-0.03779033717330069,-0.003702012327390938,-0.048323137306190284,0.0,0.0,0.0,0.3715441260245907,-0.11916482946258378,0.31922420615642955,-0.5716039690545924,0.15694598037271693,-0.48400243042892277,1.0
31.059999999993664,-0.0025888951891288024,-0.10909194305654252,0.010753548715881344,0.9968530998959134,0.0020718838565711053,0.0789356218925801,0.006983704004646839,0.005299288189578256,0.15800209122576428,0.014430794995284576,0.05218503379316383,0.07444649501920242,-0.0392475711321557,0.004471876076258636,-0.12947887255192253,0.008546061240030423,0.2,0.0,0.0,-0.03627751873242977,-0.003752431623751295,-0.04988253140644955,0.0,0.0,0.0,0.3639047725921629,-0.11272536433606295,0.313118018941066,-0.5642978913162173,0.16313317528706242,-0.4650610568489574,1.0
31.081999999993652,-0.001424250147688904,-0.10745136851972607,0.009886317987747733,0.996965366766019,0.002137081550951118,0.07749528034616478,0.0070690788375569235,0.005421953392317076,0.15511124207647237,0.014602303852300479,0.05384601590747686,0.07471911280148633,-0.03961838395423538,0.004195212469402378,-0.13405234522354975,0.008203099834872267,0.2,0.0,0.0,-0.034727473042179234,-0.003790637287583374,-0.05139055191189252,0.0,0.0,0.0,0.3562571869755886,-0.10635672806175406,0.3070561297687071,-0.5569570504384026,0.1689455992946029,-0.44652791882829845,1.0
31.10399999999364,-0.0002228697701830907,-0.1058049363772837,0.009011348323346047,0.9970793590750385,0.0021992286058046206,0.07600513329595941,0.007150860977121065,0.005536580031469267,0.15212086666716146,0.014765298296567728,0.05552627555159724,0.0749777369689368,-0.0399472604414649,0.003901878013773473,-0.1385064530837556,0.007870886158658472,0.2,0.0,0.0,-0.03314196697166322,-0.0038170669995746982,-0.05284590940432521,0.0,0.0,0.0,0.3486041592854563,-0.10005709721024209,0.301037438962798,-0.5495849602931218,0.17437377994534295,-0.42841405733591453,1.0
31.125999999993628,0.0010156646951189096,-0.10415295424026798,0.00812956451124073,0.9971947560594738,0.0022581522893897026,0.0744664909702218,0.007229174109612683,0.005642878456138784,0.1490336252527818,0.01492003797101684,0.05722527131971465,0.07522239105894346,-0.040233987764262576,0.003592310669513597,-0.14283765048013042,0.0075490767588950805,0.2,0.0,0.0,-0.03152278042780221,-0.0038321722964981234,-0.054247369947219355,0.0,0.0,0.0,0.34094836420909774,-0.09382506676004759,0.2950610128619824,-0.5421847669353679,0.17940860534248987,-0.41073019973045255,1.0
31.147999999993615,0.002291759759758007,-0.10249572927159263,0.00724189569030167,0.9973112351319844,0.002313683634691108,0.07288070200486885,0.007304137377731687,0.005740568931659131,0.14585225343564406,0.015066779302138475,0.05894242896467242,0.07545309177476502,-0.04047838611786124,0.0032669793801430435,-0.1470426646722502,0.007237306147994199,0.2,0.0,0.0,-0.02987170409700797,-0.0038364169715400884,-0.05559375407394707,0.0,0.0,0.0,0.3332923519360938,-0.08765963976910329,0.28912609230686914,-0.5347592583439524,0.18404131691276557,-0.39348676644457203,1.0
31.169999999993603,0.003605808977318275,-0.10083356832907894,0.006349274632273847,0.9974284730345301,0.002365657793745607,0.07124915056895041,0.0073758651297812046,0.005829382051582867,0.14257955621200458,0.01520577492921905,0.06067714187661959,0.07566984971141928,-0.0406803078234,0.0029263832939274243,-0.15111849081412143,0.006935189939366268,0.2,0.0,0.0,-0.028190537328684224,-0.0038302755394056436,-0.056883935721068535,0.0,0.0,0.0,0.32563854016936516,-0.08156021573531817,0.2832321000915558,-0.5273108755235615,0.1882635030478138,-0.3766938768448961,1.0
31.19199999999359,0.004958192192832053,-0.09916677809163504,0.005452636737752811,0.9975461469648044,0.0024139143899239513,0.06957325354229917,0.007444466705653897,0.005909059155200982,0.13921840213887782,0.015337273184402533,0.06242876281617997,0.07587267028937922,-0.040839698097457335,0.0025710510964186096,-0.15506238555756802,0.006642327917835875,0.2,0.0,0.0,-0.026481086161986623,-0.0038142317675265414,-0.05811684111381363,0.0,0.0,0.0,0.3179891667149658,-0.07552662127141799,0.27737869080533617,-0.5198416842612722,0.19206777394019758,-0.36036067665206584,1.0
31.21399999999358,0.006349274431615788,-0.09749566516005756,0.004552916411912385,0.9976639356701439,0.002458297872657876,0.06785445777487026,0.007510046258701892,0.005979352760951591,0.1357717176810413,0.015461517623106245,0.06419658922655992,0.07606155488275913,-0.04095670508641422,0.0022015413468357004,-0.15887185584800917,0.0063583070428009265,0.2,0.0,0.0,-0.02474516148669031,-0.0037887772702579685,-0.05929144758539683,0.0,0.0,0.0,0.3103462189664332,-0.06955916647829585,0.2715658264375431,-0.5123533238421613,0.19544900569408014,-0.34449409855208196,1.0
31.235999999993567,0.007779404933730274,-0.09582053614528485,0.003651044260387148,0.997781520503292,0.0024986578808367187,0.06609423746497338,0.007572702612531398,0.006040027029564503,0.13224248181335918,0.015578746604448667,0.06597988810834055,0.07623650088327212,-0.0410315148549273,0.0018184423172258107,-0.16254464877658387,0.0060827043807323115,0.2,0.0,0.0,-0.02298457736400818,-0.0037544101746060164,-0.06040678238101629,0.0,0.0,0.0,0.30271154818552937,-0.0636585030410303,0.26579365412637057,-0.5048471409833224,0.1984025527251572,-0.329100642400986,1.0
31.257999999993554,0.00924891654110703,-0.09414169775114786,0.0027479466041259626,0.9978985864398433,0.002534849604255903,0.06429409162264789,0.007632529152620345,0.0060908582356859866,0.128633720811379,0.015689192920134123,0.06777789934862175,0.07639750223934542,-0.0410643326138415,0.001422371024465826,-0.16607874418938273,0.005815089935358519,0.2,0.0,0.0,-0.021201149513104037,-0.003711633859142508,-0.06146192147860861,0.0,0.0,0.0,0.2950868788742016,-0.057825594080855164,0.26006249530082604,-0.49732421849588365,0.20092404355530022,-0.3141865780513285,1.0
31.279999999993542,0.010758125107776777,-0.09245945684431517,0.0018445450648623904,0.998014823055628,0.0025667341386460068,0.06245554160722043,0.007689613751906382,0.006131635239263299,0.12494850320864764,0.015793083469988096,0.06958983642872449,0.07654455003092672,-0.04105538183179047,0.0010139722433682927,-0.1694723467878993,0.00555502936145634,0.2,0.0,0.0,-0.019396693947957382,-0.003660955759764531,-0.06245598841179629,0.0,0.0,0.0,0.287473806770912,-0.05206169659253941,0.25437284703665203,-0.4897853921999066,0.20300937262754437,-0.2997579529361455,1.0
31.30199999999353,0.012307328926427684,-0.09077412051188623,0.0009417561741163823,0.9981299254614469,0.0025941788334399693,0.06058012874423627,0.007744038729124233,0.006162159955391733,0.12118993493137167,0.01589063898232902,0.0714148871732522,0.07667763301587907,-0.041004903186232684,0.0005939174825463996,-0.17272387782600107,0.005302086553758975,0.2,0.0,0.0,-0.017573025763682432,-0.0036028862404909375,-0.06338815310567554,0.0,0.0,0.0,0.27987379786385835,-0.0463683433104166,0.2487253823908442,-0.48223126840612746,0.2046546902642378,-0.2858206015055912,1.0
31.323999999993518,0.013896808171469358,-0.08908599610723193,4.049100426268415e-05,0.9982435951930048,0.002617057631310155,0.05866941202576482,0.007795880838573187,0.006182247820949369,0.1173611546185078,0.015982073777199554,0.0732522145016661,0.07679673814977184,-0.04091315361562399,0.0001629039238984606,-0.17583196648182914,0.005055826103445368,0.2,0.0,0.0,-0.0157319580709345,-0.0035379375270404804,-0.06425763073661059,0.0,0.0,0.0,0.2722881882338757,-0.040747324282916164,0.24312094990084987,-0.47466224168356064,0.20585639363260255,-0.27238015365092544,1.0
31.345999999993506,0.015526824358651353,-0.0873953912846569,-0.0008583451805633441,0.9983555410542981,0.002635251400746003,0.05672496589733016,0.007845211289772459,0.006191728260721261,0.11346532913368898,0.01606759557034507,0.07510095718171723,0.07690185108021724,-0.04078040547332715,-0.0002783440861825174,-0.17879544097974515,0.004815815616709853,0.2,0.0,0.0,-0.01387530107625511,-0.0034666227004500807,-0.06506368062711976,0.0,0.0,0.0,0.26471818470783104,-0.03520066823634525,0.23756057225168248,-0.4670785128162607,0.20661111871640178,-0.2594420421023654,1.0
31.367999999993494,0.017197619821267336,-0.08570261402341954,-0.0017538532560026597,0.9984654799126705,0.0026486484133440413,0.05474837813516953,0.007892095787068327,0.006190445456866245,0.10950564927377873,0.016147405315519208,0.07696023058373462,0.07699295661863896,-0.04060694578794752,-0.0007290413954296887,-0.18161331953265003,0.004581627922214851,0.2,0.0,0.0,-0.012004861305422398,-0.00338945474757155,-0.06580560518680714,0.0,0.0,0.0,0.2571648661526036,-0.029730623656941818,0.23204544424226264,-0.4594801069816282,0.2069157332236104,-0.24701150883508502,1.0
31.38999999999348,0.018909417202971554,-0.08400797264158916,-0.0026451405536953433,0.9985731374441781,0.0026571450966786526,0.05274124781671224,0.00793659458220794,0.006178259683507863,0.10548532567732608,0.016221697081528107,0.07882912743725476,0.07707003918964102,-0.040393075614495406,-0.0011883536605007308,-0.1842848011704995,0.004352843167255507,0.2,0.0,0.0,-0.010122440966092746,-0.0033069456649308855,-0.06648274891014576,0.0,0.0,0.0,0.24962918540256201,-0.024339639655113557,0.22657693006189897,-0.4518668920901682,0.20676733019333482,-0.23509361072367146,1.0
31.41199999999347,0.020662418967262976,-0.08231177580025516,-0.003531321164142752,0.9986782488301511,0.002660646477245889,0.05070518338085608,0.007978762571987838,0.006155048033377949,0.10140758493482402,0.016290657961376617,0.08070671858910022,0.07713308325750225,-0.04013910948330942,-0.0016554224796598673,-0.1868092565205699,0.004129050706864361,0.2,0.0,0.0,-0.008229837445231952,-0.003219605612152045,-0.06709449744168057,0.0,0.0,0.0,0.24211197223349096,-0.01903034711803822,0.22115655950328877,-0.4442385968198568,0.20616322281551733,-0.22369322396799357,1.0
31.433999999993457,0.022456806923648306,-0.08061433249854309,-0.004411516228551011,0.9987805594041268,0.0026590664963519837,0.04864180077997149,0.008018649426773999,0.006120704903086085,0.09727566590133407,0.016354468012133524,0.08259205376192234,0.07718207373397125,-0.039845374956973045,-0.002129366933000652,-0.18918621859751794,0.003909850828322436,0.2,0.0,0.0,-0.006328842936055949,-0.0031279421109221338,-0.06764027671894753,0.0,0.0,0.0,0.2346139371185294,-0.013805539974075465,0.21578602329151525,-0.4365948284367066,0.205100940383992,-0.21281504729108572,1.0
31.455999999993445,0.024292741770510325,-0.078915952059837,-0.005284854221923641,0.9988798252487967,0.0026523283080402155,0.04655272172445572,0.008056299741528489,0.006075142455422472,0.09309281621077722,0.016413300223322304,0.08448416231461238,0.07721699636858889,-0.03951221228660252,-0.002609285411672474,-0.19141537365635736,0.0036948563216700377,0.2,0.0,0.0,-0.004421244188428656,-0.003032459285330493,-0.06811955220305942,0.0,0.0,0.0,0.2271356756879881,-0.008668156552747608,0.21046716757528283,-0.42893509038588196,0.20357822519423707,-0.2024636040681097,1.0
31.477999999993433,0.026170362654729735,-0.07721694410957415,-0.006150471229577166,0.9989758137431466,0.00264036455617523,0.044439572019266585,0.008091753207640589,0.006018291052675508,0.08886228899006178,0.016467320511511414,0.08638205400530695,0.0772378381234025,-0.0391399741663989,-0.00309425751795732,-0.19349655215692857,0.003483693895783193,0.2,0.0,0.0,-0.0025088223759086085,-0.0029336571393229205,-0.06853182820651713,0.0,0.0,0.0,0.2196776738662189,-0.0036212610793999594,0.2052019875833202,-0.421258799590354,0.20159303036698029,-0.19264324338306393,1.0
31.49999999999342,0.028089786748126722,-0.07551761854493663,-0.007007511219229897,0.999068304060201,0.002623117629541501,0.042303979991407954,0.008125044803735028,0.005950099658382241,0.08458733977020709,0.016516687738811486,0.0882847197579608,0.07724458753396991,-0.03872902558527276,-0.003583346026591927,-0.195429719883564,0.003276005440890439,0.2,0.0,0.0,-0.0005933530718932698,-0.0028320308669907944,-0.06887664732733094,0.0,0.0,0.0,0.21224031365526835,0.0013319746647173503,0.19999262045201396,-0.4135653034021507,0.19914351857727752,-0.18335814001116,1.0
31.521999999993408,0.03005110884081271,-0.0738182854967226,-0.007855126310786319,0.9991570876159884,0.002600539893915679,0.04014757500691387,0.00815620500361079,0.005870536205097781,0.08027122359070983,0.016561553753033923,0.09019113243371595,0.07723723505853469,-0.03827974377419217,-0.004075598901869882,-0.1972149692588399,0.003071449139215518,0.2,0.0,0.0,0.0013233936734008734,-0.0027280701914548055,-0.06915358999802194,0.0,0.0,0.0,0.20482387953352404,0.006188289492492741,0.19484133723218255,-0.40585389615786654,0.19622806166791978,-0.17461229332585446,1.0
31.543999999993396,0.03205440095157207,-0.07211925528363883,-0.008692477045908089,0.9992419684705239,0.002572593900167063,0.0379719860755012,0.008185259999455475,0.005779587925926477,0.07591719229259498,0.016602063447327668,0.09210024760855676,0.07721577341720785,-0.037792518247740145,-0.004570051364686495,-0.19885251088558253,0.0028697004261783636,0.2,0.0,0.0,0.0032396531640818665,-0.002622258728195162,-0.06936227415746771,0.0,0.0,0.0,0.1974285654365729,0.01094435075203394,0.18975053408452952,-0.3981238352961,0.192845241125403,-0.1664095251307322,1.0
31.565999999993384,0.03409971195542915,-0.07042083835921667,-0.009518732659427868,0.9993227636817581,0.0025392525675399812,0.03577884054073022,0.008212231938481137,0.0056772616477292065,0.07152849199489081,0.016638354837184385,0.09401100435899659,0.07718019792291404,-0.037267750938207424,-0.00506572800333756,-0.2003426653467133,0.0026704528052725243,0.2,0.0,0.0,0.005153665807453736,-0.0025150733688347345,-0.06950235505290776,0.0,0.0,0.0,0.1900544822863129,0.015596772044891433,0.1847227226754678,-0.39037435700066014,0.18899384939633743,-0.1587534764177071,1.0
31.58799999999337,0.03618706722859699,-0.06872334525151602,-0.010333071354623592,0.9993993036135741,0.002500499341376153,0.033569762853224494,0.00823713917113757,0.005563584044106625,0.06710836074865995,0.016670559152787697,0.09592232605779316,0.07713050680575946,-0.03670585642037133,-0.005561644921567629,-0.2016858552881104,0.0024734185203578373,0.2,0.0,0.0,0.00706367679085093,-0.002406983681577829,-0.06957352517870294,0.0,0.0,0.0,0.18270166603360738,0.020142130711868517,0.17976051978701652,-0.3826046913389749,0.18467289202183287,-0.1516476030545077,1.0
31.60999999999336,0.03831646831104992,-0.06702708649574632,-0.01113468058432826,0.9994714321990288,0.0024563283246431256,0.031346373424259125,0.008259996509077482,0.005438601846454754,0.06266002636221041,0.016698800944775657,0.09783312118193252,0.07706670153235025,-0.03610726222492668,-0.0060568119170874065,-0.20288259780546525,0.0022783290896683317,0.2,0.0,0.0,0.008967935697230638,-0.002298451324755566,-0.06957551435765438,0.0,0.0,0.0,0.17537008617894603,0.024576985080847075,0.1748666361568757,-0.37481407687070034,0.17988159056713826,-0.14509517040614064,1.0
31.631999999993347,0.04048789258701475,-0.0653323725599014,-0.011922757339803643,0.9995390071601196,0.00240674438274601,0.029110287556821938,0.008280815491075023,0.005302382011595222,0.05818670439068595,0.016723198201588133,0.09974228413535381,0.07698878712144056,-0.03547240923833609,-0.006550234683545885,-0.20393349715214393,0.0020849357063334644,0.2,0.0,0.0,0.010864696070857018,-0.002189929470217595,-0.06950808996985146,0.0,0.0,0.0,0.1680596547350463,0.028897891474267967,0.1700438645671547,-0.3670017747065782,0.17461938632355697,-0.1390992468969884,1.0
31.653999999993335,0.04270129298373094,-0.06363951376347698,-0.01269650844925505,0.999601900185422,0.002351763221213065,0.026863114451088507,0.008299604655133463,0.005155011844695417,0.05369159628289924,0.01674386247667872,0.10164869608910082,0.07689677245712219,-0.03480175218664954,-0.007040917028753271,-0.20483923778135088,0.0018930095106523136,0.2,0.0,0.0,0.012752214944876276,-0.0020818622336307015,-0.06937105733311394,0.0,0.0,0.0,0.1607702355946909,0.03310142097674197,0.16529506720295306,-0.35916708200251424,0.16888594475932958,-0.1336626965224629,1.0
31.675999999993323,0.044956484564793085,-0.06194709203136702,-0.01345520134041511,0.9996599962022045,0.0022914111044216668,0.024606491261159703,0.008316370360465182,0.004996599035389955,0.04917795765936139,0.016760900303414556,0.10348034828790614,0.07750337065780961,-0.034114510430363135,-0.007528129208959858,-0.20551960698540772,0.001704764351679009,0.2,0.0,0.0,0.014628752213313634,-0.0019746841216734677,-0.06916425949347697,0.0,0.0,0.0,0.7306779666249483,-0.7076313984141989,0.8734115910115694,-0.8964582018068264,0.727920210536389,-0.7604782124754536,1.0
31.69799999999331,0.04724546870481874,-0.06022632616889321,-0.014198544639766908,0.9997130817425546,0.002225669870281733,0.022347032494861245,0.00833130992736539,0.00482725440767819,0.044658999321767104,0.016774824502658964,0.1045655282634188,0.07905692247141591,-0.03338301285263781,-0.008014637284849288,-0.20494018686468668,0.001560088401065543,0.2,0.0,0.0,0.0164925689080443,-0.0018688196196879302,-0.06888757229079188,0.0,0.0,0.0,0.49981186500432945,-0.9410153915677029,1.1062208536548772,-0.6650165118536482,0.7302789431604371,-0.7599220976827779,1.0
31.7199999999933,0.049550157675062434,-0.05847186454049617,-0.014925084066202314,0.9997608191185808,0.0021544334212137014,0.020100337981150837,0.008345021570988364,0.004647076523920634,0.040165902210968635,0.016786988073776158,0.10493282450382065,0.08057480656266147,-0.03258625851741243,-0.00850015662469257,-0.20306208551271226,0.0014743406087739737,0.2,0.0,0.0,0.018341931201147046,-0.0017646821328511251,-0.06854092892155998,0.0,0.0,0.0,0.3931949106424545,-1.0496384011381856,1.2147616366121528,-0.558316933166952,0.7319150991840468,-0.7600708344078021,1.0
31.741999999993286,0.05186184224835332,-0.05668414374690875,-0.015633742653273053,0.9998031231884429,0.0020776549215163844,0.017875655266318766,0.008358179314963568,0.004456164454506094,0.03571713475923212,0.016798850170197686,0.1052491875378139,0.08208015026729706,-0.031756862798154796,-0.00898404641179244,-0.20096807289517388,0.0014488558278073073,0.2,0.0,0.0,0.020175106408830273,-0.0016626737002165275,-0.06812429822570326,0.0,0.0,0.0,0.38968068125708966,-1.054482656905889,1.220052443874501,-0.555249239831765,0.7329809704416171,-0.7606534021712617,1.0
31.763999999993274,0.05418047846228191,-0.05486342581248205,-0.01632385366338922,0.9998401150048811,0.001995357680326397,0.01567426135996207,0.00837141001098559,0.004254607426802173,0.03131522057156532,0.016811728619410212,0.1055641639821358,0.08357336881641472,-0.030897440670981154,-0.0094656427443044,-0.1987867174415639,0.0014780609175414155,0.2,0.0,0.0,0.021990361709092073,-0.0015631846141520558,-0.06763768531690476,0.0,0.0,0.0,0.38582154629728604,-1.0590295006847175,1.2255450624857867,-0.5523358641721943,0.7335162188766696,-0.7616338183819775,1.0
31.785999999993262,0.05650601710008538,-0.053009981810319115,-0.016994760373363945,0.9998719296840453,0.0019075711953968953,0.013497128282715477,0.008385280565190539,0.004042488466968714,0.026962074940109725,0.01682681633398934,0.1058762474680456,0.08505403950998583,-0.030008395720833143,-0.009944264134614546,-0.19651898625196823,0.0015568439380237629,0.2,0.0,0.0,0.023785964740821734,-0.0014665927499210782,-0.06708113881959367,0.0,0.0,0.0,0.38163530059168677,-1.0632948930856458,1.231227913779628,-0.5495670617429163,0.7335200782946679,-0.763018617096521,1.0
31.80799999999325,0.0588383842148652,-0.051124091797633206,-0.01764581546280055,0.9998987095494591,0.0018143294358679476,0.011345208827895342,0.00840030277280467,0.003819887619809124,0.022659576567673173,0.016845192599323315,0.10618440697850799,0.08652176509949054,-0.02909016977504827,-0.010419211717883958,-0.19416690146972132,0.0016803653701514148,0.2,0.0,0.0,0.02556018323028459,-0.0013732629915722229,-0.06645475235914905,0.0,0.0,0.0,0.3771380092106963,-1.067295677281325,1.2370910694720387,-0.5469321261562601,0.7329920946763331,-0.7648139465422515,1.0
31.829999999993237,0.061177483117157955,-0.04920604439499953,-0.01827638153518458,0.9999206036974702,0.0017156714707487898,0.009219433615591495,0.008416936289320217,0.003586884768213293,0.018409561710869875,0.016867829079482474,0.10648760510094231,0.0879761659890029,-0.028143225190978095,-0.010889769555080545,-0.1917323824838259,0.0018440490279508755,0.2,0.0,0.0,0.027311284679551136,-0.0012835466558782421,-0.06575866618188726,0.0,0.0,0.0,0.37234538423715813,-1.0710482137480088,1.24312489055699,-0.5444207700115893,0.731932022477721,-0.7670256873559389,1.0
31.851999999993225,0.06352319423053088,-0.04725613639546915,-0.01888583157909357,0.9999377674949924,0.0016116420259260072,0.007120712245048312,0.008435591516485937,0.0033435622766761403,0.01421382650815096,0.016895595625951103,0.10678479819496436,0.08941688049322541,-0.027168045834620288,-0.011355205114470975,-0.18921723830769516,0.0020435731830559275,0.2,0.0,0.0,0.029037536133639026,-0.0011977809146225802,-0.06499306891670611,0.0,0.0,0.0,0.3672727943187746,-1.0745683606732415,1.2493200115810503,-0.5420231383147249,0.7303398349509223,-0.7696594365353507,1.0
31.873999999993213,0.0658753749636418,-0.04527467236800379,-0.019473549451735864,0.9999503620926166,0.001502292003368754,0.005049934467984503,0.008456632394112042,0.00309000745948926,0.010074129336980491,0.016929265855682354,0.10707493730992769,0.09084356508700753,-0.02616513812330388,-0.011814769919568549,-0.1866231690124936,0.0022748617742498326,0.2,0.0,0.0,0.03073720403889626,-0.0011162882164181332,-0.06415819947021688,0.0,0.0,0.0,0.3619352732163206,-1.0778714577040391,1.2556673258143451,-0.5397298184489869,0.7282157351988865,-0.7727204905566136,1.0
31.8959999999932,0.06823385960303638,-0.04326196425561996,-0.0200389303858463,0.9999585539540184,0.0013876789625601636,0.003007971348660085,0.008480379098228859,0.0028263148761531473,0.005992193132538989,0.016969522504230478,0.10735696915712331,0.0922558946350126,-0.02513503210941664,-0.012267700351221034,-0.1839517674906171,0.0025340757110469702,0.2,0.0,0.0,0.032408554205096134,-0.0010393757095907216,-0.06325434904720147,0.0,0.0,0.0,0.3563475292157637,-1.0809723110243639,1.2621579694620597,-0.5375318487213845,0.7255601678801161,-0.7762138277530412,1.0
31.91799999999319,0.07059845922788345,-0.04121833096867778,-0.020581381520799434,0.9999625144018076,0.0012678675640389213,0.000995676407559072,0.008507110646155365,0.0025525884569426696,0.00196970766242416,0.017016962559830914,0.1076298371372542,0.09365356260166727,-0.02407828260085043,-0.012713218591727436,-0.1812045214633377,0.0028176042636788123,0.2,0.0,0.0,0.03404985188330434,-0.0009673346680147112,-0.06228186328706715,0.0,0.0,0.0,0.3505239553733926,-1.0838851797637665,1.2687833049305401,-0.5354207254652497,0.7223738315417797,-0.7801440899612625,1.0
31.939999999993177,0.0729689616478807,-0.039144097973747974,-0.02110032245870082,0.9999624191797294,0.001142929975042736,-0.000986113254012777,0.008537067408963539,0.0022689434618930237,-0.0019916682473558414,0.017072102184066962,0.10789248242477392,0.09503628124138093,-0.02299547031336074,-0.013150533699109838,-0.17838281571433007,0.003122056535639276,0.2,0.0,0.0,0.035659361971080425,-0.000900439922125903,-0.061241144505830535,0.0,0.0,0.0,0.34447864054534694,-1.0866237637295073,1.2755349031824355,-0.5333884086928291,0.7186576915547387,-0.7845155634480041,1.0
31.961999999993164,0.07534513136559694,-0.037039596878492675,-0.02159518584610659,0.9999584480309428,0.0010129462373521469,-0.0029365758509342626,0.008570453531797341,0.0019755082767714434,-0.005890304539467519,0.01713538142459188,0.10814384511059076,0.09640378176886487,-0.021887203049558532,-0.01357884279993729,-0.17548793453288813,0.0034442530182389034,0.2,0.0,0.0,0.03723534935601088,-0.0008389492976335963,-0.06013265403203708,0.0,0.0,0.0,0.3382253811397439,-1.0892011924439524,1.2824045252314196,-0.5314273263047802,0.7144129936192979,-0.7893321591382708,1.0
31.983999999993152,0.07772670956454854,-0.034905165013000665,-0.02206541798190058,0.9999507842919165,0.000878004597535775,-0.004854903835233518,0.008607439262515068,0.0016724260498611951,-0.009724597809481043,0.01720716872525974,0.10838286540450685,0.09775581450922718,-0.02075411689878976,-0.013997332389402296,-0.17252106435218317,0.0037812172293173094,0.2,0.0,0.0,0.03877607940790699,-0.000783103064730641,-0.058956914623971304,0.0,0.0,0.0,0.3317776935186689,-1.0916300154609557,1.2893841028411175,-0.5295303768747462,0.7096412778059638,-0.7945973921731094,1.0
32.00599999999315,0.08011341412433715,-0.03274114500802649,-0.022510479451727218,0.9999396145013644,0.0007382017998960567,-0.0067403028432158375,0.008648163189164244,0.0013598561736094686,-0.013492969251029108,0.017287765238946314,0.10860848489859563,0.09909214902737415,-0.01959687745168289,-0.014405179727682557,-0.16948329656938937,0.004130167440435224,0.2,0.0,0.0,0.04027981862928402,-0.0007331234008315921,-0.057714512954464385,0.0,0.0,0.0,0.32514882696851133,-1.0939221939292705,1.296465718505124,-0.5276909310363378,0.7043443930908859,-0.8003143608329865,1.0
32.025999999993175,0.08228733751155722,-0.0307484707669338,-0.022892796854352433,0.9999265770011178,0.0006069785903457892,-0.008425068789011959,0.008688521146834147,0.001067617215492019,-0.016860246676210056,0.017368880559899415,0.10880107632109241,0.10029319816964485,-0.018524467442295373,-0.01476601631210719,-0.1666610094220084,0.004455608782318439,0.2,0.0,0.0,0.0416132977029088,-0.0006929498242308434,-0.05652775775193382,0.0,0.0,0.0,0.3189763034018225,-1.095896991945171,1.3029855412668856,-0.5260634171612217,0.6990751402547193,-0.8059058538838877,1.0
32.0459999999932,0.08446499938782255,-0.028731894953001533,-0.023253495574806042,0.999910942456978,0.00047191066761295307,-0.010081394479113182,0.008732121190007752,0.0007678296312157998,-0.0201706025899702,0.017457609804164605,0.10898092990090252,0.10148095423223424,-0.017433217138673695,-0.015116742906829957,-0.16378164315596616,0.00478698751802119,0.2,0.0,0.0,0.04291347591290029,-0.0006579323639274628,-0.05528698884121891,0.0,0.0,0.0,0.3126743796684567,-1.0977763685085635,1.3095774837928713,-0.5244740442733765,0.6933755305496088,-0.8118745544366082,1.0
32.065999999993224,0.08664613791022235,-0.02669168463191079,-0.023592203886728516,0.9998928563817545,0.00033308996785261365,-0.01170870729765399,0.008779007986551941,0.000460653264100461,-0.02342289566751435,0.017554051045291175,0.1091472590603322,0.10265528587145355,-0.016323695140461298,-0.015456727828047561,-0.1608458260644896,0.0051225991093268326,0.2,0.0,0.0,0.0441790571260604,-0.0006281969166649173,-0.05399279510271746,0.0,0.0,0.0,0.30625249214991934,-1.0995680172973241,1.316235835039793,-0.5229188440363635,0.6872476807747157,-0.8182218023623373,1.0
32.08599999999325,0.08883047554439237,-0.024628109376182983,-0.02390856164445057,0.9998724655401269,0.00019061476708842205,-0.013306441075943405,0.008829209852031773,0.00014626199727410945,-0.026615996448548146,0.017658266471164006,0.10929928185196351,0.1038160750842924,-0.015196493372122151,-0.015785337203938207,-0.15785412989224573,0.005460851100030719,0.2,0.0,0.0,0.04540874876950569,-0.0006038557455109997,-0.05264581579032652,0.0,0.0,0.0,0.29971993107917305,-1.1012792154590594,1.322954931335239,-0.5213941658668463,0.6806939591430486,-0.8249485944646798,1.0
32.10599999999327,0.09101771916579697,-0.02254144099822829,-0.024202220756139092,0.99984991774318,4.458975678404548e-05,-0.014874035532703504,0.008882739874736367,-0.0001751557484910119,-0.029748786269832614,0.017770284522027908,0.10943622192925442,0.10496321722115205,-0.014052227819174555,-0.016101936040798685,-0.15480707203864397,0.005800258304313561,0.2,0.0,0.0,0.04660126276907919,-0.0005850072153629328,-0.051246742140596886,0.0,0.0,0.0,0.2930858494708887,-1.1029168217474656,1.329729142652481,-0.5198966740033106,0.6737169953455098,-0.8320555699665131,1.0
32.1259999999933,0.09320756018074258,-0.020431953283268196,-0.02447284567152756,0.9998253616484193,-0.00010487389977845393,-0.01641093573496201,0.008939596991865134,-0.0005033965899242379,-0.03282015624204361,0.01789010193421699,0.1095573095525107,0.10609662098419241,-0.01289153924804004,-0.01640588931236663,-0.1517051178351429,0.006139438071496556,0.2,0.0,0.0,0.047755316598400176,-0.0005717355473979484,-0.04979631896650851,0.0,0.0,0.0,0.286359272054602,-1.1044872752418287,1.3365528588215558,-0.518423343930821,0.6663196907177917,-0.8395429958375548,1.0
32.14599999999332,0.09539967466782533,-0.018299921722424426,-0.02472011388386287,0.9997989465646863,-0.0002576585299061069,-0.01791659158039155,0.008999767017490197,-0.0008382418269678476,-0.035829006272246396,0.01801768569236993,0.10966178262977191,0.10721620841074816,-0.011715093904981303,-0.01669656306813783,-0.14854868289382184,0.006477105632060633,0.2,0.0,0.0,0.048869634440141314,-0.0005641105943313076,-0.04829534622623159,0.0,0.0,0.0,0.2795491041569851,-1.1059965946332198,1.3434204757406258,-0.5169714581884742,0.6585052284756522,-0.8474107520066022,1.0
32.165999999993346,0.09759372354050626,-0.01614562324627807,-0.024943716445608662,0.9997708222613776,-0.0004136399322589118,-0.019390457301861744,0.009063223622970202,-0.001179457156642918,-0.038774244133247766,0.018152974892938843,0.10974888779194998,0.10832191484126148,-0.010523584189485432,-0.016973325556710408,-0.1453381355248562,0.006812069529756154,0.2,0.0,0.0,0.049942948460584446,-0.0005621876383118825,-0.04674468055705106,0.0,0.0,0.0,0.2726641404793282,-1.107450378062474,1.3503263816534568,-0.5155386015863974,0.6502770839826845,-0.8556583165053877,1.0
32.18599999999337,0.09978935273149105,-0.013969335959213467,-0.025143358497351435,0.9997411387813706,-0.0005726873755212874,-0.02083199099494778,0.009129929270549874,-0.0015267924526727891,-0.0416547845810489,0.018295882521826515,0.10981788150134371,0.10941368887117643,-0.009317729297334468,-0.017235548360412873,-0.14207379922087066,0.007143227144514524,0.2,0.0,0.0,0.05097400019794335,-0.0005660072132438931,-0.04514523676445571,0.0,0.0,0.0,0.26571307371684744,-1.1088538034971163,1.3572649435600213,-0.5141226558587496,0.6416390350132906,-0.864284750593992,1.0
32.205999999993395,0.10198619339957263,-0.011771338874872549,-0.02531875980925972,0.9997100462570229,-0.0007346636145158838,-0.02224065416911913,0.009199836100937586,-0.0018799816084905197,-0.04446954852158628,0.018446297149013007,0.10986803119242661,0.11049149228625213,-0.008098275828521686,-0.01748260753770051,-0.13875595520643286,0.007469560310711172,0.2,0.0,0.0,0.05196154206437851,-0.0005755949532602089,-0.04349798925628783,0.0,0.0,0.0,0.25870450296685865,-1.1102116296362525,1.3642304938283676,-0.5127217937788844,0.6325951719723528,-0.8732886839204009,1.0
32.22599999999342,0.10418386215957048,-0.009551911653056076,-0.025469655334349136,0.9996776947286664,-0.0008994249232809983,-0.023615911323316134,0.009272886775710079,-0.0022387424412879807,-0.04721746222792366,0.01860408454305626,0.10989861644357644,0.11155529998076243,-0.006865998355098827,-0.017713884770031673,-0.13538484505119058,0.007790131035127275,0.2,0.0,0.0,0.052904338961048306,-0.0005909614690000815,-0.041803973411763215,0.0,0.0,0.0,0.2516469418737819,-1.1115281973348956,1.3712173170767297,-0.5113344727621536,0.6231499080320255,-0.8826682997695032,1.0
32.245999999993444,0.10610001677711928,-0.0074422188922875524,-0.025535287476737868,0.9996442024353162,-0.001066851332146273,-0.0249583848099685,0.009349299084563025,-0.0026028731293575784,-0.049899766444878285,0.01876966298428131,0.07731243437945676,0.09829761137370449,0.0007887516995070005,-0.01794214992523802,-0.13250020493137943,0.008239725370175628,0.2,0.0,0.0,0.0538019009663907,-0.0006120129033595144,-0.040064978792650245,-27.335924475090216,-15.886475847534658,8.269813899912588,0.395914923108296,-1.0825010415079173,1.3461491564385044,-0.659561769393097,0.5911944242706855,-1.0252267555365653,1.0
32.26599999999347,0.10736100630069473,-0.00558473710171432,-0.025457696766832287,0.9996094540714856,-0.001236919915340933,-0.026276670782395904,0.00943111513146513,-0.002972615614514301,-0.05253364625482722,0.018947139031141282,0.04576152750690309,0.08628888072521762,0.007626541798658602,-0.018165850005190682,-0.13076773039097273,0.008898577071812146,0.2,0.0,0.0,0.05465379465188534,-0.0006386464026153689,-0.03828275089971051,-27.335924475090216,-15.886475847534658,8.269813899912588,0.5332527583519078,-1.0498124857815498,1.3196447692125604,-0.8030840873049526,0.5623925160097836,-1.1568686625505737,1.0
